{
"type": "FeatureCollection",
"name": "Bus_stops",
"crs": { "type": "name", "properties": { "name": "urn:ogc:def:crs:OGC:1.3:CRS84" } },
"features": [
{ "type": "Feature", "properties": { "stop_id": "0003", "stop_name": "SAINT PAULS & CHARLOTTE", "stop_lat": 36.85184, "stop_lon": -76.28552 }, "geometry": { "type": "Point", "coordinates": [ -76.28552, 36.85184 ] } },
{ "type": "Feature", "properties": { "stop_id": "0006", "stop_name": "SAINT PAULS & PLUME", "stop_lat": 36.846439, "stop_lon": -76.285941 }, "geometry": { "type": "Point", "coordinates": [ -76.285941, 36.846439 ] } },
{ "type": "Feature", "properties": { "stop_id": "0008", "stop_name": "WATERSIDE & COMMERCIAL", "stop_lat": 36.844572, "stop_lon": -76.289287 }, "geometry": { "type": "Point", "coordinates": [ -76.289287, 36.844572 ] } },
{ "type": "Feature", "properties": { "stop_id": "0010", "stop_name": "MONTICELLO & BRAMBLETON", "stop_lat": 36.853162, "stop_lon": -76.287918 }, "geometry": { "type": "Point", "coordinates": [ -76.287918, 36.853162 ] } },
{ "type": "Feature", "properties": { "stop_id": "0011", "stop_name": "MONTICELLO & STARKE", "stop_lat": 36.854809, "stop_lon": -76.287066 }, "geometry": { "type": "Point", "coordinates": [ -76.287066, 36.854809 ] } },
{ "type": "Feature", "properties": { "stop_id": "0013", "stop_name": "MONTICELLO & PRINCESS ANNE", "stop_lat": 36.860413, "stop_lon": -76.28674 }, "geometry": { "type": "Point", "coordinates": [ -76.28674, 36.860413 ] } },
{ "type": "Feature", "properties": { "stop_id": "0015", "stop_name": "MONTICELLO & 18TH", "stop_lat": 36.865303, "stop_lon": -76.284726 }, "geometry": { "type": "Point", "coordinates": [ -76.284726, 36.865303 ] } },
{ "type": "Feature", "properties": { "stop_id": "0017", "stop_name": "26TH & ARMISTEAD", "stop_lat": 36.870387, "stop_lon": -76.281573 }, "geometry": { "type": "Point", "coordinates": [ -76.281573, 36.870387 ] } },
{ "type": "Feature", "properties": { "stop_id": "0018", "stop_name": "MONTICELLO & 29TH", "stop_lat": 36.872931, "stop_lon": -76.28137 }, "geometry": { "type": "Point", "coordinates": [ -76.28137, 36.872931 ] } },
{ "type": "Feature", "properties": { "stop_id": "0020", "stop_name": "GRANBY & 33RD", "stop_lat": 36.877198, "stop_lon": -76.281799 }, "geometry": { "type": "Point", "coordinates": [ -76.281799, 36.877198 ] } },
{ "type": "Feature", "properties": { "stop_id": "0022", "stop_name": "GRANBY & 38TH", "stop_lat": 36.88036, "stop_lon": -76.281989 }, "geometry": { "type": "Point", "coordinates": [ -76.281989, 36.88036 ] } },
{ "type": "Feature", "properties": { "stop_id": "0023", "stop_name": "GRANBY & DELAWARE", "stop_lat": 36.88285, "stop_lon": -76.281593 }, "geometry": { "type": "Point", "coordinates": [ -76.281593, 36.88285 ] } },
{ "type": "Feature", "properties": { "stop_id": "0024", "stop_name": "GRANBY & 42ND", "stop_lat": 36.884642, "stop_lon": -76.2813 }, "geometry": { "type": "Point", "coordinates": [ -76.2813, 36.884642 ] } },
{ "type": "Feature", "properties": { "stop_id": "0027", "stop_name": "GRANBY & WILLOW WOOD", "stop_lat": 36.891013, "stop_lon": -76.278763 }, "geometry": { "type": "Point", "coordinates": [ -76.278763, 36.891013 ] } },
{ "type": "Feature", "properties": { "stop_id": "0028", "stop_name": "GRANBY & SEVERN", "stop_lat": 36.894237, "stop_lon": -76.278976 }, "geometry": { "type": "Point", "coordinates": [ -76.278976, 36.894237 ] } },
{ "type": "Feature", "properties": { "stop_id": "0030", "stop_name": "GRANBY & KINGSLEY", "stop_lat": 36.897633, "stop_lon": -76.279555 }, "geometry": { "type": "Point", "coordinates": [ -76.279555, 36.897633 ] } },
{ "type": "Feature", "properties": { "stop_id": "0031", "stop_name": "GRANBY & DUMONT", "stop_lat": 36.900284, "stop_lon": -76.278722 }, "geometry": { "type": "Point", "coordinates": [ -76.278722, 36.900284 ] } },
{ "type": "Feature", "properties": { "stop_id": "0032", "stop_name": "GRANBY & SIR OLIVER", "stop_lat": 36.902341, "stop_lon": -76.27782 }, "geometry": { "type": "Point", "coordinates": [ -76.27782, 36.902341 ] } },
{ "type": "Feature", "properties": { "stop_id": "0033", "stop_name": "GRANBY & SEEKEL", "stop_lat": 36.905483, "stop_lon": -76.276433 }, "geometry": { "type": "Point", "coordinates": [ -76.276433, 36.905483 ] } },
{ "type": "Feature", "properties": { "stop_id": "0034", "stop_name": "GRANBY & FORSYTHE", "stop_lat": 36.906911, "stop_lon": -76.275806 }, "geometry": { "type": "Point", "coordinates": [ -76.275806, 36.906911 ] } },
{ "type": "Feature", "properties": { "stop_id": "0036", "stop_name": "GRANBY & FIFE", "stop_lat": 36.90864, "stop_lon": -76.275082 }, "geometry": { "type": "Point", "coordinates": [ -76.275082, 36.90864 ] } },
{ "type": "Feature", "properties": { "stop_id": "0037", "stop_name": "GRANBY & SUBURBAN", "stop_lat": 36.91231, "stop_lon": -76.273488 }, "geometry": { "type": "Point", "coordinates": [ -76.273488, 36.91231 ] } },
{ "type": "Feature", "properties": { "stop_id": "0039", "stop_name": "WARDS CORNER TRANSFER", "stop_lat": 36.917757, "stop_lon": -76.272754 }, "geometry": { "type": "Point", "coordinates": [ -76.272754, 36.917757 ] } },
{ "type": "Feature", "properties": { "stop_id": "0042", "stop_name": "GRANBY & BAYVIEW", "stop_lat": 36.934688, "stop_lon": -76.264051 }, "geometry": { "type": "Point", "coordinates": [ -76.264051, 36.934688 ] } },
{ "type": "Feature", "properties": { "stop_id": "0044", "stop_name": "GRANBY & CHESTER", "stop_lat": 36.939587, "stop_lon": -76.261315 }, "geometry": { "type": "Point", "coordinates": [ -76.261315, 36.939587 ] } },
{ "type": "Feature", "properties": { "stop_id": "0046", "stop_name": "GRANBY & RANDALL", "stop_lat": 36.943404, "stop_lon": -76.259692 }, "geometry": { "type": "Point", "coordinates": [ -76.259692, 36.943404 ] } },
{ "type": "Feature", "properties": { "stop_id": "0048", "stop_name": "GRANBY & BATTERSEA", "stop_lat": 36.948166, "stop_lon": -76.256277 }, "geometry": { "type": "Point", "coordinates": [ -76.256277, 36.948166 ] } },
{ "type": "Feature", "properties": { "stop_id": "0051", "stop_name": "GRANBY & GOVERNMENT", "stop_lat": 36.949204, "stop_lon": -76.255099 }, "geometry": { "type": "Point", "coordinates": [ -76.255099, 36.949204 ] } },
{ "type": "Feature", "properties": { "stop_id": "0053", "stop_name": "GRANBY & DUFFYS", "stop_lat": 36.953547, "stop_lon": -76.251738 }, "geometry": { "type": "Point", "coordinates": [ -76.251738, 36.953547 ] } },
{ "type": "Feature", "properties": { "stop_id": "0054", "stop_name": "OCEAN VIEW & HAMMETT", "stop_lat": 36.951082, "stop_lon": -76.247823 }, "geometry": { "type": "Point", "coordinates": [ -76.247823, 36.951082 ] } },
{ "type": "Feature", "properties": { "stop_id": "0055", "stop_name": "OCEAN VIEW & NORFOLK", "stop_lat": 36.949813, "stop_lon": -76.245815 }, "geometry": { "type": "Point", "coordinates": [ -76.245815, 36.949813 ] } },
{ "type": "Feature", "properties": { "stop_id": "0056", "stop_name": "OCEAN VIEW & ELNORA", "stop_lat": 36.947934, "stop_lon": -76.241558 }, "geometry": { "type": "Point", "coordinates": [ -76.241558, 36.947934 ] } },
{ "type": "Feature", "properties": { "stop_id": "0058", "stop_name": "OCEAN VIEW & ATLANS", "stop_lat": 36.945964, "stop_lon": -76.23882 }, "geometry": { "type": "Point", "coordinates": [ -76.23882, 36.945964 ] } },
{ "type": "Feature", "properties": { "stop_id": "0060", "stop_name": "OCEAN VIEW & BEACH VIEW", "stop_lat": 36.944179, "stop_lon": -76.235762 }, "geometry": { "type": "Point", "coordinates": [ -76.235762, 36.944179 ] } },
{ "type": "Feature", "properties": { "stop_id": "0062", "stop_name": "OCEAN VIEW & STURGIS", "stop_lat": 36.942056, "stop_lon": -76.231913 }, "geometry": { "type": "Point", "coordinates": [ -76.231913, 36.942056 ] } },
{ "type": "Feature", "properties": { "stop_id": "0064", "stop_name": "OCEAN VIEW & BEAUMONT", "stop_lat": 36.940397, "stop_lon": -76.228705 }, "geometry": { "type": "Point", "coordinates": [ -76.228705, 36.940397 ] } },
{ "type": "Feature", "properties": { "stop_id": "0065", "stop_name": "OCEAN VIEW & GROVE", "stop_lat": 36.939199, "stop_lon": -76.225509 }, "geometry": { "type": "Point", "coordinates": [ -76.225509, 36.939199 ] } },
{ "type": "Feature", "properties": { "stop_id": "0066", "stop_name": "OCEAN VIEW & CAPE VIEW", "stop_lat": 36.938352, "stop_lon": -76.223038 }, "geometry": { "type": "Point", "coordinates": [ -76.223038, 36.938352 ] } },
{ "type": "Feature", "properties": { "stop_id": "0068", "stop_name": "OCEAN VIEW & 1ST BAY", "stop_lat": 36.936328, "stop_lon": -76.216953 }, "geometry": { "type": "Point", "coordinates": [ -76.216953, 36.936328 ] } },
{ "type": "Feature", "properties": { "stop_id": "0070", "stop_name": "OCEAN VIEW & 3RD BAY", "stop_lat": 36.934911, "stop_lon": -76.212704 }, "geometry": { "type": "Point", "coordinates": [ -76.212704, 36.934911 ] } },
{ "type": "Feature", "properties": { "stop_id": "0071", "stop_name": "OCEAN VIEW & 7TH BAY", "stop_lat": 36.9341, "stop_lon": -76.20953 }, "geometry": { "type": "Point", "coordinates": [ -76.20953, 36.9341 ] } },
{ "type": "Feature", "properties": { "stop_id": "0072", "stop_name": "OCEAN VIEW & 10TH BAY", "stop_lat": 36.933115, "stop_lon": -76.205746 }, "geometry": { "type": "Point", "coordinates": [ -76.205746, 36.933115 ] } },
{ "type": "Feature", "properties": { "stop_id": "0074", "stop_name": "OCEAN VIEW & 14TH BAY", "stop_lat": 36.931915, "stop_lon": -76.200956 }, "geometry": { "type": "Point", "coordinates": [ -76.200956, 36.931915 ] } },
{ "type": "Feature", "properties": { "stop_id": "0075", "stop_name": "OCEAN VIEW & 16TH BAY", "stop_lat": 36.931381, "stop_lon": -76.198895 }, "geometry": { "type": "Point", "coordinates": [ -76.198895, 36.931381 ] } },
{ "type": "Feature", "properties": { "stop_id": "0077", "stop_name": "OCEAN VIEW & 20TH BAY", "stop_lat": 36.930475, "stop_lon": -76.193606 }, "geometry": { "type": "Point", "coordinates": [ -76.193606, 36.930475 ] } },
{ "type": "Feature", "properties": { "stop_id": "0079", "stop_name": "SHORE & PLEASANT", "stop_lat": 36.928098, "stop_lon": -76.191202 }, "geometry": { "type": "Point", "coordinates": [ -76.191202, 36.928098 ] } },
{ "type": "Feature", "properties": { "stop_id": "0080", "stop_name": "SHORE & DUNNING", "stop_lat": 36.921058, "stop_lon": -76.192628 }, "geometry": { "type": "Point", "coordinates": [ -76.192628, 36.921058 ] } },
{ "type": "Feature", "properties": { "stop_id": "0081", "stop_name": "JOINT EXP BASE LITTLE CREEK", "stop_lat": 36.918136, "stop_lon": -76.191304 }, "geometry": { "type": "Point", "coordinates": [ -76.191304, 36.918136 ] } },
{ "type": "Feature", "properties": { "stop_id": "0082", "stop_name": "SHORE & FLOWERFIELD", "stop_lat": 36.915265, "stop_lon": -76.191367 }, "geometry": { "type": "Point", "coordinates": [ -76.191367, 36.915265 ] } },
{ "type": "Feature", "properties": { "stop_id": "0083", "stop_name": "SHORE & HEUTTE", "stop_lat": 36.912779, "stop_lon": -76.190159 }, "geometry": { "type": "Point", "coordinates": [ -76.190159, 36.912779 ] } },
{ "type": "Feature", "properties": { "stop_id": "0084", "stop_name": "SHORE & DIAMOND SPRINGS", "stop_lat": 36.905531, "stop_lon": -76.177317 }, "geometry": { "type": "Point", "coordinates": [ -76.177317, 36.905531 ] } },
{ "type": "Feature", "properties": { "stop_id": "0086", "stop_name": "SHORE & LAKE SMITH", "stop_lat": 36.906566, "stop_lon": -76.172752 }, "geometry": { "type": "Point", "coordinates": [ -76.172752, 36.906566 ] } },
{ "type": "Feature", "properties": { "stop_id": "0087", "stop_name": "SHORE & KIMBALL", "stop_lat": 36.907107, "stop_lon": -76.169631 }, "geometry": { "type": "Point", "coordinates": [ -76.169631, 36.907107 ] } },
{ "type": "Feature", "properties": { "stop_id": "0088", "stop_name": "SHORE & LAKE SHORES", "stop_lat": 36.906848, "stop_lon": -76.161419 }, "geometry": { "type": "Point", "coordinates": [ -76.161419, 36.906848 ] } },
{ "type": "Feature", "properties": { "stop_id": "0089", "stop_name": "SHORE & JACK FROST", "stop_lat": 36.90695, "stop_lon": -76.15643 }, "geometry": { "type": "Point", "coordinates": [ -76.15643, 36.90695 ] } },
{ "type": "Feature", "properties": { "stop_id": "0090", "stop_name": "SHORE & GELA", "stop_lat": 36.90639, "stop_lon": -76.151363 }, "geometry": { "type": "Point", "coordinates": [ -76.151363, 36.90639 ] } },
{ "type": "Feature", "properties": { "stop_id": "0092", "stop_name": "SHORE & WELLINGS", "stop_lat": 36.905629, "stop_lon": -76.145608 }, "geometry": { "type": "Point", "coordinates": [ -76.145608, 36.905629 ] } },
{ "type": "Feature", "properties": { "stop_id": "0093", "stop_name": "SHORE & PLEASURE HOUSE", "stop_lat": 36.904554, "stop_lon": -76.137797 }, "geometry": { "type": "Point", "coordinates": [ -76.137797, 36.904554 ] } },
{ "type": "Feature", "properties": { "stop_id": "0094", "stop_name": "PLEASURE HOUSE & VICTORY", "stop_lat": 36.902146, "stop_lon": -76.136475 }, "geometry": { "type": "Point", "coordinates": [ -76.136475, 36.902146 ] } },
{ "type": "Feature", "properties": { "stop_id": "0095", "stop_name": "PLEASURE HOUSE & FIRST COURT", "stop_lat": 36.897965, "stop_lon": -76.138151 }, "geometry": { "type": "Point", "coordinates": [ -76.138151, 36.897965 ] } },
{ "type": "Feature", "properties": { "stop_id": "0096", "stop_name": "PLEASURE HOUSE & INDEPENDENCE", "stop_lat": 36.894934, "stop_lon": -76.141423 }, "geometry": { "type": "Point", "coordinates": [ -76.141423, 36.894934 ] } },
{ "type": "Feature", "properties": { "stop_id": "0097", "stop_name": "INDEPENDENCE & EWELL", "stop_lat": 36.884184, "stop_lon": -76.134711 }, "geometry": { "type": "Point", "coordinates": [ -76.134711, 36.884184 ] } },
{ "type": "Feature", "properties": { "stop_id": "0098", "stop_name": "INDEPENDENCE & PAUL REVERE", "stop_lat": 36.8798, "stop_lon": -76.133364 }, "geometry": { "type": "Point", "coordinates": [ -76.133364, 36.8798 ] } },
{ "type": "Feature", "properties": { "stop_id": "0099", "stop_name": "INDEPENDENCE & HAYGOOD", "stop_lat": 36.873994, "stop_lon": -76.134745 }, "geometry": { "type": "Point", "coordinates": [ -76.134745, 36.873994 ] } },
{ "type": "Feature", "properties": { "stop_id": "0101", "stop_name": "INDEPENDENCE & WITCHDUCK", "stop_lat": 36.867947, "stop_lon": -76.133047 }, "geometry": { "type": "Point", "coordinates": [ -76.133047, 36.867947 ] } },
{ "type": "Feature", "properties": { "stop_id": "0102", "stop_name": "INDEPENDENCE & PEMBROKE", "stop_lat": 36.863528, "stop_lon": -76.132314 }, "geometry": { "type": "Point", "coordinates": [ -76.132314, 36.863528 ] } },
{ "type": "Feature", "properties": { "stop_id": "0103", "stop_name": "INDEPENDENCE & JERICHO", "stop_lat": 36.856533, "stop_lon": -76.134495 }, "geometry": { "type": "Point", "coordinates": [ -76.134495, 36.856533 ] } },
{ "type": "Feature", "properties": { "stop_id": "0104", "stop_name": "INDEPENDENCE & HINSDALE", "stop_lat": 36.851946, "stop_lon": -76.136708 }, "geometry": { "type": "Point", "coordinates": [ -76.136708, 36.851946 ] } },
{ "type": "Feature", "properties": { "stop_id": "0105", "stop_name": "INDEPENDENCE & JEANNE", "stop_lat": 36.848907, "stop_lon": -76.136948 }, "geometry": { "type": "Point", "coordinates": [ -76.136948, 36.848907 ] } },
{ "type": "Feature", "properties": { "stop_id": "0106", "stop_name": "PEMBROKE MALL", "stop_lat": 36.847027, "stop_lon": -76.129864 }, "geometry": { "type": "Point", "coordinates": [ -76.129864, 36.847027 ] } },
{ "type": "Feature", "properties": { "stop_id": "0107", "stop_name": "SHORE & WINDWARD", "stop_lat": 36.90395, "stop_lon": -76.13128 }, "geometry": { "type": "Point", "coordinates": [ -76.13128, 36.90395 ] } },
{ "type": "Feature", "properties": { "stop_id": "0108", "stop_name": "NIMMO & UPTON", "stop_lat": 36.761641, "stop_lon": -76.007247 }, "geometry": { "type": "Point", "coordinates": [ -76.007247, 36.761641 ] } },
{ "type": "Feature", "properties": { "stop_id": "0109", "stop_name": "ELSON GREEN & UPTON", "stop_lat": 36.756804, "stop_lon": -76.008702 }, "geometry": { "type": "Point", "coordinates": [ -76.008702, 36.756804 ] } },
{ "type": "Feature", "properties": { "stop_id": "0110", "stop_name": "INDEPENDENCE & BROAD", "stop_lat": 36.84663, "stop_lon": -76.136571 }, "geometry": { "type": "Point", "coordinates": [ -76.136571, 36.84663 ] } },
{ "type": "Feature", "properties": { "stop_id": "0111", "stop_name": "INDEPENDENCE & HINSDALE", "stop_lat": 36.851923, "stop_lon": -76.136206 }, "geometry": { "type": "Point", "coordinates": [ -76.136206, 36.851923 ] } },
{ "type": "Feature", "properties": { "stop_id": "0112", "stop_name": "INDEPENDENCE & CONSTITUTION", "stop_lat": 36.85581, "stop_lon": -76.13437 }, "geometry": { "type": "Point", "coordinates": [ -76.13437, 36.85581 ] } },
{ "type": "Feature", "properties": { "stop_id": "0113", "stop_name": "INDEPENDENCE & HESSIAN", "stop_lat": 36.858119, "stop_lon": -76.13336 }, "geometry": { "type": "Point", "coordinates": [ -76.13336, 36.858119 ] } },
{ "type": "Feature", "properties": { "stop_id": "0114", "stop_name": "INDEPENDENCE & PEMBROKE", "stop_lat": 36.86402, "stop_lon": -76.131875 }, "geometry": { "type": "Point", "coordinates": [ -76.131875, 36.86402 ] } },
{ "type": "Feature", "properties": { "stop_id": "0115", "stop_name": "INDEPENDENCE & WITCHDUCK", "stop_lat": 36.868496, "stop_lon": -76.132817 }, "geometry": { "type": "Point", "coordinates": [ -76.132817, 36.868496 ] } },
{ "type": "Feature", "properties": { "stop_id": "0116", "stop_name": "INDEPENDENCE & WISHART", "stop_lat": 36.873691, "stop_lon": -76.134311 }, "geometry": { "type": "Point", "coordinates": [ -76.134311, 36.873691 ] } },
{ "type": "Feature", "properties": { "stop_id": "0117", "stop_name": "INDEPENDENCE & WAKEFIELD", "stop_lat": 36.88033, "stop_lon": -76.132961 }, "geometry": { "type": "Point", "coordinates": [ -76.132961, 36.88033 ] } },
{ "type": "Feature", "properties": { "stop_id": "0118", "stop_name": "INDEPENDENCE & SEAL", "stop_lat": 36.888042, "stop_lon": -76.136663 }, "geometry": { "type": "Point", "coordinates": [ -76.136663, 36.888042 ] } },
{ "type": "Feature", "properties": { "stop_id": "0120", "stop_name": "INDEPENDENCE & TULIP", "stop_lat": 36.893318, "stop_lon": -76.140641 }, "geometry": { "type": "Point", "coordinates": [ -76.140641, 36.893318 ] } },
{ "type": "Feature", "properties": { "stop_id": "0121", "stop_name": "PLEASURE HOUSE & ANDREW JACKSON", "stop_lat": 36.894759, "stop_lon": -76.141408 }, "geometry": { "type": "Point", "coordinates": [ -76.141408, 36.894759 ] } },
{ "type": "Feature", "properties": { "stop_id": "0122", "stop_name": "SHORE & GELA", "stop_lat": 36.906505, "stop_lon": -76.150418 }, "geometry": { "type": "Point", "coordinates": [ -76.150418, 36.906505 ] } },
{ "type": "Feature", "properties": { "stop_id": "0123", "stop_name": "SHORE & JACK FROST", "stop_lat": 36.907176, "stop_lon": -76.156094 }, "geometry": { "type": "Point", "coordinates": [ -76.156094, 36.907176 ] } },
{ "type": "Feature", "properties": { "stop_id": "0124", "stop_name": "SHORE & LAKE SHORES", "stop_lat": 36.907068, "stop_lon": -76.162755 }, "geometry": { "type": "Point", "coordinates": [ -76.162755, 36.907068 ] } },
{ "type": "Feature", "properties": { "stop_id": "0125", "stop_name": "SHORE & KIMBALL", "stop_lat": 36.907344, "stop_lon": -76.170417 }, "geometry": { "type": "Point", "coordinates": [ -76.170417, 36.907344 ] } },
{ "type": "Feature", "properties": { "stop_id": "0126", "stop_name": "SHORE & LAKE SMITH", "stop_lat": 36.906903, "stop_lon": -76.172618 }, "geometry": { "type": "Point", "coordinates": [ -76.172618, 36.906903 ] } },
{ "type": "Feature", "properties": { "stop_id": "0127", "stop_name": "SHORE & DIAMOND SPRINGS", "stop_lat": 36.905733, "stop_lon": -76.178433 }, "geometry": { "type": "Point", "coordinates": [ -76.178433, 36.905733 ] } },
{ "type": "Feature", "properties": { "stop_id": "0128", "stop_name": "SHORE & FLOWERFIELD", "stop_lat": 36.915169, "stop_lon": -76.191105 }, "geometry": { "type": "Point", "coordinates": [ -76.191105, 36.915169 ] } },
{ "type": "Feature", "properties": { "stop_id": "0129", "stop_name": "SHORE & DUNNING", "stop_lat": 36.920597, "stop_lon": -76.192435 }, "geometry": { "type": "Point", "coordinates": [ -76.192435, 36.920597 ] } },
{ "type": "Feature", "properties": { "stop_id": "0132", "stop_name": "OCEAN VIEW & 19TH BAY", "stop_lat": 36.930883, "stop_lon": -76.194834 }, "geometry": { "type": "Point", "coordinates": [ -76.194834, 36.930883 ] } },
{ "type": "Feature", "properties": { "stop_id": "0133", "stop_name": "OCEAN VIEW & 14TH BAY", "stop_lat": 36.931902, "stop_lon": -76.200404 }, "geometry": { "type": "Point", "coordinates": [ -76.200404, 36.931902 ] } },
{ "type": "Feature", "properties": { "stop_id": "0137", "stop_name": "OCEAN VIEW & 10TH BAY", "stop_lat": 36.933125, "stop_lon": -76.205138 }, "geometry": { "type": "Point", "coordinates": [ -76.205138, 36.933125 ] } },
{ "type": "Feature", "properties": { "stop_id": "0138", "stop_name": "OCEAN VIEW & 6TH BAY", "stop_lat": 36.934484, "stop_lon": -76.210343 }, "geometry": { "type": "Point", "coordinates": [ -76.210343, 36.934484 ] } },
{ "type": "Feature", "properties": { "stop_id": "0139", "stop_name": "OCEAN VIEW & 2ND BAY", "stop_lat": 36.93547, "stop_lon": -76.214096 }, "geometry": { "type": "Point", "coordinates": [ -76.214096, 36.93547 ] } },
{ "type": "Feature", "properties": { "stop_id": "0140", "stop_name": "OCEAN VIEW & CAPEVIEW", "stop_lat": 36.938444, "stop_lon": -76.222713 }, "geometry": { "type": "Point", "coordinates": [ -76.222713, 36.938444 ] } },
{ "type": "Feature", "properties": { "stop_id": "0141", "stop_name": "OCEAN VIEW & GROVE", "stop_lat": 36.939554, "stop_lon": -76.225963 }, "geometry": { "type": "Point", "coordinates": [ -76.225963, 36.939554 ] } },
{ "type": "Feature", "properties": { "stop_id": "0143", "stop_name": "OCEAN VIEW & WILLOW", "stop_lat": 36.941504, "stop_lon": -76.230474 }, "geometry": { "type": "Point", "coordinates": [ -76.230474, 36.941504 ] } },
{ "type": "Feature", "properties": { "stop_id": "0144", "stop_name": "OCEAN VIEW & STURGIS", "stop_lat": 36.942319, "stop_lon": -76.232115 }, "geometry": { "type": "Point", "coordinates": [ -76.232115, 36.942319 ] } },
{ "type": "Feature", "properties": { "stop_id": "0146", "stop_name": "OCEAN VIEW & BEACH VIEW", "stop_lat": 36.944271, "stop_lon": -76.235617 }, "geometry": { "type": "Point", "coordinates": [ -76.235617, 36.944271 ] } },
{ "type": "Feature", "properties": { "stop_id": "0149", "stop_name": "OCEAN VIEW & NORFOLK", "stop_lat": 36.94997, "stop_lon": -76.245823 }, "geometry": { "type": "Point", "coordinates": [ -76.245823, 36.94997 ] } },
{ "type": "Feature", "properties": { "stop_id": "0153", "stop_name": "FIRST VIEW & MAPLE", "stop_lat": 36.949561, "stop_lon": -76.260216 }, "geometry": { "type": "Point", "coordinates": [ -76.260216, 36.949561 ] } },
{ "type": "Feature", "properties": { "stop_id": "0156", "stop_name": "FIRST VIEW & GOVERNMENT", "stop_lat": 36.952121, "stop_lon": -76.257532 }, "geometry": { "type": "Point", "coordinates": [ -76.257532, 36.952121 ] } },
{ "type": "Feature", "properties": { "stop_id": "0160", "stop_name": "GRANBY & GOVERNMENT", "stop_lat": 36.9504, "stop_lon": -76.254341 }, "geometry": { "type": "Point", "coordinates": [ -76.254341, 36.9504 ] } },
{ "type": "Feature", "properties": { "stop_id": "0161", "stop_name": "GRANBY & OSBORNE", "stop_lat": 36.948937, "stop_lon": -76.255945 }, "geometry": { "type": "Point", "coordinates": [ -76.255945, 36.948937 ] } },
{ "type": "Feature", "properties": { "stop_id": "0162", "stop_name": "GRANBY & LEICESTER", "stop_lat": 36.942684, "stop_lon": -76.26024 }, "geometry": { "type": "Point", "coordinates": [ -76.26024, 36.942684 ] } },
{ "type": "Feature", "properties": { "stop_id": "0164", "stop_name": "GRANBY & CHESTER", "stop_lat": 36.939594, "stop_lon": -76.261672 }, "geometry": { "type": "Point", "coordinates": [ -76.261672, 36.939594 ] } },
{ "type": "Feature", "properties": { "stop_id": "0165", "stop_name": "GRANBY & LANDALE", "stop_lat": 36.936227, "stop_lon": -76.263575 }, "geometry": { "type": "Point", "coordinates": [ -76.263575, 36.936227 ] } },
{ "type": "Feature", "properties": { "stop_id": "0166", "stop_name": "GRANBY & BAYVIEW", "stop_lat": 36.934366, "stop_lon": -76.264629 }, "geometry": { "type": "Point", "coordinates": [ -76.264629, 36.934366 ] } },
{ "type": "Feature", "properties": { "stop_id": "0169", "stop_name": "GRANBY & LITTLE CREEK", "stop_lat": 36.915456, "stop_lon": -76.272758 }, "geometry": { "type": "Point", "coordinates": [ -76.272758, 36.915456 ] } },
{ "type": "Feature", "properties": { "stop_id": "0170", "stop_name": "GRANBY & NORTH SHORE", "stop_lat": 36.912501, "stop_lon": -76.273809 }, "geometry": { "type": "Point", "coordinates": [ -76.273809, 36.912501 ] } },
{ "type": "Feature", "properties": { "stop_id": "0171", "stop_name": "GRANBY & WARREN", "stop_lat": 36.908965, "stop_lon": -76.275313 }, "geometry": { "type": "Point", "coordinates": [ -76.275313, 36.908965 ] } },
{ "type": "Feature", "properties": { "stop_id": "0173", "stop_name": "GRANBY & OXFORD", "stop_lat": 36.905869, "stop_lon": -76.276686 }, "geometry": { "type": "Point", "coordinates": [ -76.276686, 36.905869 ] } },
{ "type": "Feature", "properties": { "stop_id": "0175", "stop_name": "GRANBY & CARLISLE", "stop_lat": 36.902626, "stop_lon": -76.278048 }, "geometry": { "type": "Point", "coordinates": [ -76.278048, 36.902626 ] } },
{ "type": "Feature", "properties": { "stop_id": "0177", "stop_name": "GRANBY & WHITING", "stop_lat": 36.900507, "stop_lon": -76.278963 }, "geometry": { "type": "Point", "coordinates": [ -76.278963, 36.900507 ] } },
{ "type": "Feature", "properties": { "stop_id": "0178", "stop_name": "GRANBY & KINGSLEY", "stop_lat": 36.897975, "stop_lon": -76.279961 }, "geometry": { "type": "Point", "coordinates": [ -76.279961, 36.897975 ] } },
{ "type": "Feature", "properties": { "stop_id": "0180", "stop_name": "GRANBY & SEVERN", "stop_lat": 36.894418, "stop_lon": -76.279333 }, "geometry": { "type": "Point", "coordinates": [ -76.279333, 36.894418 ] } },
{ "type": "Feature", "properties": { "stop_id": "0181", "stop_name": "GRANBY & WILLOW WOOD", "stop_lat": 36.890773, "stop_lon": -76.279176 }, "geometry": { "type": "Point", "coordinates": [ -76.279176, 36.890773 ] } },
{ "type": "Feature", "properties": { "stop_id": "0182", "stop_name": "GRANBY & CONNECTICUT", "stop_lat": 36.885585, "stop_lon": -76.281396 }, "geometry": { "type": "Point", "coordinates": [ -76.281396, 36.885585 ] } },
{ "type": "Feature", "properties": { "stop_id": "0184", "stop_name": "GRANBY & 35TH", "stop_lat": 36.878784, "stop_lon": -76.282172 }, "geometry": { "type": "Point", "coordinates": [ -76.282172, 36.878784 ] } },
{ "type": "Feature", "properties": { "stop_id": "0186", "stop_name": "MONTICELLO & 29th", "stop_lat": 36.872814, "stop_lon": -76.281576 }, "geometry": { "type": "Point", "coordinates": [ -76.281576, 36.872814 ] } },
{ "type": "Feature", "properties": { "stop_id": "0188", "stop_name": "MONTICELLO & 25TH", "stop_lat": 36.870127, "stop_lon": -76.282805 }, "geometry": { "type": "Point", "coordinates": [ -76.282805, 36.870127 ] } },
{ "type": "Feature", "properties": { "stop_id": "0189", "stop_name": "MONTICELLO & 19TH", "stop_lat": 36.86603, "stop_lon": -76.284652 }, "geometry": { "type": "Point", "coordinates": [ -76.284652, 36.86603 ] } },
{ "type": "Feature", "properties": { "stop_id": "0191", "stop_name": "MONTICELLO & 15TH", "stop_lat": 36.862512, "stop_lon": -76.286128 }, "geometry": { "type": "Point", "coordinates": [ -76.286128, 36.862512 ] } },
{ "type": "Feature", "properties": { "stop_id": "0192", "stop_name": "MONTICELLO & PRINCESS ANNE", "stop_lat": 36.860352, "stop_lon": -76.287013 }, "geometry": { "type": "Point", "coordinates": [ -76.287013, 36.860352 ] } },
{ "type": "Feature", "properties": { "stop_id": "0197", "stop_name": "WOODLAKE & OLD GREENBRIAR", "stop_lat": 36.790344, "stop_lon": -76.235475 }, "geometry": { "type": "Point", "coordinates": [ -76.235475, 36.790344 ] } },
{ "type": "Feature", "properties": { "stop_id": "0198", "stop_name": "OLD GREENBRIAR & JUNIPER", "stop_lat": 36.794433, "stop_lon": -76.23461 }, "geometry": { "type": "Point", "coordinates": [ -76.23461, 36.794433 ] } },
{ "type": "Feature", "properties": { "stop_id": "0199", "stop_name": "OLD GREENBRIAR & JUNIPER", "stop_lat": 36.793992, "stop_lon": -76.23445 }, "geometry": { "type": "Point", "coordinates": [ -76.23445, 36.793992 ] } },
{ "type": "Feature", "properties": { "stop_id": "0203", "stop_name": "OLNEY & COLONIAL", "stop_lat": 36.859043, "stop_lon": -76.29678 }, "geometry": { "type": "Point", "coordinates": [ -76.29678, 36.859043 ] } },
{ "type": "Feature", "properties": { "stop_id": "0204", "stop_name": "OLNEY & STOCKLEY GARDENS", "stop_lat": 36.860112, "stop_lon": -76.299225 }, "geometry": { "type": "Point", "coordinates": [ -76.299225, 36.860112 ] } },
{ "type": "Feature", "properties": { "stop_id": "0205", "stop_name": "OLNEY & NORFOLK GENERAL", "stop_lat": 36.861621, "stop_lon": -76.302657 }, "geometry": { "type": "Point", "coordinates": [ -76.302657, 36.861621 ] } },
{ "type": "Feature", "properties": { "stop_id": "0208", "stop_name": "HAMPTON & GRAYDON", "stop_lat": 36.865936, "stop_lon": -76.301043 }, "geometry": { "type": "Point", "coordinates": [ -76.301043, 36.865936 ] } },
{ "type": "Feature", "properties": { "stop_id": "0209", "stop_name": "HAMPTON & PRINCESS ANNE", "stop_lat": 36.866647, "stop_lon": -76.300362 }, "geometry": { "type": "Point", "coordinates": [ -76.300362, 36.866647 ] } },
{ "type": "Feature", "properties": { "stop_id": "0211", "stop_name": "HAMPTON & SPOTSWOOD", "stop_lat": 36.869021, "stop_lon": -76.300657 }, "geometry": { "type": "Point", "coordinates": [ -76.300657, 36.869021 ] } },
{ "type": "Feature", "properties": { "stop_id": "0214", "stop_name": "HAMPTON & 27TH", "stop_lat": 36.877004, "stop_lon": -76.30189 }, "geometry": { "type": "Point", "coordinates": [ -76.30189, 36.877004 ] } },
{ "type": "Feature", "properties": { "stop_id": "0216", "stop_name": "HAMPTON & 37TH", "stop_lat": 36.878321, "stop_lon": -76.301975 }, "geometry": { "type": "Point", "coordinates": [ -76.301975, 36.878321 ] } },
{ "type": "Feature", "properties": { "stop_id": "0218", "stop_name": "HAMPTON & 41ST", "stop_lat": 36.882399, "stop_lon": -76.302209 }, "geometry": { "type": "Point", "coordinates": [ -76.302209, 36.882399 ] } },
{ "type": "Feature", "properties": { "stop_id": "0219", "stop_name": "HAMPTON & 45TH", "stop_lat": 36.884223, "stop_lon": -76.302219 }, "geometry": { "type": "Point", "coordinates": [ -76.302219, 36.884223 ] } },
{ "type": "Feature", "properties": { "stop_id": "0221", "stop_name": "HAMPTON & 49TH", "stop_lat": 36.887224, "stop_lon": -76.302407 }, "geometry": { "type": "Point", "coordinates": [ -76.302407, 36.887224 ] } },
{ "type": "Feature", "properties": { "stop_id": "0222", "stop_name": "HAMPTON & BOLLING", "stop_lat": 36.891063, "stop_lon": -76.30373 }, "geometry": { "type": "Point", "coordinates": [ -76.30373, 36.891063 ] } },
{ "type": "Feature", "properties": { "stop_id": "0223", "stop_name": "HAMPTON & ROCKBRIDGE", "stop_lat": 36.894709, "stop_lon": -76.303064 }, "geometry": { "type": "Point", "coordinates": [ -76.303064, 36.894709 ] } },
{ "type": "Feature", "properties": { "stop_id": "0225", "stop_name": "HAMPTON & SURRY", "stop_lat": 36.896514, "stop_lon": -76.302741 }, "geometry": { "type": "Point", "coordinates": [ -76.302741, 36.896514 ] } },
{ "type": "Feature", "properties": { "stop_id": "0226", "stop_name": "HAMPTON & LEXAN", "stop_lat": 36.900283, "stop_lon": -76.303237 }, "geometry": { "type": "Point", "coordinates": [ -76.303237, 36.900283 ] } },
{ "type": "Feature", "properties": { "stop_id": "0227", "stop_name": "HAMPTON & ESCADRILLE", "stop_lat": 36.902286, "stop_lon": -76.303851 }, "geometry": { "type": "Point", "coordinates": [ -76.303851, 36.902286 ] } },
{ "type": "Feature", "properties": { "stop_id": "0228", "stop_name": "HAMPTON & HELENA", "stop_lat": 36.909809, "stop_lon": -76.305531 }, "geometry": { "type": "Point", "coordinates": [ -76.305531, 36.909809 ] } },
{ "type": "Feature", "properties": { "stop_id": "0230", "stop_name": "HAMPTON & LITTLE CREEK", "stop_lat": 36.915454, "stop_lon": -76.307612 }, "geometry": { "type": "Point", "coordinates": [ -76.307612, 36.915454 ] } },
{ "type": "Feature", "properties": { "stop_id": "0231", "stop_name": "HAMPTON & STAFF COLLEGE", "stop_lat": 36.919734, "stop_lon": -76.312223 }, "geometry": { "type": "Point", "coordinates": [ -76.312223, 36.919734 ] } },
{ "type": "Feature", "properties": { "stop_id": "0233", "stop_name": "HAMPTON & BAKER", "stop_lat": 36.923317, "stop_lon": -76.315957 }, "geometry": { "type": "Point", "coordinates": [ -76.315957, 36.923317 ] } },
{ "type": "Feature", "properties": { "stop_id": "0235", "stop_name": "HAMPTON & BEECHWOOD", "stop_lat": 36.929456, "stop_lon": -76.317648 }, "geometry": { "type": "Point", "coordinates": [ -76.317648, 36.929456 ] } },
{ "type": "Feature", "properties": { "stop_id": "0239", "stop_name": "HAMMOND & ADMIRAL TAUSSIG", "stop_lat": 36.943201, "stop_lon": -76.312152 }, "geometry": { "type": "Point", "coordinates": [ -76.312152, 36.943201 ] } },
{ "type": "Feature", "properties": { "stop_id": "0240", "stop_name": "HAMPTON & B", "stop_lat": 36.936992, "stop_lon": -76.318637 }, "geometry": { "type": "Point", "coordinates": [ -76.318637, 36.936992 ] } },
{ "type": "Feature", "properties": { "stop_id": "0243", "stop_name": "HAMPTON & MAPLESHADE", "stop_lat": 36.930522, "stop_lon": -76.318052 }, "geometry": { "type": "Point", "coordinates": [ -76.318052, 36.930522 ] } },
{ "type": "Feature", "properties": { "stop_id": "0244", "stop_name": "HAMPTON & BEECHWOOD", "stop_lat": 36.929452, "stop_lon": -76.317979 }, "geometry": { "type": "Point", "coordinates": [ -76.317979, 36.929452 ] } },
{ "type": "Feature", "properties": { "stop_id": "0245", "stop_name": "HAMPTON & GLENDALE", "stop_lat": 36.927748, "stop_lon": -76.317837 }, "geometry": { "type": "Point", "coordinates": [ -76.317837, 36.927748 ] } },
{ "type": "Feature", "properties": { "stop_id": "0246", "stop_name": "HAMPTON & HELMICK", "stop_lat": 36.925313, "stop_lon": -76.317393 }, "geometry": { "type": "Point", "coordinates": [ -76.317393, 36.925313 ] } },
{ "type": "Feature", "properties": { "stop_id": "0248", "stop_name": "HAMPTON & BAKER", "stop_lat": 36.923785, "stop_lon": -76.316641 }, "geometry": { "type": "Point", "coordinates": [ -76.316641, 36.923785 ] } },
{ "type": "Feature", "properties": { "stop_id": "0250", "stop_name": "HAMPTON & STAFF COLLEGE", "stop_lat": 36.918838, "stop_lon": -76.311732 }, "geometry": { "type": "Point", "coordinates": [ -76.311732, 36.918838 ] } },
{ "type": "Feature", "properties": { "stop_id": "0252", "stop_name": "HAMPTON & LITTLE CREEK", "stop_lat": 36.915778, "stop_lon": -76.30843 }, "geometry": { "type": "Point", "coordinates": [ -76.30843, 36.915778 ] } },
{ "type": "Feature", "properties": { "stop_id": "0253", "stop_name": "HAMPTON & RUNNYMEDE", "stop_lat": 36.914414, "stop_lon": -76.307211 }, "geometry": { "type": "Point", "coordinates": [ -76.307211, 36.914414 ] } },
{ "type": "Feature", "properties": { "stop_id": "0254", "stop_name": "HAMPTON & NORTH SHORE", "stop_lat": 36.910923, "stop_lon": -76.30599 }, "geometry": { "type": "Point", "coordinates": [ -76.30599, 36.910923 ] } },
{ "type": "Feature", "properties": { "stop_id": "0256", "stop_name": "HAMPTON & LEXAN", "stop_lat": 36.900529, "stop_lon": -76.303656 }, "geometry": { "type": "Point", "coordinates": [ -76.303656, 36.900529 ] } },
{ "type": "Feature", "properties": { "stop_id": "0258", "stop_name": "HAMPTON & SURREY", "stop_lat": 36.896117, "stop_lon": -76.303021 }, "geometry": { "type": "Point", "coordinates": [ -76.303021, 36.896117 ] } },
{ "type": "Feature", "properties": { "stop_id": "0259", "stop_name": "HAMPTON & ROCKBRIDGE", "stop_lat": 36.894748, "stop_lon": -76.303373 }, "geometry": { "type": "Point", "coordinates": [ -76.303373, 36.894748 ] } },
{ "type": "Feature", "properties": { "stop_id": "0261", "stop_name": "HAMPTON & BOLLING", "stop_lat": 36.890844, "stop_lon": -76.303932 }, "geometry": { "type": "Point", "coordinates": [ -76.303932, 36.890844 ] } },
{ "type": "Feature", "properties": { "stop_id": "0264", "stop_name": "HAMPTON & 45TH", "stop_lat": 36.88464, "stop_lon": -76.302588 }, "geometry": { "type": "Point", "coordinates": [ -76.302588, 36.88464 ] } },
{ "type": "Feature", "properties": { "stop_id": "0266", "stop_name": "HAMPTON & 41ST", "stop_lat": 36.881588, "stop_lon": -76.302397 }, "geometry": { "type": "Point", "coordinates": [ -76.302397, 36.881588 ] } },
{ "type": "Feature", "properties": { "stop_id": "0267", "stop_name": "HAMPTON & 25TH", "stop_lat": 36.875673, "stop_lon": -76.301959 }, "geometry": { "type": "Point", "coordinates": [ -76.301959, 36.875673 ] } },
{ "type": "Feature", "properties": { "stop_id": "0268", "stop_name": "HAMPTON & WOODROW", "stop_lat": 36.871617, "stop_lon": -76.301368 }, "geometry": { "type": "Point", "coordinates": [ -76.301368, 36.871617 ] } },
{ "type": "Feature", "properties": { "stop_id": "0272", "stop_name": "REDGATE & COLLEY", "stop_lat": 36.863996, "stop_lon": -76.30136 }, "geometry": { "type": "Point", "coordinates": [ -76.30136, 36.863996 ] } },
{ "type": "Feature", "properties": { "stop_id": "0273", "stop_name": "COLLEY & RALEIGH", "stop_lat": 36.863123, "stop_lon": -76.300238 }, "geometry": { "type": "Point", "coordinates": [ -76.300238, 36.863123 ] } },
{ "type": "Feature", "properties": { "stop_id": "0275", "stop_name": "OLNEY & MOWBRAY ARCH", "stop_lat": 36.859415, "stop_lon": -76.298056 }, "geometry": { "type": "Point", "coordinates": [ -76.298056, 36.859415 ] } },
{ "type": "Feature", "properties": { "stop_id": "0276", "stop_name": "OLNEY & CHRYSLER MUSEUM", "stop_lat": 36.85743, "stop_lon": -76.293607 }, "geometry": { "type": "Point", "coordinates": [ -76.293607, 36.85743 ] } },
{ "type": "Feature", "properties": { "stop_id": "0281", "stop_name": "HAMPTON & SPOTSWOOD", "stop_lat": 36.868705, "stop_lon": -76.300716 }, "geometry": { "type": "Point", "coordinates": [ -76.300716, 36.868705 ] } },
{ "type": "Feature", "properties": { "stop_id": "0282", "stop_name": "ELSON GREEN & UPTON", "stop_lat": 36.756659, "stop_lon": -76.008745 }, "geometry": { "type": "Point", "coordinates": [ -76.008745, 36.756659 ] } },
{ "type": "Feature", "properties": { "stop_id": "0283", "stop_name": "NIMMO & UPTON", "stop_lat": 36.762431, "stop_lon": -76.008625 }, "geometry": { "type": "Point", "coordinates": [ -76.008625, 36.762431 ] } },
{ "type": "Feature", "properties": { "stop_id": "0286", "stop_name": "26TH & GAZEL", "stop_lat": 36.87033, "stop_lon": -76.277747 }, "geometry": { "type": "Point", "coordinates": [ -76.277747, 36.87033 ] } },
{ "type": "Feature", "properties": { "stop_id": "0289", "stop_name": "26TH & WAVERLY", "stop_lat": 36.87215, "stop_lon": -76.274518 }, "geometry": { "type": "Point", "coordinates": [ -76.274518, 36.87215 ] } },
{ "type": "Feature", "properties": { "stop_id": "0290", "stop_name": "LAFAYETTE & DUPONT", "stop_lat": 36.874331, "stop_lon": -76.270783 }, "geometry": { "type": "Point", "coordinates": [ -76.270783, 36.874331 ] } },
{ "type": "Feature", "properties": { "stop_id": "0292", "stop_name": "LAFAYETTE & BELLEVUE", "stop_lat": 36.877658, "stop_lon": -76.267118 }, "geometry": { "type": "Point", "coordinates": [ -76.267118, 36.877658 ] } },
{ "type": "Feature", "properties": { "stop_id": "0293", "stop_name": "LAFAYETTE & LORRAINE", "stop_lat": 36.877956, "stop_lon": -76.265194 }, "geometry": { "type": "Point", "coordinates": [ -76.265194, 36.877956 ] } },
{ "type": "Feature", "properties": { "stop_id": "0297", "stop_name": "LAFAYETTE & BAPAUME", "stop_lat": 36.876813, "stop_lon": -76.260329 }, "geometry": { "type": "Point", "coordinates": [ -76.260329, 36.876813 ] } },
{ "type": "Feature", "properties": { "stop_id": "0300", "stop_name": "CHESAPEAKE & CROMWELL", "stop_lat": 36.875535, "stop_lon": -76.252477 }, "geometry": { "type": "Point", "coordinates": [ -76.252477, 36.875535 ] } },
{ "type": "Feature", "properties": { "stop_id": "0302", "stop_name": "CHESAPEAKE & ROBINHOOD", "stop_lat": 36.878538, "stop_lon": -76.24956 }, "geometry": { "type": "Point", "coordinates": [ -76.24956, 36.878538 ] } },
{ "type": "Feature", "properties": { "stop_id": "0303", "stop_name": "CHESAPEAKE & CURIE", "stop_lat": 36.897507, "stop_lon": -76.238578 }, "geometry": { "type": "Point", "coordinates": [ -76.238578, 36.897507 ] } },
{ "type": "Feature", "properties": { "stop_id": "0304", "stop_name": "CHESAPEAKE & BUCKINGHAM", "stop_lat": 36.881237, "stop_lon": -76.247307 }, "geometry": { "type": "Point", "coordinates": [ -76.247307, 36.881237 ] } },
{ "type": "Feature", "properties": { "stop_id": "0307", "stop_name": "CHESAPEAKE & LENOIR", "stop_lat": 36.885075, "stop_lon": -76.244738 }, "geometry": { "type": "Point", "coordinates": [ -76.244738, 36.885075 ] } },
{ "type": "Feature", "properties": { "stop_id": "0309", "stop_name": "CHESAPEAKE & NORVIEW", "stop_lat": 36.889139, "stop_lon": -76.239358 }, "geometry": { "type": "Point", "coordinates": [ -76.239358, 36.889139 ] } },
{ "type": "Feature", "properties": { "stop_id": "0310", "stop_name": "CHESAPEAKE & GREEN", "stop_lat": 36.891341, "stop_lon": -76.237649 }, "geometry": { "type": "Point", "coordinates": [ -76.237649, 36.891341 ] } },
{ "type": "Feature", "properties": { "stop_id": "0311", "stop_name": "CHESAPEAKE & STRAND", "stop_lat": 36.895304, "stop_lon": -76.238225 }, "geometry": { "type": "Point", "coordinates": [ -76.238225, 36.895304 ] } },
{ "type": "Feature", "properties": { "stop_id": "0312", "stop_name": "CHESAPEAKE & DUNDALE", "stop_lat": 36.900768, "stop_lon": -76.239094 }, "geometry": { "type": "Point", "coordinates": [ -76.239094, 36.900768 ] } },
{ "type": "Feature", "properties": { "stop_id": "0315", "stop_name": "CHESAPEAKE & ROSEFIELD", "stop_lat": 36.911102, "stop_lon": -76.240749 }, "geometry": { "type": "Point", "coordinates": [ -76.240749, 36.911102 ] } },
{ "type": "Feature", "properties": { "stop_id": "0317", "stop_name": "EVELYN BUTTS & AVENUE J", "stop_lat": 36.913998, "stop_lon": -76.243418 }, "geometry": { "type": "Point", "coordinates": [ -76.243418, 36.913998 ] } },
{ "type": "Feature", "properties": { "stop_id": "0318", "stop_name": "CHESAPEAKE & LITTLE CREEK", "stop_lat": 36.915209, "stop_lon": -76.241387 }, "geometry": { "type": "Point", "coordinates": [ -76.241387, 36.915209 ] } },
{ "type": "Feature", "properties": { "stop_id": "0319", "stop_name": "CHESAPEAKE & ELK", "stop_lat": 36.917801, "stop_lon": -76.24178 }, "geometry": { "type": "Point", "coordinates": [ -76.24178, 36.917801 ] } },
{ "type": "Feature", "properties": { "stop_id": "0322", "stop_name": "CHESAPEAKE & SHEPPARD", "stop_lat": 36.923773, "stop_lon": -76.242736 }, "geometry": { "type": "Point", "coordinates": [ -76.242736, 36.923773 ] } },
{ "type": "Feature", "properties": { "stop_id": "0323", "stop_name": "CHESAPEAKE & FRANK", "stop_lat": 36.926413, "stop_lon": -76.243141 }, "geometry": { "type": "Point", "coordinates": [ -76.243141, 36.926413 ] } },
{ "type": "Feature", "properties": { "stop_id": "0324", "stop_name": "CHESAPEAKE & FISHERMANS", "stop_lat": 36.930525, "stop_lon": -76.243771 }, "geometry": { "type": "Point", "coordinates": [ -76.243771, 36.930525 ] } },
{ "type": "Feature", "properties": { "stop_id": "0326", "stop_name": "CHESAPEAKE & BAYVIEW", "stop_lat": 36.933312, "stop_lon": -76.244167 }, "geometry": { "type": "Point", "coordinates": [ -76.244167, 36.933312 ] } },
{ "type": "Feature", "properties": { "stop_id": "0328", "stop_name": "CHESAPEAKE & DUNE", "stop_lat": 36.937292, "stop_lon": -76.244794 }, "geometry": { "type": "Point", "coordinates": [ -76.244794, 36.937292 ] } },
{ "type": "Feature", "properties": { "stop_id": "0330", "stop_name": "CHESAPEAKE & CHESTER", "stop_lat": 36.9391, "stop_lon": -76.245089 }, "geometry": { "type": "Point", "coordinates": [ -76.245089, 36.9391 ] } },
{ "type": "Feature", "properties": { "stop_id": "0332", "stop_name": "CHESAPEAKE & DUDLEY", "stop_lat": 36.94281, "stop_lon": -76.245677 }, "geometry": { "type": "Point", "coordinates": [ -76.245677, 36.94281 ] } },
{ "type": "Feature", "properties": { "stop_id": "0336", "stop_name": "HAMPTON & RUNNYMEDE", "stop_lat": 36.913464, "stop_lon": -76.306299 }, "geometry": { "type": "Point", "coordinates": [ -76.306299, 36.913464 ] } },
{ "type": "Feature", "properties": { "stop_id": "0343", "stop_name": "CHESAPEAKE & LEICESTER", "stop_lat": 36.941928, "stop_lon": -76.245853 }, "geometry": { "type": "Point", "coordinates": [ -76.245853, 36.941928 ] } },
{ "type": "Feature", "properties": { "stop_id": "0344", "stop_name": "CHESAPEAKE & FARRELL", "stop_lat": 36.939119, "stop_lon": -76.245435 }, "geometry": { "type": "Point", "coordinates": [ -76.245435, 36.939119 ] } },
{ "type": "Feature", "properties": { "stop_id": "0346", "stop_name": "CHESAPEAKE & EARL", "stop_lat": 36.935884, "stop_lon": -76.244927 }, "geometry": { "type": "Point", "coordinates": [ -76.244927, 36.935884 ] } },
{ "type": "Feature", "properties": { "stop_id": "0347", "stop_name": "CHESAPEAKE & BAYVIEW", "stop_lat": 36.934065, "stop_lon": -76.244657 }, "geometry": { "type": "Point", "coordinates": [ -76.244657, 36.934065 ] } },
{ "type": "Feature", "properties": { "stop_id": "0348", "stop_name": "CHESAPEAKE & FISHERMANS", "stop_lat": 36.929915, "stop_lon": -76.243982 }, "geometry": { "type": "Point", "coordinates": [ -76.243982, 36.929915 ] } },
{ "type": "Feature", "properties": { "stop_id": "0349", "stop_name": "CHESAPEAKE & SHEPPARD", "stop_lat": 36.923932, "stop_lon": -76.243065 }, "geometry": { "type": "Point", "coordinates": [ -76.243065, 36.923932 ] } },
{ "type": "Feature", "properties": { "stop_id": "0351", "stop_name": "CHESAPEAKE & BURKSDALE", "stop_lat": 36.919975, "stop_lon": -76.242451 }, "geometry": { "type": "Point", "coordinates": [ -76.242451, 36.919975 ] } },
{ "type": "Feature", "properties": { "stop_id": "0352", "stop_name": "CHESAPEAKE & DOVERCOURT", "stop_lat": 36.916779, "stop_lon": -76.241996 }, "geometry": { "type": "Point", "coordinates": [ -76.241996, 36.916779 ] } },
{ "type": "Feature", "properties": { "stop_id": "0353", "stop_name": "CHESAPEAKE & LITTLE CREEK", "stop_lat": 36.914937, "stop_lon": -76.241687 }, "geometry": { "type": "Point", "coordinates": [ -76.241687, 36.914937 ] } },
{ "type": "Feature", "properties": { "stop_id": "0354", "stop_name": "EVELYN BUTTS & AVENUE J", "stop_lat": 36.913906, "stop_lon": -76.243577 }, "geometry": { "type": "Point", "coordinates": [ -76.243577, 36.913906 ] } },
{ "type": "Feature", "properties": { "stop_id": "0355", "stop_name": "CHESAPEAKE & AVE I", "stop_lat": 36.912803, "stop_lon": -76.241365 }, "geometry": { "type": "Point", "coordinates": [ -76.241365, 36.912803 ] } },
{ "type": "Feature", "properties": { "stop_id": "0357", "stop_name": "CHESAPEAKE & JOHNSTONS", "stop_lat": 36.907352, "stop_lon": -76.24044 }, "geometry": { "type": "Point", "coordinates": [ -76.24044, 36.907352 ] } },
{ "type": "Feature", "properties": { "stop_id": "0359", "stop_name": "CHESAPEAKE & KITRELL", "stop_lat": 36.905114, "stop_lon": -76.240119 }, "geometry": { "type": "Point", "coordinates": [ -76.240119, 36.905114 ] } },
{ "type": "Feature", "properties": { "stop_id": "0360", "stop_name": "CHESAPEAKE & DUNDALE", "stop_lat": 36.899659, "stop_lon": -76.239255 }, "geometry": { "type": "Point", "coordinates": [ -76.239255, 36.899659 ] } },
{ "type": "Feature", "properties": { "stop_id": "0362", "stop_name": "CHESAPEAKE & PICADILLY", "stop_lat": 36.897117, "stop_lon": -76.238827 }, "geometry": { "type": "Point", "coordinates": [ -76.238827, 36.897117 ] } },
{ "type": "Feature", "properties": { "stop_id": "0363", "stop_name": "CHESAPEAKE & STRAND", "stop_lat": 36.893576, "stop_lon": -76.238275 }, "geometry": { "type": "Point", "coordinates": [ -76.238275, 36.893576 ] } },
{ "type": "Feature", "properties": { "stop_id": "0364", "stop_name": "CHESAPEAKE & GREEN", "stop_lat": 36.891756, "stop_lon": -76.237997 }, "geometry": { "type": "Point", "coordinates": [ -76.237997, 36.891756 ] } },
{ "type": "Feature", "properties": { "stop_id": "0365", "stop_name": "CHESAPEAKE & NORVIEW", "stop_lat": 36.889606, "stop_lon": -76.23913 }, "geometry": { "type": "Point", "coordinates": [ -76.23913, 36.889606 ] } },
{ "type": "Feature", "properties": { "stop_id": "0367", "stop_name": "CHESAPEAKE & CRAVEN", "stop_lat": 36.887825, "stop_lon": -76.241893 }, "geometry": { "type": "Point", "coordinates": [ -76.241893, 36.887825 ] } },
{ "type": "Feature", "properties": { "stop_id": "0368", "stop_name": "CHESAPEAKE & NANSEMOND", "stop_lat": 36.885544, "stop_lon": -76.244632 }, "geometry": { "type": "Point", "coordinates": [ -76.244632, 36.885544 ] } },
{ "type": "Feature", "properties": { "stop_id": "0370", "stop_name": "CHESAPEAKE & WAYNE CREEK", "stop_lat": 36.884026, "stop_lon": -76.245988 }, "geometry": { "type": "Point", "coordinates": [ -76.245988, 36.884026 ] } },
{ "type": "Feature", "properties": { "stop_id": "0371", "stop_name": "CHESAPEAKE & NOTTAWAY", "stop_lat": 36.880122, "stop_lon": -76.248374 }, "geometry": { "type": "Point", "coordinates": [ -76.248374, 36.880122 ] } },
{ "type": "Feature", "properties": { "stop_id": "0372", "stop_name": "CHESAPEAKE & ROBIN HOOD", "stop_lat": 36.878882, "stop_lon": -76.2496 }, "geometry": { "type": "Point", "coordinates": [ -76.2496, 36.878882 ] } },
{ "type": "Feature", "properties": { "stop_id": "0375", "stop_name": "LAFAYETTE & MARNE", "stop_lat": 36.875598, "stop_lon": -76.254833 }, "geometry": { "type": "Point", "coordinates": [ -76.254833, 36.875598 ] } },
{ "type": "Feature", "properties": { "stop_id": "0376", "stop_name": "LAFAYETTE & LENS", "stop_lat": 36.875963, "stop_lon": -76.256401 }, "geometry": { "type": "Point", "coordinates": [ -76.256401, 36.875963 ] } },
{ "type": "Feature", "properties": { "stop_id": "0377", "stop_name": "LAFAYETTE & BREST", "stop_lat": 36.876561, "stop_lon": -76.258824 }, "geometry": { "type": "Point", "coordinates": [ -76.258824, 36.876561 ] } },
{ "type": "Feature", "properties": { "stop_id": "0378", "stop_name": "LAFAYETTE & DUNKIRK", "stop_lat": 36.877082, "stop_lon": -76.260876 }, "geometry": { "type": "Point", "coordinates": [ -76.260876, 36.877082 ] } },
{ "type": "Feature", "properties": { "stop_id": "0380", "stop_name": "LAFAYETTE & TIDEWATER", "stop_lat": 36.877853, "stop_lon": -76.263999 }, "geometry": { "type": "Point", "coordinates": [ -76.263999, 36.877853 ] } },
{ "type": "Feature", "properties": { "stop_id": "0382", "stop_name": "LAFAYETTE & VERSAILLES", "stop_lat": 36.877433, "stop_lon": -76.267444 }, "geometry": { "type": "Point", "coordinates": [ -76.267444, 36.877433 ] } },
{ "type": "Feature", "properties": { "stop_id": "0384", "stop_name": "LAFAYETTE & ORLEANS", "stop_lat": 36.875135, "stop_lon": -76.269593 }, "geometry": { "type": "Point", "coordinates": [ -76.269593, 36.875135 ] } },
{ "type": "Feature", "properties": { "stop_id": "0387", "stop_name": "27TH & LEO", "stop_lat": 36.871449, "stop_lon": -76.276587 }, "geometry": { "type": "Point", "coordinates": [ -76.276587, 36.871449 ] } },
{ "type": "Feature", "properties": { "stop_id": "0389", "stop_name": "27TH & FAWN", "stop_lat": 36.871084, "stop_lon": -76.278984 }, "geometry": { "type": "Point", "coordinates": [ -76.278984, 36.871084 ] } },
{ "type": "Feature", "properties": { "stop_id": "0390", "stop_name": "MONTICELLO & 26TH", "stop_lat": 36.871024, "stop_lon": -76.282198 }, "geometry": { "type": "Point", "coordinates": [ -76.282198, 36.871024 ] } },
{ "type": "Feature", "properties": { "stop_id": "0404", "stop_name": "SAINT PAULS & WOOD", "stop_lat": 36.850991, "stop_lon": -76.284817 }, "geometry": { "type": "Point", "coordinates": [ -76.284817, 36.850991 ] } },
{ "type": "Feature", "properties": { "stop_id": "0406", "stop_name": "CHURCH & OLNEY", "stop_lat": 36.854039, "stop_lon": -76.279681 }, "geometry": { "type": "Point", "coordinates": [ -76.279681, 36.854039 ] } },
{ "type": "Feature", "properties": { "stop_id": "0409", "stop_name": "TIDEWATER & PRINCESS ANNE", "stop_lat": 36.857035, "stop_lon": -76.273096 }, "geometry": { "type": "Point", "coordinates": [ -76.273096, 36.857035 ] } },
{ "type": "Feature", "properties": { "stop_id": "0411", "stop_name": "CHURCH & GOFF", "stop_lat": 36.859748, "stop_lon": -76.277909 }, "geometry": { "type": "Point", "coordinates": [ -76.277909, 36.859748 ] } },
{ "type": "Feature", "properties": { "stop_id": "0412", "stop_name": "CHURCH & B", "stop_lat": 36.863777, "stop_lon": -76.278738 }, "geometry": { "type": "Point", "coordinates": [ -76.278738, 36.863777 ] } },
{ "type": "Feature", "properties": { "stop_id": "0413", "stop_name": "20TH & GRANBY", "stop_lat": 36.86679, "stop_lon": -76.28527 }, "geometry": { "type": "Point", "coordinates": [ -76.28527, 36.86679 ] } },
{ "type": "Feature", "properties": { "stop_id": "0414", "stop_name": "21ST & OMOHUNDRO", "stop_lat": 36.868145, "stop_lon": -76.28718 }, "geometry": { "type": "Point", "coordinates": [ -76.28718, 36.868145 ] } },
{ "type": "Feature", "properties": { "stop_id": "0415", "stop_name": "21ST & LLEWELLYN", "stop_lat": 36.868589, "stop_lon": -76.288774 }, "geometry": { "type": "Point", "coordinates": [ -76.288774, 36.868589 ] } },
{ "type": "Feature", "properties": { "stop_id": "0416", "stop_name": "21ST & DEBREE", "stop_lat": 36.868835, "stop_lon": -76.290337 }, "geometry": { "type": "Point", "coordinates": [ -76.290337, 36.868835 ] } },
{ "type": "Feature", "properties": { "stop_id": "0417", "stop_name": "21ST & MANTEO", "stop_lat": 36.870154, "stop_lon": -76.294257 }, "geometry": { "type": "Point", "coordinates": [ -76.294257, 36.870154 ] } },
{ "type": "Feature", "properties": { "stop_id": "0421", "stop_name": "38TH & BLUESTONE", "stop_lat": 36.879632, "stop_lon": -76.30537 }, "geometry": { "type": "Point", "coordinates": [ -76.30537, 36.879632 ] } },
{ "type": "Feature", "properties": { "stop_id": "0427", "stop_name": "COLLEY & 35TH", "stop_lat": 36.878046, "stop_lon": -76.294852 }, "geometry": { "type": "Point", "coordinates": [ -76.294852, 36.878046 ] } },
{ "type": "Feature", "properties": { "stop_id": "0428", "stop_name": "COLLEY & 26TH", "stop_lat": 36.87458, "stop_lon": -76.295312 }, "geometry": { "type": "Point", "coordinates": [ -76.295312, 36.87458 ] } },
{ "type": "Feature", "properties": { "stop_id": "0430", "stop_name": "COLLEY & GRAYDON", "stop_lat": 36.865245, "stop_lon": -76.299498 }, "geometry": { "type": "Point", "coordinates": [ -76.299498, 36.865245 ] } },
{ "type": "Feature", "properties": { "stop_id": "0432", "stop_name": "COLLEY & RALEIGH", "stop_lat": 36.861916, "stop_lon": -76.299617 }, "geometry": { "type": "Point", "coordinates": [ -76.299617, 36.861916 ] } },
{ "type": "Feature", "properties": { "stop_id": "0433", "stop_name": "COLLEY & GRAYDON", "stop_lat": 36.864916, "stop_lon": -76.299564 }, "geometry": { "type": "Point", "coordinates": [ -76.299564, 36.864916 ] } },
{ "type": "Feature", "properties": { "stop_id": "0435", "stop_name": "COLLEY & 26TH", "stop_lat": 36.874054, "stop_lon": -76.295021 }, "geometry": { "type": "Point", "coordinates": [ -76.295021, 36.874054 ] } },
{ "type": "Feature", "properties": { "stop_id": "0437", "stop_name": "COLLEY & 35TH", "stop_lat": 36.878106, "stop_lon": -76.294728 }, "geometry": { "type": "Point", "coordinates": [ -76.294728, 36.878106 ] } },
{ "type": "Feature", "properties": { "stop_id": "0441", "stop_name": "38TH & BOWDENS FERRY", "stop_lat": 36.879565, "stop_lon": -76.30347 }, "geometry": { "type": "Point", "coordinates": [ -76.30347, 36.879565 ] } },
{ "type": "Feature", "properties": { "stop_id": "0443", "stop_name": "21ST & COLONIAL", "stop_lat": 36.869451, "stop_lon": -76.293118 }, "geometry": { "type": "Point", "coordinates": [ -76.293118, 36.869451 ] } },
{ "type": "Feature", "properties": { "stop_id": "0444", "stop_name": "21ST & DEBREE", "stop_lat": 36.868597, "stop_lon": -76.289971 }, "geometry": { "type": "Point", "coordinates": [ -76.289971, 36.868597 ] } },
{ "type": "Feature", "properties": { "stop_id": "0445", "stop_name": "21ST & LLEWELLYN", "stop_lat": 36.868192, "stop_lon": -76.287935 }, "geometry": { "type": "Point", "coordinates": [ -76.287935, 36.868192 ] } },
{ "type": "Feature", "properties": { "stop_id": "0447", "stop_name": "20TH & MONTICELLO", "stop_lat": 36.86661, "stop_lon": -76.285095 }, "geometry": { "type": "Point", "coordinates": [ -76.285095, 36.86661 ] } },
{ "type": "Feature", "properties": { "stop_id": "0448", "stop_name": "CHURCH & 18TH", "stop_lat": 36.86416, "stop_lon": -76.279059 }, "geometry": { "type": "Point", "coordinates": [ -76.279059, 36.86416 ] } },
{ "type": "Feature", "properties": { "stop_id": "0452", "stop_name": "CHURCH & OLNEY", "stop_lat": 36.854019, "stop_lon": -76.280023 }, "geometry": { "type": "Point", "coordinates": [ -76.280023, 36.854019 ] } },
{ "type": "Feature", "properties": { "stop_id": "0453", "stop_name": "INDIAN RIVER & WINGFIELD", "stop_lat": 36.827234, "stop_lon": -76.246408 }, "geometry": { "type": "Point", "coordinates": [ -76.246408, 36.827234 ] } },
{ "type": "Feature", "properties": { "stop_id": "0454", "stop_name": "DNTC", "stop_lat": 36.850464, "stop_lon": -76.283474 }, "geometry": { "type": "Point", "coordinates": [ -76.283474, 36.850464 ] } },
{ "type": "Feature", "properties": { "stop_id": "0455", "stop_name": "BRAMBLETON & SAINT PAULS", "stop_lat": 36.853709, "stop_lon": -76.284791 }, "geometry": { "type": "Point", "coordinates": [ -76.284791, 36.853709 ] } },
{ "type": "Feature", "properties": { "stop_id": "0465", "stop_name": "MAIN & BERKLEY", "stop_lat": 36.832191, "stop_lon": -76.283524 }, "geometry": { "type": "Point", "coordinates": [ -76.283524, 36.832191 ] } },
{ "type": "Feature", "properties": { "stop_id": "0467", "stop_name": "LIBERTY & GRAYSON", "stop_lat": 36.829828, "stop_lon": -76.281516 }, "geometry": { "type": "Point", "coordinates": [ -76.281516, 36.829828 ] } },
{ "type": "Feature", "properties": { "stop_id": "0468", "stop_name": "LIBERTY & LANCASTER", "stop_lat": 36.828807, "stop_lon": -76.280525 }, "geometry": { "type": "Point", "coordinates": [ -76.280525, 36.828807 ] } },
{ "type": "Feature", "properties": { "stop_id": "0469", "stop_name": "LIBERTY & SHERMAN", "stop_lat": 36.825912, "stop_lon": -76.277814 }, "geometry": { "type": "Point", "coordinates": [ -76.277814, 36.825912 ] } },
{ "type": "Feature", "properties": { "stop_id": "0474", "stop_name": "LIBERTY & TRANSYLVANIA", "stop_lat": 36.817476, "stop_lon": -76.266786 }, "geometry": { "type": "Point", "coordinates": [ -76.266786, 36.817476 ] } },
{ "type": "Feature", "properties": { "stop_id": "0475", "stop_name": "OLD ATLANTIC & JEFFERSON", "stop_lat": 36.814931, "stop_lon": -76.26551 }, "geometry": { "type": "Point", "coordinates": [ -76.26551, 36.814931 ] } },
{ "type": "Feature", "properties": { "stop_id": "0476", "stop_name": "ATLANTIC & CULPEPPER", "stop_lat": 36.812146, "stop_lon": -76.264922 }, "geometry": { "type": "Point", "coordinates": [ -76.264922, 36.812146 ] } },
{ "type": "Feature", "properties": { "stop_id": "0477", "stop_name": "ATLANTIC & MYERS", "stop_lat": 36.807472, "stop_lon": -76.264063 }, "geometry": { "type": "Point", "coordinates": [ -76.264063, 36.807472 ] } },
{ "type": "Feature", "properties": { "stop_id": "0478", "stop_name": "ATLANTIC & STRAWBERRY", "stop_lat": 36.804644, "stop_lon": -76.263491 }, "geometry": { "type": "Point", "coordinates": [ -76.263491, 36.804644 ] } },
{ "type": "Feature", "properties": { "stop_id": "0480", "stop_name": "CAMPOSTELLA & MARK", "stop_lat": 36.792868, "stop_lon": -76.259941 }, "geometry": { "type": "Point", "coordinates": [ -76.259941, 36.792868 ] } },
{ "type": "Feature", "properties": { "stop_id": "0482", "stop_name": "CAMPOSTELLA & PORTLOCK", "stop_lat": 36.784949, "stop_lon": -76.266691 }, "geometry": { "type": "Point", "coordinates": [ -76.266691, 36.784949 ] } },
{ "type": "Feature", "properties": { "stop_id": "0483", "stop_name": "CAMPOSTELLA & CORAL", "stop_lat": 36.782563, "stop_lon": -76.267881 }, "geometry": { "type": "Point", "coordinates": [ -76.267881, 36.782563 ] } },
{ "type": "Feature", "properties": { "stop_id": "0485", "stop_name": "MILITARY & CAMPOSTELLA", "stop_lat": 36.778532, "stop_lon": -76.266574 }, "geometry": { "type": "Point", "coordinates": [ -76.266574, 36.778532 ] } },
{ "type": "Feature", "properties": { "stop_id": "0488", "stop_name": "ROBERT HALL & MILITARY", "stop_lat": 36.786824, "stop_lon": -76.256215 }, "geometry": { "type": "Point", "coordinates": [ -76.256215, 36.786824 ] } },
{ "type": "Feature", "properties": { "stop_id": "0489", "stop_name": "BATTLEFIELD & ROBERT HALL", "stop_lat": 36.786491, "stop_lon": -76.259424 }, "geometry": { "type": "Point", "coordinates": [ -76.259424, 36.786491 ] } },
{ "type": "Feature", "properties": { "stop_id": "0490", "stop_name": "MILITARY & BATTLEFIELD", "stop_lat": 36.780295, "stop_lon": -76.264009 }, "geometry": { "type": "Point", "coordinates": [ -76.264009, 36.780295 ] } },
{ "type": "Feature", "properties": { "stop_id": "0491", "stop_name": "MILITARY & CAMPOSTELLA", "stop_lat": 36.779002, "stop_lon": -76.266311 }, "geometry": { "type": "Point", "coordinates": [ -76.266311, 36.779002 ] } },
{ "type": "Feature", "properties": { "stop_id": "0492", "stop_name": "CAMPOSTELLA & WAKE", "stop_lat": 36.780283, "stop_lon": -76.268343 }, "geometry": { "type": "Point", "coordinates": [ -76.268343, 36.780283 ] } },
{ "type": "Feature", "properties": { "stop_id": "0493", "stop_name": "CAMPOSTELLA & PORTLOCK", "stop_lat": 36.785986, "stop_lon": -76.265848 }, "geometry": { "type": "Point", "coordinates": [ -76.265848, 36.785986 ] } },
{ "type": "Feature", "properties": { "stop_id": "0494", "stop_name": "CAMPOSTELLA & DIAMOND HILL", "stop_lat": 36.788324, "stop_lon": -76.263814 }, "geometry": { "type": "Point", "coordinates": [ -76.263814, 36.788324 ] } },
{ "type": "Feature", "properties": { "stop_id": "0495", "stop_name": "CAMPOSTELLA & MARK", "stop_lat": 36.792336, "stop_lon": -76.259924 }, "geometry": { "type": "Point", "coordinates": [ -76.259924, 36.792336 ] } },
{ "type": "Feature", "properties": { "stop_id": "0496", "stop_name": "CAMPOSTELLA & BROAD", "stop_lat": 36.798439, "stop_lon": -76.257514 }, "geometry": { "type": "Point", "coordinates": [ -76.257514, 36.798439 ] } },
{ "type": "Feature", "properties": { "stop_id": "0499", "stop_name": "ATLANTIC & MYERS", "stop_lat": 36.807887, "stop_lon": -76.263892 }, "geometry": { "type": "Point", "coordinates": [ -76.263892, 36.807887 ] } },
{ "type": "Feature", "properties": { "stop_id": "0500", "stop_name": "ATLANTIC & POCAHONTAS", "stop_lat": 36.809509, "stop_lon": -76.264186 }, "geometry": { "type": "Point", "coordinates": [ -76.264186, 36.809509 ] } },
{ "type": "Feature", "properties": { "stop_id": "0501", "stop_name": "ATLANTIC & CULPEPPER", "stop_lat": 36.811658, "stop_lon": -76.264608 }, "geometry": { "type": "Point", "coordinates": [ -76.264608, 36.811658 ] } },
{ "type": "Feature", "properties": { "stop_id": "0502", "stop_name": "OLD ATLANTIC & JEFFERSON", "stop_lat": 36.81549, "stop_lon": -76.265465 }, "geometry": { "type": "Point", "coordinates": [ -76.265465, 36.81549 ] } },
{ "type": "Feature", "properties": { "stop_id": "0503", "stop_name": "LIBERTY & FITCHETT", "stop_lat": 36.817849, "stop_lon": -76.267345 }, "geometry": { "type": "Point", "coordinates": [ -76.267345, 36.817849 ] } },
{ "type": "Feature", "properties": { "stop_id": "0504", "stop_name": "LIBERTY & COMMERCE", "stop_lat": 36.818869, "stop_lon": -76.269807 }, "geometry": { "type": "Point", "coordinates": [ -76.269807, 36.818869 ] } },
{ "type": "Feature", "properties": { "stop_id": "0507", "stop_name": "LIBERTY & SEABOARD", "stop_lat": 36.823061, "stop_lon": -76.275027 }, "geometry": { "type": "Point", "coordinates": [ -76.275027, 36.823061 ] } },
{ "type": "Feature", "properties": { "stop_id": "0508", "stop_name": "LIBERTY & SHERMAN", "stop_lat": 36.825989, "stop_lon": -76.27769 }, "geometry": { "type": "Point", "coordinates": [ -76.27769, 36.825989 ] } },
{ "type": "Feature", "properties": { "stop_id": "0510", "stop_name": "LIBERTY & GRAYSON", "stop_lat": 36.829883, "stop_lon": -76.281389 }, "geometry": { "type": "Point", "coordinates": [ -76.281389, 36.829883 ] } },
{ "type": "Feature", "properties": { "stop_id": "0511", "stop_name": "MAIN & BERKLEY", "stop_lat": 36.832156, "stop_lon": -76.283396 }, "geometry": { "type": "Point", "coordinates": [ -76.283396, 36.832156 ] } },
{ "type": "Feature", "properties": { "stop_id": "0521", "stop_name": "TIDEWATER & OLNEY", "stop_lat": 36.852342, "stop_lon": -76.275198 }, "geometry": { "type": "Point", "coordinates": [ -76.275198, 36.852342 ] } },
{ "type": "Feature", "properties": { "stop_id": "0524", "stop_name": "TIDEWATER & GOFF", "stop_lat": 36.858028, "stop_lon": -76.272647 }, "geometry": { "type": "Point", "coordinates": [ -76.272647, 36.858028 ] } },
{ "type": "Feature", "properties": { "stop_id": "0527", "stop_name": "TIDEWATER & LINDENWOOD", "stop_lat": 36.86629, "stop_lon": -76.269039 }, "geometry": { "type": "Point", "coordinates": [ -76.269039, 36.86629 ] } },
{ "type": "Feature", "properties": { "stop_id": "0528", "stop_name": "TIDEWATER & HANCOCK", "stop_lat": 36.870496, "stop_lon": -76.266187 }, "geometry": { "type": "Point", "coordinates": [ -76.266187, 36.870496 ] } },
{ "type": "Feature", "properties": { "stop_id": "0529", "stop_name": "TIDEWATER & SHOOP", "stop_lat": 36.871971, "stop_lon": -76.265554 }, "geometry": { "type": "Point", "coordinates": [ -76.265554, 36.871971 ] } },
{ "type": "Feature", "properties": { "stop_id": "0530", "stop_name": "TIDEWATER & SAINT DENIS", "stop_lat": 36.874658, "stop_lon": -76.264607 }, "geometry": { "type": "Point", "coordinates": [ -76.264607, 36.874658 ] } },
{ "type": "Feature", "properties": { "stop_id": "0533", "stop_name": "TIDEWATER & LAFAYETTE", "stop_lat": 36.878115, "stop_lon": -76.263271 }, "geometry": { "type": "Point", "coordinates": [ -76.263271, 36.878115 ] } },
{ "type": "Feature", "properties": { "stop_id": "0535", "stop_name": "TIDEWATER & COLUMBIA", "stop_lat": 36.881444, "stop_lon": -76.261975 }, "geometry": { "type": "Point", "coordinates": [ -76.261975, 36.881444 ] } },
{ "type": "Feature", "properties": { "stop_id": "0536", "stop_name": "TIDEWATER & CROMWELL", "stop_lat": 36.885622, "stop_lon": -76.260391 }, "geometry": { "type": "Point", "coordinates": [ -76.260391, 36.885622 ] } },
{ "type": "Feature", "properties": { "stop_id": "0537", "stop_name": "TIDEWATER & WILLOW WOOD", "stop_lat": 36.887951, "stop_lon": -76.259597 }, "geometry": { "type": "Point", "coordinates": [ -76.259597, 36.887951 ] } },
{ "type": "Feature", "properties": { "stop_id": "0538", "stop_name": "TIDEWATER & NORVIEW", "stop_lat": 36.891005, "stop_lon": -76.25832 }, "geometry": { "type": "Point", "coordinates": [ -76.25832, 36.891005 ] } },
{ "type": "Feature", "properties": { "stop_id": "0539", "stop_name": "TIDEWATER & WIDGEON", "stop_lat": 36.900328, "stop_lon": -76.255939 }, "geometry": { "type": "Point", "coordinates": [ -76.255939, 36.900328 ] } },
{ "type": "Feature", "properties": { "stop_id": "0540", "stop_name": "TIDEWATER & LITTLE CREEK", "stop_lat": 36.912741, "stop_lon": -76.255056 }, "geometry": { "type": "Point", "coordinates": [ -76.255056, 36.912741 ] } },
{ "type": "Feature", "properties": { "stop_id": "0541", "stop_name": "LITTLE CREEK & HAROLD", "stop_lat": 36.915814, "stop_lon": -76.25297 }, "geometry": { "type": "Point", "coordinates": [ -76.25297, 36.915814 ] } },
{ "type": "Feature", "properties": { "stop_id": "0542", "stop_name": "LITTLE CREEK & SEWELLS POINT", "stop_lat": 36.915163, "stop_lon": -76.24985 }, "geometry": { "type": "Point", "coordinates": [ -76.24985, 36.915163 ] } },
{ "type": "Feature", "properties": { "stop_id": "0543", "stop_name": "LITTLE CREEK & MERRITT", "stop_lat": 36.914913, "stop_lon": -76.246293 }, "geometry": { "type": "Point", "coordinates": [ -76.246293, 36.914913 ] } },
{ "type": "Feature", "properties": { "stop_id": "0546", "stop_name": "LITTLE CREEK & MOOSE", "stop_lat": 36.915671, "stop_lon": -76.236272 }, "geometry": { "type": "Point", "coordinates": [ -76.236272, 36.915671 ] } },
{ "type": "Feature", "properties": { "stop_id": "0548", "stop_name": "LITTLE CREEK & BISON", "stop_lat": 36.916647, "stop_lon": -76.23173 }, "geometry": { "type": "Point", "coordinates": [ -76.23173, 36.916647 ] } },
{ "type": "Feature", "properties": { "stop_id": "0549", "stop_name": "LITTLE CREEK & MEADOW CREEK", "stop_lat": 36.916789, "stop_lon": -76.229419 }, "geometry": { "type": "Point", "coordinates": [ -76.229419, 36.916789 ] } },
{ "type": "Feature", "properties": { "stop_id": "0551", "stop_name": "LITTLE CREEK & WEDGEWOOD", "stop_lat": 36.916078, "stop_lon": -76.225967 }, "geometry": { "type": "Point", "coordinates": [ -76.225967, 36.916078 ] } },
{ "type": "Feature", "properties": { "stop_id": "0554", "stop_name": "LITTLE CREEK & HALPRIN", "stop_lat": 36.915008, "stop_lon": -76.219791 }, "geometry": { "type": "Point", "coordinates": [ -76.219791, 36.915008 ] } },
{ "type": "Feature", "properties": { "stop_id": "0555", "stop_name": "LITTLE CREEK & BROOKFIELD", "stop_lat": 36.915144, "stop_lon": -76.21275 }, "geometry": { "type": "Point", "coordinates": [ -76.21275, 36.915144 ] } },
{ "type": "Feature", "properties": { "stop_id": "0556", "stop_name": "LITTLE CREEK &  TARPON", "stop_lat": 36.915761, "stop_lon": -76.209206 }, "geometry": { "type": "Point", "coordinates": [ -76.209206, 36.915761 ] } },
{ "type": "Feature", "properties": { "stop_id": "0557", "stop_name": "LITTLE CREEK & NANCY", "stop_lat": 36.916415, "stop_lon": -76.205761 }, "geometry": { "type": "Point", "coordinates": [ -76.205761, 36.916415 ] } },
{ "type": "Feature", "properties": { "stop_id": "0559", "stop_name": "LITTLE CREEK & REDMON", "stop_lat": 36.917638, "stop_lon": -76.199114 }, "geometry": { "type": "Point", "coordinates": [ -76.199114, 36.917638 ] } },
{ "type": "Feature", "properties": { "stop_id": "0560", "stop_name": "LITTLE CREEK & WOODALL", "stop_lat": 36.917855, "stop_lon": -76.197252 }, "geometry": { "type": "Point", "coordinates": [ -76.197252, 36.917855 ] } },
{ "type": "Feature", "properties": { "stop_id": "0561", "stop_name": "LITTLE CREEK & SHORE", "stop_lat": 36.917931, "stop_lon": -76.195166 }, "geometry": { "type": "Point", "coordinates": [ -76.195166, 36.917931 ] } },
{ "type": "Feature", "properties": { "stop_id": "0565", "stop_name": "LITTLE CREEK & SHORE", "stop_lat": 36.918229, "stop_lon": -76.193441 }, "geometry": { "type": "Point", "coordinates": [ -76.193441, 36.918229 ] } },
{ "type": "Feature", "properties": { "stop_id": "0566", "stop_name": "LITTLE CREEK & WOODALL", "stop_lat": 36.9181, "stop_lon": -76.19809 }, "geometry": { "type": "Point", "coordinates": [ -76.19809, 36.9181 ] } },
{ "type": "Feature", "properties": { "stop_id": "0567", "stop_name": "LITTLE CREEK & WALTERS", "stop_lat": 36.917221, "stop_lon": -76.203253 }, "geometry": { "type": "Point", "coordinates": [ -76.203253, 36.917221 ] } },
{ "type": "Feature", "properties": { "stop_id": "0568", "stop_name": "LITTLE CREEK & NANCY", "stop_lat": 36.916597, "stop_lon": -76.206553 }, "geometry": { "type": "Point", "coordinates": [ -76.206553, 36.916597 ] } },
{ "type": "Feature", "properties": { "stop_id": "0569", "stop_name": "LITTLE CREEK & TARPON", "stop_lat": 36.915979, "stop_lon": -76.209632 }, "geometry": { "type": "Point", "coordinates": [ -76.209632, 36.915979 ] } },
{ "type": "Feature", "properties": { "stop_id": "0570", "stop_name": "LITTLE CREEK & AZALEA GARDEN", "stop_lat": 36.915441, "stop_lon": -76.212397 }, "geometry": { "type": "Point", "coordinates": [ -76.212397, 36.915441 ] } },
{ "type": "Feature", "properties": { "stop_id": "0571", "stop_name": "LITTLE CREEK & MONA", "stop_lat": 36.915305, "stop_lon": -76.21548 }, "geometry": { "type": "Point", "coordinates": [ -76.21548, 36.915305 ] } },
{ "type": "Feature", "properties": { "stop_id": "0572", "stop_name": "LITTLE CREEK & ROOSEVELT GARDENS", "stop_lat": 36.915292, "stop_lon": -76.218401 }, "geometry": { "type": "Point", "coordinates": [ -76.218401, 36.915292 ] } },
{ "type": "Feature", "properties": { "stop_id": "0576", "stop_name": "LITTLE CREEK & MEADOW CREEK", "stop_lat": 36.916939, "stop_lon": -76.228484 }, "geometry": { "type": "Point", "coordinates": [ -76.228484, 36.916939 ] } },
{ "type": "Feature", "properties": { "stop_id": "0577", "stop_name": "LITTLE CREEK & BISON", "stop_lat": 36.916907, "stop_lon": -76.231874 }, "geometry": { "type": "Point", "coordinates": [ -76.231874, 36.916907 ] } },
{ "type": "Feature", "properties": { "stop_id": "0579", "stop_name": "LITTLE CREEK & MOOSE", "stop_lat": 36.915925, "stop_lon": -76.236177 }, "geometry": { "type": "Point", "coordinates": [ -76.236177, 36.915925 ] } },
{ "type": "Feature", "properties": { "stop_id": "0581", "stop_name": "LITTLE CREEK & ELTON", "stop_lat": 36.915407, "stop_lon": -76.249227 }, "geometry": { "type": "Point", "coordinates": [ -76.249227, 36.915407 ] } },
{ "type": "Feature", "properties": { "stop_id": "0582", "stop_name": "LITTLE CREEK RD & OLD OCEAN VIEW", "stop_lat": 36.915687, "stop_lon": -76.251373 }, "geometry": { "type": "Point", "coordinates": [ -76.251373, 36.915687 ] } },
{ "type": "Feature", "properties": { "stop_id": "0583", "stop_name": "TIDEWATER & LITTLE CREEK", "stop_lat": 36.914665, "stop_lon": -76.254654 }, "geometry": { "type": "Point", "coordinates": [ -76.254654, 36.914665 ] } },
{ "type": "Feature", "properties": { "stop_id": "0584", "stop_name": "TIDEWATER & BILTMORE", "stop_lat": 36.909898, "stop_lon": -76.256208 }, "geometry": { "type": "Point", "coordinates": [ -76.256208, 36.909898 ] } },
{ "type": "Feature", "properties": { "stop_id": "0586", "stop_name": "TIDEWATER & WIDGEON", "stop_lat": 36.900968, "stop_lon": -76.256469 }, "geometry": { "type": "Point", "coordinates": [ -76.256469, 36.900968 ] } },
{ "type": "Feature", "properties": { "stop_id": "0587", "stop_name": "TIDEWATER & WAUKESHA", "stop_lat": 36.893907, "stop_lon": -76.257447 }, "geometry": { "type": "Point", "coordinates": [ -76.257447, 36.893907 ] } },
{ "type": "Feature", "properties": { "stop_id": "0589", "stop_name": "TIDEWATER & NORVIEW", "stop_lat": 36.890835, "stop_lon": -76.25868 }, "geometry": { "type": "Point", "coordinates": [ -76.25868, 36.890835 ] } },
{ "type": "Feature", "properties": { "stop_id": "0590", "stop_name": "TIDEWATER & WILLOWWOOD", "stop_lat": 36.887734, "stop_lon": -76.25988 }, "geometry": { "type": "Point", "coordinates": [ -76.25988, 36.887734 ] } },
{ "type": "Feature", "properties": { "stop_id": "0591", "stop_name": "TIDEWATER & BAPAUME", "stop_lat": 36.885469, "stop_lon": -76.26065 }, "geometry": { "type": "Point", "coordinates": [ -76.26065, 36.885469 ] } },
{ "type": "Feature", "properties": { "stop_id": "0593", "stop_name": "TIDEWATER & CLARK", "stop_lat": 36.880042, "stop_lon": -76.262669 }, "geometry": { "type": "Point", "coordinates": [ -76.262669, 36.880042 ] } },
{ "type": "Feature", "properties": { "stop_id": "0594", "stop_name": "TIDEWATER & LAFAYETTE", "stop_lat": 36.877158, "stop_lon": -76.263876 }, "geometry": { "type": "Point", "coordinates": [ -76.263876, 36.877158 ] } },
{ "type": "Feature", "properties": { "stop_id": "0595", "stop_name": "TIDEWATER & BELLEVUE", "stop_lat": 36.875873, "stop_lon": -76.264335 }, "geometry": { "type": "Point", "coordinates": [ -76.264335, 36.875873 ] } },
{ "type": "Feature", "properties": { "stop_id": "0597", "stop_name": "TIDEWATER & SHOOP", "stop_lat": 36.872274, "stop_lon": -76.265649 }, "geometry": { "type": "Point", "coordinates": [ -76.265649, 36.872274 ] } },
{ "type": "Feature", "properties": { "stop_id": "0598", "stop_name": "TIDEWATER & HANCOCK", "stop_lat": 36.870509, "stop_lon": -76.266423 }, "geometry": { "type": "Point", "coordinates": [ -76.266423, 36.870509 ] } },
{ "type": "Feature", "properties": { "stop_id": "0600", "stop_name": "TIDEWATER & LINDENWOOD", "stop_lat": 36.866969, "stop_lon": -76.268915 }, "geometry": { "type": "Point", "coordinates": [ -76.268915, 36.866969 ] } },
{ "type": "Feature", "properties": { "stop_id": "0601", "stop_name": "TIDEWATER & GOFF", "stop_lat": 36.858298, "stop_lon": -76.27291 }, "geometry": { "type": "Point", "coordinates": [ -76.27291, 36.858298 ] } },
{ "type": "Feature", "properties": { "stop_id": "0602", "stop_name": "TIDEWATER & PRINCESS ANNE", "stop_lat": 36.856093, "stop_lon": -76.273958 }, "geometry": { "type": "Point", "coordinates": [ -76.273958, 36.856093 ] } },
{ "type": "Feature", "properties": { "stop_id": "0604", "stop_name": "TIDEWATER & CHARLOTTE", "stop_lat": 36.847372, "stop_lon": -76.277687 }, "geometry": { "type": "Point", "coordinates": [ -76.277687, 36.847372 ] } },
{ "type": "Feature", "properties": { "stop_id": "0605", "stop_name": "OCEAN VIEW & 8TH VIEW", "stop_lat": 36.965201, "stop_lon": -76.272485 }, "geometry": { "type": "Point", "coordinates": [ -76.272485, 36.965201 ] } },
{ "type": "Feature", "properties": { "stop_id": "0606", "stop_name": "OCEAN VIEW & 7TH VIEW", "stop_lat": 36.963665, "stop_lon": -76.267602 }, "geometry": { "type": "Point", "coordinates": [ -76.267602, 36.963665 ] } },
{ "type": "Feature", "properties": { "stop_id": "0607", "stop_name": "OCEAN VIEW & 6TH VIEW", "stop_lat": 36.962663, "stop_lon": -76.265735 }, "geometry": { "type": "Point", "coordinates": [ -76.265735, 36.962663 ] } },
{ "type": "Feature", "properties": { "stop_id": "0608", "stop_name": "OCEAN VIEW & 4TH VIEW", "stop_lat": 36.959208, "stop_lon": -76.260125 }, "geometry": { "type": "Point", "coordinates": [ -76.260125, 36.959208 ] } },
{ "type": "Feature", "properties": { "stop_id": "0610", "stop_name": "OCEAN VIEW & FIRST VIEW", "stop_lat": 36.956534, "stop_lon": -76.2543 }, "geometry": { "type": "Point", "coordinates": [ -76.2543, 36.956534 ] } },
{ "type": "Feature", "properties": { "stop_id": "0612", "stop_name": "BRAMBLETON & LINCOLN", "stop_lat": 36.853475, "stop_lon": -76.282015 }, "geometry": { "type": "Point", "coordinates": [ -76.282015, 36.853475 ] } },
{ "type": "Feature", "properties": { "stop_id": "0613", "stop_name": "BRAMBLETON & CHURCH", "stop_lat": 36.85267, "stop_lon": -76.279497 }, "geometry": { "type": "Point", "coordinates": [ -76.279497, 36.85267 ] } },
{ "type": "Feature", "properties": { "stop_id": "0615", "stop_name": "PARK & PRESIDENTIAL", "stop_lat": 36.84705, "stop_lon": -76.269877 }, "geometry": { "type": "Point", "coordinates": [ -76.269877, 36.84705 ] } },
{ "type": "Feature", "properties": { "stop_id": "0616", "stop_name": "PARK & BOND", "stop_lat": 36.849031, "stop_lon": -76.268087 }, "geometry": { "type": "Point", "coordinates": [ -76.268087, 36.849031 ] } },
{ "type": "Feature", "properties": { "stop_id": "0618", "stop_name": "CORPREW & PRESIDENTIAL", "stop_lat": 36.850452, "stop_lon": -76.261019 }, "geometry": { "type": "Point", "coordinates": [ -76.261019, 36.850452 ] } },
{ "type": "Feature", "properties": { "stop_id": "0620", "stop_name": "CORPREW & MAJESTIC", "stop_lat": 36.850469, "stop_lon": -76.257229 }, "geometry": { "type": "Point", "coordinates": [ -76.257229, 36.850469 ] } },
{ "type": "Feature", "properties": { "stop_id": "0621", "stop_name": "CORPREW & GATE HOUSE", "stop_lat": 36.850587, "stop_lon": -76.251315 }, "geometry": { "type": "Point", "coordinates": [ -76.251315, 36.850587 ] } },
{ "type": "Feature", "properties": { "stop_id": "0622", "stop_name": "BALLENTINE & MIDDLE TOWNE", "stop_lat": 36.848317, "stop_lon": -76.250752 }, "geometry": { "type": "Point", "coordinates": [ -76.250752, 36.848317 ] } },
{ "type": "Feature", "properties": { "stop_id": "0623", "stop_name": "TIDEWATER & TWILLEY", "stop_lat": 36.939341, "stop_lon": -76.254904 }, "geometry": { "type": "Point", "coordinates": [ -76.254904, 36.939341 ] } },
{ "type": "Feature", "properties": { "stop_id": "0625", "stop_name": "TIDEWATER & BECK", "stop_lat": 36.937368, "stop_lon": -76.254552 }, "geometry": { "type": "Point", "coordinates": [ -76.254552, 36.937368 ] } },
{ "type": "Feature", "properties": { "stop_id": "0626", "stop_name": "SEWELLS POINT & DENVER", "stop_lat": 36.871757, "stop_lon": -76.232128 }, "geometry": { "type": "Point", "coordinates": [ -76.232128, 36.871757 ] } },
{ "type": "Feature", "properties": { "stop_id": "0627", "stop_name": "KIMBALL & FORBES", "stop_lat": 36.84309, "stop_lon": -76.260429 }, "geometry": { "type": "Point", "coordinates": [ -76.260429, 36.84309 ] } },
{ "type": "Feature", "properties": { "stop_id": "0628", "stop_name": "KIMBALL & MAJESTIC", "stop_lat": 36.842751, "stop_lon": -76.25788 }, "geometry": { "type": "Point", "coordinates": [ -76.25788, 36.842751 ] } },
{ "type": "Feature", "properties": { "stop_id": "0630", "stop_name": "KIMBALL & BALLENTINE", "stop_lat": 36.842237, "stop_lon": -76.253851 }, "geometry": { "type": "Point", "coordinates": [ -76.253851, 36.842237 ] } },
{ "type": "Feature", "properties": { "stop_id": "0632", "stop_name": "CAMELOT & SIR GALAHAD", "stop_lat": 36.781512, "stop_lon": -76.352756 }, "geometry": { "type": "Point", "coordinates": [ -76.352756, 36.781512 ] } },
{ "type": "Feature", "properties": { "stop_id": "0633", "stop_name": "CENTER & NEWTOWN", "stop_lat": 36.847144, "stop_lon": -76.183249 }, "geometry": { "type": "Point", "coordinates": [ -76.183249, 36.847144 ] } },
{ "type": "Feature", "properties": { "stop_id": "0634", "stop_name": "SCOTT & VIRGINIA BEACH", "stop_lat": 36.853195, "stop_lon": -76.241958 }, "geometry": { "type": "Point", "coordinates": [ -76.241958, 36.853195 ] } },
{ "type": "Feature", "properties": { "stop_id": "0635", "stop_name": "GATLING & TRICI", "stop_lat": 36.849899, "stop_lon": -76.239941 }, "geometry": { "type": "Point", "coordinates": [ -76.239941, 36.849899 ] } },
{ "type": "Feature", "properties": { "stop_id": "0636", "stop_name": "VIRGINIA BEACH & INGLESIDE", "stop_lat": 36.854527, "stop_lon": -76.238818 }, "geometry": { "type": "Point", "coordinates": [ -76.238818, 36.854527 ] } },
{ "type": "Feature", "properties": { "stop_id": "0637", "stop_name": "VIRGINIA BEACH & NORFOLK SQUARE", "stop_lat": 36.855261, "stop_lon": -76.234851 }, "geometry": { "type": "Point", "coordinates": [ -76.234851, 36.855261 ] } },
{ "type": "Feature", "properties": { "stop_id": "0638", "stop_name": "VIRGINIA BEACH & AZALEA GARDEN", "stop_lat": 36.855631, "stop_lon": -76.232966 }, "geometry": { "type": "Point", "coordinates": [ -76.232966, 36.855631 ] } },
{ "type": "Feature", "properties": { "stop_id": "0639", "stop_name": "AZALEA GARDEN & VIRGINIA BEACH", "stop_lat": 36.857022, "stop_lon": -76.232564 }, "geometry": { "type": "Point", "coordinates": [ -76.232564, 36.857022 ] } },
{ "type": "Feature", "properties": { "stop_id": "0640", "stop_name": "AZALEA GARDEN & VILLAGE", "stop_lat": 36.862216, "stop_lon": -76.234205 }, "geometry": { "type": "Point", "coordinates": [ -76.234205, 36.862216 ] } },
{ "type": "Feature", "properties": { "stop_id": "0641", "stop_name": "AZALEA GARDEN & PRINCESS ANNE", "stop_lat": 36.866156, "stop_lon": -76.235118 }, "geometry": { "type": "Point", "coordinates": [ -76.235118, 36.866156 ] } },
{ "type": "Feature", "properties": { "stop_id": "0642", "stop_name": "AZALEA GARDEN & EARLY", "stop_lat": 36.868798, "stop_lon": -76.233424 }, "geometry": { "type": "Point", "coordinates": [ -76.233424, 36.868798 ] } },
{ "type": "Feature", "properties": { "stop_id": "0644", "stop_name": "SEWELLS POINT & BRUCE", "stop_lat": 36.875154, "stop_lon": -76.232694 }, "geometry": { "type": "Point", "coordinates": [ -76.232694, 36.875154 ] } },
{ "type": "Feature", "properties": { "stop_id": "0645", "stop_name": "SEWELLS POINT & LITTLE JOHN", "stop_lat": 36.879024, "stop_lon": -76.233351 }, "geometry": { "type": "Point", "coordinates": [ -76.233351, 36.879024 ] } },
{ "type": "Feature", "properties": { "stop_id": "0646", "stop_name": "SEWELLS POINT & KENNEBECK", "stop_lat": 36.881502, "stop_lon": -76.233734 }, "geometry": { "type": "Point", "coordinates": [ -76.233734, 36.881502 ] } },
{ "type": "Feature", "properties": { "stop_id": "0647", "stop_name": "SEWELLS POINT & NORVIEW", "stop_lat": 36.888963, "stop_lon": -76.238139 }, "geometry": { "type": "Point", "coordinates": [ -76.238139, 36.888963 ] } },
{ "type": "Feature", "properties": { "stop_id": "0649", "stop_name": "SEWELLS POINT & PARTRIDGE", "stop_lat": 36.895391, "stop_lon": -76.239889 }, "geometry": { "type": "Point", "coordinates": [ -76.239889, 36.895391 ] } },
{ "type": "Feature", "properties": { "stop_id": "0650", "stop_name": "SEWELLS POINT & QUAIL", "stop_lat": 36.897209, "stop_lon": -76.241295 }, "geometry": { "type": "Point", "coordinates": [ -76.241295, 36.897209 ] } },
{ "type": "Feature", "properties": { "stop_id": "0651", "stop_name": "SEWELLS POINT & MARIETTA", "stop_lat": 36.899456, "stop_lon": -76.242287 }, "geometry": { "type": "Point", "coordinates": [ -76.242287, 36.899456 ] } },
{ "type": "Feature", "properties": { "stop_id": "0660", "stop_name": "SEWELLS POINT & KITTREL", "stop_lat": 36.904331, "stop_lon": -76.242818 }, "geometry": { "type": "Point", "coordinates": [ -76.242818, 36.904331 ] } },
{ "type": "Feature", "properties": { "stop_id": "0662", "stop_name": "SEWELLS POINT & AVENUE E", "stop_lat": 36.908209, "stop_lon": -76.244668 }, "geometry": { "type": "Point", "coordinates": [ -76.244668, 36.908209 ] } },
{ "type": "Feature", "properties": { "stop_id": "0663", "stop_name": "SEWELLS POINT & DENISON", "stop_lat": 36.910401, "stop_lon": -76.245794 }, "geometry": { "type": "Point", "coordinates": [ -76.245794, 36.910401 ] } },
{ "type": "Feature", "properties": { "stop_id": "0664", "stop_name": "SEWELLS POINT & AVENUE I", "stop_lat": 36.913249, "stop_lon": -76.247746 }, "geometry": { "type": "Point", "coordinates": [ -76.247746, 36.913249 ] } },
{ "type": "Feature", "properties": { "stop_id": "0665", "stop_name": "SEWELLS POINT & AVENUE I", "stop_lat": 36.912953, "stop_lon": -76.247619 }, "geometry": { "type": "Point", "coordinates": [ -76.247619, 36.912953 ] } },
{ "type": "Feature", "properties": { "stop_id": "0666", "stop_name": "SEWELLS POINT & DENISON", "stop_lat": 36.910339, "stop_lon": -76.245908 }, "geometry": { "type": "Point", "coordinates": [ -76.245908, 36.910339 ] } },
{ "type": "Feature", "properties": { "stop_id": "0667", "stop_name": "SEWELLS POINT & AVENUE E", "stop_lat": 36.907754, "stop_lon": -76.244567 }, "geometry": { "type": "Point", "coordinates": [ -76.244567, 36.907754 ] } },
{ "type": "Feature", "properties": { "stop_id": "0669", "stop_name": "SEWELLS POINT & KITTRELL", "stop_lat": 36.90428, "stop_lon": -76.242952 }, "geometry": { "type": "Point", "coordinates": [ -76.242952, 36.90428 ] } },
{ "type": "Feature", "properties": { "stop_id": "0675", "stop_name": "SEWELLS POINT & QUAIL", "stop_lat": 36.896589, "stop_lon": -76.240911 }, "geometry": { "type": "Point", "coordinates": [ -76.240911, 36.896589 ] } },
{ "type": "Feature", "properties": { "stop_id": "0676", "stop_name": "SEWELLS POINT & GREENWOOD", "stop_lat": 36.892165, "stop_lon": -76.238892 }, "geometry": { "type": "Point", "coordinates": [ -76.238892, 36.892165 ] } },
{ "type": "Feature", "properties": { "stop_id": "0677", "stop_name": "SEWELLS POINT & CHESAPEAKE", "stop_lat": 36.888818, "stop_lon": -76.238228 }, "geometry": { "type": "Point", "coordinates": [ -76.238228, 36.888818 ] } },
{ "type": "Feature", "properties": { "stop_id": "0680", "stop_name": "SEWELLS POINT & WINDERMERE", "stop_lat": 36.883767, "stop_lon": -76.234677 }, "geometry": { "type": "Point", "coordinates": [ -76.234677, 36.883767 ] } },
{ "type": "Feature", "properties": { "stop_id": "0681", "stop_name": "SEWELLS POINT & KENNEBECK", "stop_lat": 36.881112, "stop_lon": -76.233861 }, "geometry": { "type": "Point", "coordinates": [ -76.233861, 36.881112 ] } },
{ "type": "Feature", "properties": { "stop_id": "0682", "stop_name": "SEWELLS POINT & LITTLE JOHN", "stop_lat": 36.87885, "stop_lon": -76.233497 }, "geometry": { "type": "Point", "coordinates": [ -76.233497, 36.87885 ] } },
{ "type": "Feature", "properties": { "stop_id": "0683", "stop_name": "SEWELLS POINT & WOOLSEY", "stop_lat": 36.875194, "stop_lon": -76.232889 }, "geometry": { "type": "Point", "coordinates": [ -76.232889, 36.875194 ] } },
{ "type": "Feature", "properties": { "stop_id": "0684", "stop_name": "AZALEA GARDEN & EARLY", "stop_lat": 36.868928, "stop_lon": -76.233515 }, "geometry": { "type": "Point", "coordinates": [ -76.233515, 36.868928 ] } },
{ "type": "Feature", "properties": { "stop_id": "0685", "stop_name": "AZALEA GARDEN & PRINCESS ANNE", "stop_lat": 36.86627, "stop_lon": -76.235243 }, "geometry": { "type": "Point", "coordinates": [ -76.235243, 36.86627 ] } },
{ "type": "Feature", "properties": { "stop_id": "0686", "stop_name": "AZALEA GARDEN & VILLAGE", "stop_lat": 36.86129, "stop_lon": -76.233844 }, "geometry": { "type": "Point", "coordinates": [ -76.233844, 36.86129 ] } },
{ "type": "Feature", "properties": { "stop_id": "0688", "stop_name": "VIRGINIA BEACH & AZALEA GARDEN", "stop_lat": 36.855881, "stop_lon": -76.233096 }, "geometry": { "type": "Point", "coordinates": [ -76.233096, 36.855881 ] } },
{ "type": "Feature", "properties": { "stop_id": "0689", "stop_name": "VIRGINIA BEACH & KINGWOOD", "stop_lat": 36.855228, "stop_lon": -76.236696 }, "geometry": { "type": "Point", "coordinates": [ -76.236696, 36.855228 ] } },
{ "type": "Feature", "properties": { "stop_id": "0690", "stop_name": "VIRGINIA BEACH & INGLESIDE", "stop_lat": 36.854454, "stop_lon": -76.24075 }, "geometry": { "type": "Point", "coordinates": [ -76.24075, 36.854454 ] } },
{ "type": "Feature", "properties": { "stop_id": "0691", "stop_name": "GATLING & WAKEFIELD", "stop_lat": 36.849931, "stop_lon": -76.237821 }, "geometry": { "type": "Point", "coordinates": [ -76.237821, 36.849931 ] } },
{ "type": "Feature", "properties": { "stop_id": "0692", "stop_name": "BALLENTINE & CONNECTOR", "stop_lat": 36.851749, "stop_lon": -76.24788 }, "geometry": { "type": "Point", "coordinates": [ -76.24788, 36.851749 ] } },
{ "type": "Feature", "properties": { "stop_id": "0693", "stop_name": "OCEAN VIEW & 11TH VIEW", "stop_lat": 36.967222, "stop_lon": -76.281794 }, "geometry": { "type": "Point", "coordinates": [ -76.281794, 36.967222 ] } },
{ "type": "Feature", "properties": { "stop_id": "0695", "stop_name": "OCEAN VIEW & RICHVIEW", "stop_lat": 36.967223, "stop_lon": -76.289028 }, "geometry": { "type": "Point", "coordinates": [ -76.289028, 36.967223 ] } },
{ "type": "Feature", "properties": { "stop_id": "0696", "stop_name": "OCEAN VIEW & 15TH VIEW", "stop_lat": 36.967134, "stop_lon": -76.293485 }, "geometry": { "type": "Point", "coordinates": [ -76.293485, 36.967134 ] } },
{ "type": "Feature", "properties": { "stop_id": "0699", "stop_name": "KIMBALL & MAJESTIC", "stop_lat": 36.84283, "stop_lon": -76.257621 }, "geometry": { "type": "Point", "coordinates": [ -76.257621, 36.84283 ] } },
{ "type": "Feature", "properties": { "stop_id": "0700", "stop_name": "KIMBALL & FORBES", "stop_lat": 36.843253, "stop_lon": -76.260715 }, "geometry": { "type": "Point", "coordinates": [ -76.260715, 36.843253 ] } },
{ "type": "Feature", "properties": { "stop_id": "0703", "stop_name": "CORPREW & BALLENTINE", "stop_lat": 36.850199, "stop_lon": -76.249316 }, "geometry": { "type": "Point", "coordinates": [ -76.249316, 36.850199 ] } },
{ "type": "Feature", "properties": { "stop_id": "0704", "stop_name": "CORPREW & GATE HOUSE", "stop_lat": 36.850656, "stop_lon": -76.251627 }, "geometry": { "type": "Point", "coordinates": [ -76.251627, 36.850656 ] } },
{ "type": "Feature", "properties": { "stop_id": "0705", "stop_name": "CORPREW & NORCHESTER", "stop_lat": 36.850584, "stop_lon": -76.255369 }, "geometry": { "type": "Point", "coordinates": [ -76.255369, 36.850584 ] } },
{ "type": "Feature", "properties": { "stop_id": "0706", "stop_name": "CORPREW & MAJESTIC", "stop_lat": 36.850538, "stop_lon": -76.257664 }, "geometry": { "type": "Point", "coordinates": [ -76.257664, 36.850538 ] } },
{ "type": "Feature", "properties": { "stop_id": "0709", "stop_name": "CORPREW & COVENANT", "stop_lat": 36.850557, "stop_lon": -76.264106 }, "geometry": { "type": "Point", "coordinates": [ -76.264106, 36.850557 ] } },
{ "type": "Feature", "properties": { "stop_id": "0711", "stop_name": "PARK & BOND", "stop_lat": 36.849592, "stop_lon": -76.26785 }, "geometry": { "type": "Point", "coordinates": [ -76.26785, 36.849592 ] } },
{ "type": "Feature", "properties": { "stop_id": "0712", "stop_name": "PARK & OLNEY", "stop_lat": 36.847872, "stop_lon": -76.269423 }, "geometry": { "type": "Point", "coordinates": [ -76.269423, 36.847872 ] } },
{ "type": "Feature", "properties": { "stop_id": "0713", "stop_name": "BRAMBLETON & MARSHALL", "stop_lat": 36.847086, "stop_lon": -76.27133 }, "geometry": { "type": "Point", "coordinates": [ -76.27133, 36.847086 ] } },
{ "type": "Feature", "properties": { "stop_id": "0717", "stop_name": "SEWELLS POINT & NORVELLA", "stop_lat": 36.886376, "stop_lon": -76.236492 }, "geometry": { "type": "Point", "coordinates": [ -76.236492, 36.886376 ] } },
{ "type": "Feature", "properties": { "stop_id": "0719", "stop_name": "OCEAN VIEW & MASON CREEK", "stop_lat": 36.958326, "stop_lon": -76.256919 }, "geometry": { "type": "Point", "coordinates": [ -76.256919, 36.958326 ] } },
{ "type": "Feature", "properties": { "stop_id": "0720", "stop_name": "COLONIAL & BOISSEVAIN", "stop_lat": 36.859553, "stop_lon": -76.296093 }, "geometry": { "type": "Point", "coordinates": [ -76.296093, 36.859553 ] } },
{ "type": "Feature", "properties": { "stop_id": "0721", "stop_name": "COLONIAL & GRAYDON", "stop_lat": 36.862689, "stop_lon": -76.294543 }, "geometry": { "type": "Point", "coordinates": [ -76.294543, 36.862689 ] } },
{ "type": "Feature", "properties": { "stop_id": "0722", "stop_name": "COLONIAL & PRINCESS ANNE", "stop_lat": 36.863687, "stop_lon": -76.294024 }, "geometry": { "type": "Point", "coordinates": [ -76.294024, 36.863687 ] } },
{ "type": "Feature", "properties": { "stop_id": "0725", "stop_name": "COLONIAL & WASHINGTON", "stop_lat": 36.86727, "stop_lon": -76.29254 }, "geometry": { "type": "Point", "coordinates": [ -76.29254, 36.86727 ] } },
{ "type": "Feature", "properties": { "stop_id": "0728", "stop_name": "COLONIAL & 29TH", "stop_lat": 36.874915, "stop_lon": -76.289161 }, "geometry": { "type": "Point", "coordinates": [ -76.289161, 36.874915 ] } },
{ "type": "Feature", "properties": { "stop_id": "0730", "stop_name": "COLONIAL & 31ST", "stop_lat": 36.876319, "stop_lon": -76.288553 }, "geometry": { "type": "Point", "coordinates": [ -76.288553, 36.876319 ] } },
{ "type": "Feature", "properties": { "stop_id": "0731", "stop_name": "COLONIAL & 35TH", "stop_lat": 36.87803, "stop_lon": -76.288434 }, "geometry": { "type": "Point", "coordinates": [ -76.288434, 36.87803 ] } },
{ "type": "Feature", "properties": { "stop_id": "0732", "stop_name": "NEWPORT & 37TH", "stop_lat": 36.879354, "stop_lon": -76.290423 }, "geometry": { "type": "Point", "coordinates": [ -76.290423, 36.879354 ] } },
{ "type": "Feature", "properties": { "stop_id": "0733", "stop_name": "NEWPORT & GEORGIA", "stop_lat": 36.880631, "stop_lon": -76.290204 }, "geometry": { "type": "Point", "coordinates": [ -76.290204, 36.880631 ] } },
{ "type": "Feature", "properties": { "stop_id": "0735", "stop_name": "NEWPORT & PENNSYLVANIA", "stop_lat": 36.883614, "stop_lon": -76.289212 }, "geometry": { "type": "Point", "coordinates": [ -76.289212, 36.883614 ] } },
{ "type": "Feature", "properties": { "stop_id": "0737", "stop_name": "NEWPORT & CONNECTICUT", "stop_lat": 36.886587, "stop_lon": -76.288153 }, "geometry": { "type": "Point", "coordinates": [ -76.288153, 36.886587 ] } },
{ "type": "Feature", "properties": { "stop_id": "0741", "stop_name": "NEWPORT & PENNSYLVANIA", "stop_lat": 36.883808, "stop_lon": -76.289277 }, "geometry": { "type": "Point", "coordinates": [ -76.289277, 36.883808 ] } },
{ "type": "Feature", "properties": { "stop_id": "0743", "stop_name": "NEWPORT & VIRGINIA", "stop_lat": 36.882312, "stop_lon": -76.289775 }, "geometry": { "type": "Point", "coordinates": [ -76.289775, 36.882312 ] } },
{ "type": "Feature", "properties": { "stop_id": "0744", "stop_name": "NEWPORT & GEORGIA", "stop_lat": 36.880838, "stop_lon": -76.29028 }, "geometry": { "type": "Point", "coordinates": [ -76.29028, 36.880838 ] } },
{ "type": "Feature", "properties": { "stop_id": "0745", "stop_name": "NEWPORT & 37TH", "stop_lat": 36.879605, "stop_lon": -76.290605 }, "geometry": { "type": "Point", "coordinates": [ -76.290605, 36.879605 ] } },
{ "type": "Feature", "properties": { "stop_id": "0747", "stop_name": "NEWPORT & 35TH", "stop_lat": 36.878414, "stop_lon": -76.290525 }, "geometry": { "type": "Point", "coordinates": [ -76.290525, 36.878414 ] } },
{ "type": "Feature", "properties": { "stop_id": "0748", "stop_name": "35TH & COLONIAL", "stop_lat": 36.878109, "stop_lon": -76.28869 }, "geometry": { "type": "Point", "coordinates": [ -76.28869, 36.878109 ] } },
{ "type": "Feature", "properties": { "stop_id": "0750", "stop_name": "COLONIAL & 30TH", "stop_lat": 36.875375, "stop_lon": -76.289076 }, "geometry": { "type": "Point", "coordinates": [ -76.289076, 36.875375 ] } },
{ "type": "Feature", "properties": { "stop_id": "0751", "stop_name": "COLONIAL & 26TH", "stop_lat": 36.873028, "stop_lon": -76.290161 }, "geometry": { "type": "Point", "coordinates": [ -76.290161, 36.873028 ] } },
{ "type": "Feature", "properties": { "stop_id": "0753", "stop_name": "COLONIAL & 21ST", "stop_lat": 36.868651, "stop_lon": -76.292062 }, "geometry": { "type": "Point", "coordinates": [ -76.292062, 36.868651 ] } },
{ "type": "Feature", "properties": { "stop_id": "0754", "stop_name": "COLONIAL & SPOTSWOOD", "stop_lat": 36.86681, "stop_lon": -76.292852 }, "geometry": { "type": "Point", "coordinates": [ -76.292852, 36.86681 ] } },
{ "type": "Feature", "properties": { "stop_id": "0755", "stop_name": "COLONIAL & PRINCESS ANNE", "stop_lat": 36.863794, "stop_lon": -76.294157 }, "geometry": { "type": "Point", "coordinates": [ -76.294157, 36.863794 ] } },
{ "type": "Feature", "properties": { "stop_id": "0756", "stop_name": "COLONIAL & BOISSEVAIN", "stop_lat": 36.859737, "stop_lon": -76.296135 }, "geometry": { "type": "Point", "coordinates": [ -76.296135, 36.859737 ] } },
{ "type": "Feature", "properties": { "stop_id": "0757", "stop_name": "COLONIAL & 26TH", "stop_lat": 36.872691, "stop_lon": -76.290121 }, "geometry": { "type": "Point", "coordinates": [ -76.290121, 36.872691 ] } },
{ "type": "Feature", "properties": { "stop_id": "0758", "stop_name": "INDIAN RIVER & OAKWOOD", "stop_lat": 36.831309, "stop_lon": -76.25911 }, "geometry": { "type": "Point", "coordinates": [ -76.25911, 36.831309 ] } },
{ "type": "Feature", "properties": { "stop_id": "0759", "stop_name": "SEWELLS POINT & STRAND", "stop_lat": 36.894618, "stop_lon": -76.239454 }, "geometry": { "type": "Point", "coordinates": [ -76.239454, 36.894618 ] } },
{ "type": "Feature", "properties": { "stop_id": "0761", "stop_name": "INDIAN RIVER & FORD", "stop_lat": 36.830126, "stop_lon": -76.253709 }, "geometry": { "type": "Point", "coordinates": [ -76.253709, 36.830126 ] } },
{ "type": "Feature", "properties": { "stop_id": "0762", "stop_name": "INDIAN RIVER & SAINT LAWRENCE", "stop_lat": 36.824376, "stop_lon": -76.239563 }, "geometry": { "type": "Point", "coordinates": [ -76.239563, 36.824376 ] } },
{ "type": "Feature", "properties": { "stop_id": "0763", "stop_name": "INDIAN RIVER & HAZEL", "stop_lat": 36.82216, "stop_lon": -76.231616 }, "geometry": { "type": "Point", "coordinates": [ -76.231616, 36.82216 ] } },
{ "type": "Feature", "properties": { "stop_id": "0764", "stop_name": "INDIAN RIVER & SPARROW", "stop_lat": 36.820343, "stop_lon": -76.225123 },