OBJECTID,STATEFP20,COUNTYFP20,TRACTCE20,GEOID20,NAME20,NAMELSAD20,MTFCC20,FUNCSTAT20,ALAND20,AWATER20,INTPTLAT20,INTPTLON20,TRACT_DESCRIPTION,Shape_Length,Shape_Area,stop_id,stop_name,stop_lat,stop_lon
"1","51","710","000100","51710000100","1",Census Tract,G5020,S,937212,46000,"+36.9347339","-076.2208474",OCEAN VIEW,0.0484687896089239,9.94502794199472e-05,"0064",OCEAN VIEW & BEAUMONT,36.940397,-76.228705
"1","51","710","000100","51710000100","1",Census Tract,G5020,S,937212,46000,"+36.9347339","-076.2208474",OCEAN VIEW,0.0484687896089239,9.94502794199472e-05,"0065",OCEAN VIEW & GROVE,36.939199,-76.225509
"1","51","710","000100","51710000100","1",Census Tract,G5020,S,937212,46000,"+36.9347339","-076.2208474",OCEAN VIEW,0.0484687896089239,9.94502794199472e-05,"0066",OCEAN VIEW & CAPE VIEW,36.938352,-76.223038
"1","51","710","000100","51710000100","1",Census Tract,G5020,S,937212,46000,"+36.9347339","-076.2208474",OCEAN VIEW,0.0484687896089239,9.94502794199472e-05,"0068",OCEAN VIEW & 1ST BAY,36.936328,-76.216953
"1","51","710","000100","51710000100","1",Census Tract,G5020,S,937212,46000,"+36.9347339","-076.2208474",OCEAN VIEW,0.0484687896089239,9.94502794199472e-05,"0140",OCEAN VIEW & CAPEVIEW,36.938444,-76.222713
"1","51","710","000100","51710000100","1",Census Tract,G5020,S,937212,46000,"+36.9347339","-076.2208474",OCEAN VIEW,0.0484687896089239,9.94502794199472e-05,"0141",OCEAN VIEW & GROVE,36.939554,-76.225963
"1","51","710","000100","51710000100","1",Census Tract,G5020,S,937212,46000,"+36.9347339","-076.2208474",OCEAN VIEW,0.0484687896089239,9.94502794199472e-05,"2087",OCEAN VIEW & INLET,36.93735,-76.219408
"2","51","710","000201","51710000201","2.01",Census Tract,G5020,S,704757,0,"+36.9440330","-076.2375183",OCEAN VIEW,0.047254669429449,7.12922324664542e-05,"0056",OCEAN VIEW & ELNORA,36.947934,-76.241558
"2","51","710","000201","51710000201","2.01",Census Tract,G5020,S,704757,0,"+36.9440330","-076.2375183",OCEAN VIEW,0.047254669429449,7.12922324664542e-05,"0058",OCEAN VIEW & ATLANS,36.945964,-76.23882
"2","51","710","000201","51710000201","2.01",Census Tract,G5020,S,704757,0,"+36.9440330","-076.2375183",OCEAN VIEW,0.047254669429449,7.12922324664542e-05,"0060",OCEAN VIEW & BEACH VIEW,36.944179,-76.235762
"2","51","710","000201","51710000201","2.01",Census Tract,G5020,S,704757,0,"+36.9440330","-076.2375183",OCEAN VIEW,0.047254669429449,7.12922324664542e-05,"0062",OCEAN VIEW & STURGIS,36.942056,-76.231913
"2","51","710","000201","51710000201","2.01",Census Tract,G5020,S,704757,0,"+36.9440330","-076.2375183",OCEAN VIEW,0.047254669429449,7.12922324664542e-05,"0143",OCEAN VIEW & WILLOW,36.941504,-76.230474
"2","51","710","000201","51710000201","2.01",Census Tract,G5020,S,704757,0,"+36.9440330","-076.2375183",OCEAN VIEW,0.047254669429449,7.12922324664542e-05,"0144",OCEAN VIEW & STURGIS,36.942319,-76.232115
"2","51","710","000201","51710000201","2.01",Census Tract,G5020,S,704757,0,"+36.9440330","-076.2375183",OCEAN VIEW,0.047254669429449,7.12922324664542e-05,"0146",OCEAN VIEW & BEACH VIEW,36.944271,-76.235617
"2","51","710","000201","51710000201","2.01",Census Tract,G5020,S,704757,0,"+36.9440330","-076.2375183",OCEAN VIEW,0.047254669429449,7.12922324664542e-05,"0332",CHESAPEAKE & DUDLEY,36.94281,-76.245677
"2","51","710","000201","51710000201","2.01",Census Tract,G5020,S,704757,0,"+36.9440330","-076.2375183",OCEAN VIEW,0.047254669429449,7.12922324664542e-05,"5641",OCEAN VIEW & CHESAPEAKE ST,36.947473,-76.240629
"2","51","710","000201","51710000201","2.01",Census Tract,G5020,S,704757,0,"+36.9440330","-076.2375183",OCEAN VIEW,0.047254669429449,7.12922324664542e-05,"5750",CHESAPEAKE & BALVIEW,36.94645,-76.2441
"3","51","710","000202","51710000202","2.02",Census Tract,G5020,S,1305437,0,"+36.9374396","-076.2390455",OCEAN VIEW,0.0481896864342955,0.000132045355951708,"0324",CHESAPEAKE & FISHERMANS,36.930525,-76.243771
"3","51","710","000202","51710000202","2.02",Census Tract,G5020,S,1305437,0,"+36.9374396","-076.2390455",OCEAN VIEW,0.0481896864342955,0.000132045355951708,"0326",CHESAPEAKE & BAYVIEW,36.933312,-76.244167
"3","51","710","000202","51710000202","2.02",Census Tract,G5020,S,1305437,0,"+36.9374396","-076.2390455",OCEAN VIEW,0.0481896864342955,0.000132045355951708,"0328",CHESAPEAKE & DUNE,36.937292,-76.244794
"3","51","710","000202","51710000202","2.02",Census Tract,G5020,S,1305437,0,"+36.9374396","-076.2390455",OCEAN VIEW,0.0481896864342955,0.000132045355951708,"0330",CHESAPEAKE & CHESTER,36.9391,-76.245089
"4","51","710","000300","51710000300","3",Census Tract,G5020,S,1812208,23080,"+36.9512897","-076.2530290",OCEAN VIEW,0.0662043431862795,0.000185672566841233,"0048",GRANBY & BATTERSEA,36.948166,-76.256277
"4","51","710","000300","51710000300","3",Census Tract,G5020,S,1812208,23080,"+36.9512897","-076.2530290",OCEAN VIEW,0.0662043431862795,0.000185672566841233,"0051",GRANBY & GOVERNMENT,36.949204,-76.255099
"4","51","710","000300","51710000300","3",Census Tract,G5020,S,1812208,23080,"+36.9512897","-076.2530290",OCEAN VIEW,0.0662043431862795,0.000185672566841233,"0053",GRANBY & DUFFYS,36.953547,-76.251738
"4","51","710","000300","51710000300","3",Census Tract,G5020,S,1812208,23080,"+36.9512897","-076.2530290",OCEAN VIEW,0.0662043431862795,0.000185672566841233,"0054",OCEAN VIEW & HAMMETT,36.951082,-76.247823
"4","51","710","000300","51710000300","3",Census Tract,G5020,S,1812208,23080,"+36.9512897","-076.2530290",OCEAN VIEW,0.0662043431862795,0.000185672566841233,"0055",OCEAN VIEW & NORFOLK,36.949813,-76.245815
"4","51","710","000300","51710000300","3",Census Tract,G5020,S,1812208,23080,"+36.9512897","-076.2530290",OCEAN VIEW,0.0662043431862795,0.000185672566841233,"0149",OCEAN VIEW & NORFOLK,36.94997,-76.245823
"4","51","710","000300","51710000300","3",Census Tract,G5020,S,1812208,23080,"+36.9512897","-076.2530290",OCEAN VIEW,0.0662043431862795,0.000185672566841233,"0156",FIRST VIEW & GOVERNMENT,36.952121,-76.257532
"4","51","710","000300","51710000300","3",Census Tract,G5020,S,1812208,23080,"+36.9512897","-076.2530290",OCEAN VIEW,0.0662043431862795,0.000185672566841233,"0160",GRANBY & GOVERNMENT,36.9504,-76.254341
"4","51","710","000300","51710000300","3",Census Tract,G5020,S,1812208,23080,"+36.9512897","-076.2530290",OCEAN VIEW,0.0662043431862795,0.000185672566841233,"0610",OCEAN VIEW & FIRST VIEW,36.956534,-76.2543
"4","51","710","000300","51710000300","3",Census Tract,G5020,S,1812208,23080,"+36.9512897","-076.2530290",OCEAN VIEW,0.0662043431862795,0.000185672566841233,"0719",OCEAN VIEW & MASON CREEK,36.958326,-76.256919
"4","51","710","000300","51710000300","3",Census Tract,G5020,S,1812208,23080,"+36.9512897","-076.2530290",OCEAN VIEW,0.0662043431862795,0.000185672566841233,"1346",OCEAN VIEW & FIRST VIEW,36.95587,-76.253034
"4","51","710","000300","51710000300","3",Census Tract,G5020,S,1812208,23080,"+36.9512897","-076.2530290",OCEAN VIEW,0.0662043431862795,0.000185672566841233,"2062",1ST VIEW & A VIEW,36.955034,-76.254782
"4","51","710","000300","51710000300","3",Census Tract,G5020,S,1812208,23080,"+36.9512897","-076.2530290",OCEAN VIEW,0.0662043431862795,0.000185672566841233,"2086",1ST VIEW & PORTVIEW,36.955179,-76.254483
"4","51","710","000300","51710000300","3",Census Tract,G5020,S,1812208,23080,"+36.9512897","-076.2530290",OCEAN VIEW,0.0662043431862795,0.000185672566841233,"3801",FIRST VIEW & GOVERNMENT,36.951989,-76.257806
"4","51","710","000300","51710000300","3",Census Tract,G5020,S,1812208,23080,"+36.9512897","-076.2530290",OCEAN VIEW,0.0662043431862795,0.000185672566841233,"5751",CHESAPEAKE & OCEAN VIEW,36.947605,-76.243868
"5","51","710","000400","51710000400","4",Census Tract,G5020,S,1157416,6429767,"+36.9650231","-076.2907359",WILLOUGBY,0.178535081736343,0.000767661752461734,"0605",OCEAN VIEW & 8TH VIEW,36.965201,-76.272485
"5","51","710","000400","51710000400","4",Census Tract,G5020,S,1157416,6429767,"+36.9650231","-076.2907359",WILLOUGBY,0.178535081736343,0.000767661752461734,"0606",OCEAN VIEW & 7TH VIEW,36.963665,-76.267602
"5","51","710","000400","51710000400","4",Census Tract,G5020,S,1157416,6429767,"+36.9650231","-076.2907359",WILLOUGBY,0.178535081736343,0.000767661752461734,"0607",OCEAN VIEW & 6TH VIEW,36.962663,-76.265735
"5","51","710","000400","51710000400","4",Census Tract,G5020,S,1157416,6429767,"+36.9650231","-076.2907359",WILLOUGBY,0.178535081736343,0.000767661752461734,"0608",OCEAN VIEW & 4TH VIEW,36.959208,-76.260125
"5","51","710","000400","51710000400","4",Census Tract,G5020,S,1157416,6429767,"+36.9650231","-076.2907359",WILLOUGBY,0.178535081736343,0.000767661752461734,"0693",OCEAN VIEW & 11TH VIEW,36.967222,-76.281794
"5","51","710","000400","51710000400","4",Census Tract,G5020,S,1157416,6429767,"+36.9650231","-076.2907359",WILLOUGBY,0.178535081736343,0.000767661752461734,"0695",OCEAN VIEW & RICHVIEW,36.967223,-76.289028
"5","51","710","000400","51710000400","4",Census Tract,G5020,S,1157416,6429767,"+36.9650231","-076.2907359",WILLOUGBY,0.178535081736343,0.000767661752461734,"0696",OCEAN VIEW & 15TH VIEW,36.967134,-76.293485
"5","51","710","000400","51710000400","4",Census Tract,G5020,S,1157416,6429767,"+36.9650231","-076.2907359",WILLOUGBY,0.178535081736343,0.000767661752461734,"1007",OCEAN VIEW & 5TH VIEW,36.961387,-76.263407
"5","51","710","000400","51710000400","4",Census Tract,G5020,S,1157416,6429767,"+36.9650231","-076.2907359",WILLOUGBY,0.178535081736343,0.000767661752461734,"1008",OCEAN VIEW & 6TH VIEW,36.96299,-76.265889
"5","51","710","000400","51710000400","4",Census Tract,G5020,S,1157416,6429767,"+36.9650231","-076.2907359",WILLOUGBY,0.178535081736343,0.000767661752461734,"1009",OCEAN VIEW & 7TH VIEW,36.964151,-76.268488
"5","51","710","000400","51710000400","4",Census Tract,G5020,S,1157416,6429767,"+36.9650231","-076.2907359",WILLOUGBY,0.178535081736343,0.000767661752461734,"1010",OCEAN VIEW & SALEM,36.966635,-76.276475
"5","51","710","000400","51710000400","4",Census Tract,G5020,S,1157416,6429767,"+36.9650231","-076.2907359",WILLOUGBY,0.178535081736343,0.000767661752461734,"1014",OCEAN VIEW & 15TH VIEW,36.966952,-76.294315
"5","51","710","000400","51710000400","4",Census Tract,G5020,S,1157416,6429767,"+36.9650231","-076.2907359",WILLOUGBY,0.178535081736343,0.000767661752461734,"1015",OCEAN VIEW & 14th VIEW,36.967042,-76.290922
"5","51","710","000400","51710000400","4",Census Tract,G5020,S,1157416,6429767,"+36.9650231","-076.2907359",WILLOUGBY,0.178535081736343,0.000767661752461734,"1016",OCEAN VIEW & LE CLAIR,36.967098,-76.286382
"5","51","710","000400","51710000400","4",Census Tract,G5020,S,1157416,6429767,"+36.9650231","-076.2907359",WILLOUGBY,0.178535081736343,0.000767661752461734,"1017",OCEAN VIEW & HANSFORD,36.967068,-76.283866
"5","51","710","000400","51710000400","4",Census Tract,G5020,S,1157416,6429767,"+36.9650231","-076.2907359",WILLOUGBY,0.178535081736343,0.000767661752461734,"1018",OCEAN VIEW & 10TH VIEW,36.9668,-76.278106
"5","51","710","000400","51710000400","4",Census Tract,G5020,S,1157416,6429767,"+36.9650231","-076.2907359",WILLOUGBY,0.178535081736343,0.000767661752461734,"1019",OCEAN VIEW & 9TH VIEW,36.966134,-76.275429
"5","51","710","000400","51710000400","4",Census Tract,G5020,S,1157416,6429767,"+36.9650231","-076.2907359",WILLOUGBY,0.178535081736343,0.000767661752461734,"3850",OCEAN VIEW & 12TH VIEW,36.967244,-76.284186
"5","51","710","000400","51710000400","4",Census Tract,G5020,S,1157416,6429767,"+36.9650231","-076.2907359",WILLOUGBY,0.178535081736343,0.000767661752461734,"3851",OCEAN VIEW & 5TH VIEW,36.961469,-76.263884
"5","51","710","000400","51710000400","4",Census Tract,G5020,S,1157416,6429767,"+36.9650231","-076.2907359",WILLOUGBY,0.178535081736343,0.000767661752461734,"5614",OCEAN VIEW & 4TH VIEW,36.959491,-76.260383
"5","51","710","000400","51710000400","4",Census Tract,G5020,S,1157416,6429767,"+36.9650231","-076.2907359",WILLOUGBY,0.178535081736343,0.000767661752461734,"5938",OCEAN VIEW & 8TH VIEW,36.965198,-76.271831
"6","51","710","000500","51710000500","5",Census Tract,G5020,S,1099448,0,"+36.9475134","-076.2633187",PAMLICO,0.0525780061358683,0.000111223663119786,"0153",FIRST VIEW & MAPLE,36.949561,-76.260216
"6","51","710","000500","51710000500","5",Census Tract,G5020,S,1099448,0,"+36.9475134","-076.2633187",PAMLICO,0.0525780061358683,0.000111223663119786,"0161",GRANBY & OSBORNE,36.948937,-76.255945
"6","51","710","000500","51710000500","5",Census Tract,G5020,S,1099448,0,"+36.9475134","-076.2633187",PAMLICO,0.0525780061358683,0.000111223663119786,"0162",GRANBY & LEICESTER,36.942684,-76.26024
"6","51","710","000500","51710000500","5",Census Tract,G5020,S,1099448,0,"+36.9475134","-076.2633187",PAMLICO,0.0525780061358683,0.000111223663119786,"0927",GRANBY & SLOANE,36.945606,-76.259316
"6","51","710","000500","51710000500","5",Census Tract,G5020,S,1099448,0,"+36.9475134","-076.2633187",PAMLICO,0.0525780061358683,0.000111223663119786,"2065",1ST VIEW & SAINT GEORGE,36.947834,-76.264377
"6","51","710","000500","51710000500","5",Census Tract,G5020,S,1099448,0,"+36.9475134","-076.2633187",PAMLICO,0.0525780061358683,0.000111223663119786,"2084",1ST VIEW & BAY,36.945088,-76.27041
"6","51","710","000500","51710000500","5",Census Tract,G5020,S,1099448,0,"+36.9475134","-076.2633187",PAMLICO,0.0525780061358683,0.000111223663119786,"2085",1ST VIEW & SAINT GEORGE,36.948133,-76.263472
"6","51","710","000500","51710000500","5",Census Tract,G5020,S,1099448,0,"+36.9475134","-076.2633187",PAMLICO,0.0525780061358683,0.000111223663119786,"3803",FIRST VIEW & MAPLE,36.949773,-76.259998
"6","51","710","000500","51710000500","5",Census Tract,G5020,S,1099448,0,"+36.9475134","-076.2633187",PAMLICO,0.0525780061358683,0.000111223663119786,"3894",FIRST VIEW & RIDGEWELL,36.946387,-76.267443
"7","51","710","000600","51710000600","6",Census Tract,G5020,S,1248687,0,"+36.9404240","-076.2535165","OCEANAIR, BAYVIEW",0.0506226768736539,0.000126309319407151,"0044",GRANBY & CHESTER,36.939587,-76.261315
"7","51","710","000600","51710000600","6",Census Tract,G5020,S,1248687,0,"+36.9404240","-076.2535165","OCEANAIR, BAYVIEW",0.0506226768736539,0.000126309319407151,"0046",GRANBY & RANDALL,36.943404,-76.259692
"7","51","710","000600","51710000600","6",Census Tract,G5020,S,1248687,0,"+36.9404240","-076.2535165","OCEANAIR, BAYVIEW",0.0506226768736539,0.000126309319407151,"0343",CHESAPEAKE & LEICESTER,36.941928,-76.245853
"7","51","710","000600","51710000600","6",Census Tract,G5020,S,1248687,0,"+36.9404240","-076.2535165","OCEANAIR, BAYVIEW",0.0506226768736539,0.000126309319407151,"0344",CHESAPEAKE & FARRELL,36.939119,-76.245435
"7","51","710","000600","51710000600","6",Census Tract,G5020,S,1248687,0,"+36.9404240","-076.2535165","OCEANAIR, BAYVIEW",0.0506226768736539,0.000126309319407151,"0623",TIDEWATER & TWILLEY,36.939341,-76.254904
"7","51","710","000600","51710000600","6",Census Tract,G5020,S,1248687,0,"+36.9404240","-076.2535165","OCEANAIR, BAYVIEW",0.0506226768736539,0.000126309319407151,"0625",TIDEWATER & BECK,36.937368,-76.254552
"7","51","710","000600","51710000600","6",Census Tract,G5020,S,1248687,0,"+36.9404240","-076.2535165","OCEANAIR, BAYVIEW",0.0506226768736539,0.000126309319407151,"0981",TIDEWATER & BECK,36.937061,-76.254243
"7","51","710","000600","51710000600","6",Census Tract,G5020,S,1248687,0,"+36.9404240","-076.2535165","OCEANAIR, BAYVIEW",0.0506226768736539,0.000126309319407151,"0982",TIDEWATER & CHESTER,36.939187,-76.254592
"7","51","710","000600","51710000600","6",Census Tract,G5020,S,1248687,0,"+36.9404240","-076.2535165","OCEANAIR, BAYVIEW",0.0506226768736539,0.000126309319407151,"0983",TIDEWATER & RANDALL,36.942675,-76.256688
"7","51","710","000600","51710000600","6",Census Tract,G5020,S,1248687,0,"+36.9404240","-076.2535165","OCEANAIR, BAYVIEW",0.0506226768736539,0.000126309319407151,"3848",TIDEWATER & GILPIN,36.944155,-76.25785
"7","51","710","000600","51710000600","6",Census Tract,G5020,S,1248687,0,"+36.9404240","-076.2535165","OCEANAIR, BAYVIEW",0.0506226768736539,0.000126309319407151,"3852",TIDEWATER & LORENGO,36.944057,-76.258099
"7","51","710","000600","51710000600","6",Census Tract,G5020,S,1248687,0,"+36.9404240","-076.2535165","OCEANAIR, BAYVIEW",0.0506226768736539,0.000126309319407151,"3853",TIDEWATER & LEICESTER,36.941753,-76.256172
"7","51","710","000600","51710000600","6",Census Tract,G5020,S,1248687,0,"+36.9404240","-076.2535165","OCEANAIR, BAYVIEW",0.0506226768736539,0.000126309319407151,"5957",CHESAPEAKE & DUDLEY,36.943244,-76.245889
"8","51","710","000700","51710000700","7",Census Tract,G5020,S,1312199,33089,"+36.9332787","-076.2537728","OCEANAIR, BAYVIEW",0.0557468215237538,0.00013606863320923,"0042",GRANBY & BAYVIEW,36.934688,-76.264051
"8","51","710","000700","51710000700","7",Census Tract,G5020,S,1312199,33089,"+36.9332787","-076.2537728","OCEANAIR, BAYVIEW",0.0557468215237538,0.00013606863320923,"0346",CHESAPEAKE & EARL,36.935884,-76.244927
"8","51","710","000700","51710000700","7",Census Tract,G5020,S,1312199,33089,"+36.9332787","-076.2537728","OCEANAIR, BAYVIEW",0.0557468215237538,0.00013606863320923,"0347",CHESAPEAKE & BAYVIEW,36.934065,-76.244657
"8","51","710","000700","51710000700","7",Census Tract,G5020,S,1312199,33089,"+36.9332787","-076.2537728","OCEANAIR, BAYVIEW",0.0557468215237538,0.00013606863320923,"0348",CHESAPEAKE & FISHERMANS,36.929915,-76.243982
"8","51","710","000700","51710000700","7",Census Tract,G5020,S,1312199,33089,"+36.9332787","-076.2537728","OCEANAIR, BAYVIEW",0.0557468215237538,0.00013606863320923,"0980",TIDEWATER & BAYVIEW,36.933637,-76.253713
"8","51","710","000700","51710000700","7",Census Tract,G5020,S,1312199,33089,"+36.9332787","-076.2537728","OCEANAIR, BAYVIEW",0.0557468215237538,0.00013606863320923,"5617",TIDEWATER & EVANS,36.934593,-76.254114
"8","51","710","000700","51710000700","7",Census Tract,G5020,S,1312199,33089,"+36.9332787","-076.2537728","OCEANAIR, BAYVIEW",0.0557468215237538,0.00013606863320923,"5723",TIDEWATER & WOODFORD,36.932189,-76.25375
"9","51","710","000800","51710000800","8",Census Tract,G5020,S,941358,204737,"+36.9378793","-076.2687837","MERRIMAC PARK, COMMODORE PARK",0.0487455910938273,0.000115929630084182,"0164",GRANBY & CHESTER,36.939594,-76.261672
"9","51","710","000800","51710000800","8",Census Tract,G5020,S,941358,204737,"+36.9378793","-076.2687837","MERRIMAC PARK, COMMODORE PARK",0.0487455910938273,0.000115929630084182,"0165",GRANBY & LANDALE,36.936227,-76.263575
"9","51","710","000800","51710000800","8",Census Tract,G5020,S,941358,204737,"+36.9378793","-076.2687837","MERRIMAC PARK, COMMODORE PARK",0.0487455910938273,0.000115929630084182,"0166",GRANBY & BAYVIEW,36.934366,-76.264629
"10","51","710","000901","51710000901","9.01",Census Tract,G5020,S,3398577,0,"+36.9249579","-076.2993822",NAVAL BASE,0.0984366985031162,0.000343711312976101,"0231",HAMPTON & STAFF COLLEGE,36.919734,-76.312223
"10","51","710","000901","51710000901","9.01",Census Tract,G5020,S,3398577,0,"+36.9249579","-076.2993822",NAVAL BASE,0.0984366985031162,0.000343711312976101,"0233",HAMPTON & BAKER,36.923317,-76.315957
"10","51","710","000901","51710000901","9.01",Census Tract,G5020,S,3398577,0,"+36.9249579","-076.2993822",NAVAL BASE,0.0984366985031162,0.000343711312976101,"5449",HAMPTON & HELMICK,36.925879,-76.31722
"11","51","710","000902","51710000902","9.02",Census Tract,G5020,S,17627459,8026430,"+36.9372397","-076.3092149","NAVAL BASE, SEWELLS POINT",0.367552649582729,0.00259478277450723,"0039",WARDS CORNER TRANSFER,36.917757,-76.272754
"11","51","710","000902","51710000902","9.02",Census Tract,G5020,S,17627459,8026430,"+36.9372397","-076.3092149","NAVAL BASE, SEWELLS POINT",0.367552649582729,0.00259478277450723,"0239",HAMMOND & ADMIRAL TAUSSIG,36.943201,-76.312152
"11","51","710","000902","51710000902","9.02",Census Tract,G5020,S,17627459,8026430,"+36.9372397","-076.3092149","NAVAL BASE, SEWELLS POINT",0.367552649582729,0.00259478277450723,"0240",HAMPTON & B,36.936992,-76.318637
"11","51","710","000902","51710000902","9.02",Census Tract,G5020,S,17627459,8026430,"+36.9372397","-076.3092149","NAVAL BASE, SEWELLS POINT",0.367552649582729,0.00259478277450723,"0243",HAMPTON & MAPLESHADE,36.930522,-76.318052
"11","51","710","000902","51710000902","9.02",Census Tract,G5020,S,17627459,8026430,"+36.9372397","-076.3092149","NAVAL BASE, SEWELLS POINT",0.367552649582729,0.00259478277450723,"0244",HAMPTON & BEECHWOOD,36.929452,-76.317979
"11","51","710","000902","51710000902","9.02",Census Tract,G5020,S,17627459,8026430,"+36.9372397","-076.3092149","NAVAL BASE, SEWELLS POINT",0.367552649582729,0.00259478277450723,"0245",HAMPTON & GLENDALE,36.927748,-76.317837
"11","51","710","000902","51710000902","9.02",Census Tract,G5020,S,17627459,8026430,"+36.9372397","-076.3092149","NAVAL BASE, SEWELLS POINT",0.367552649582729,0.00259478277450723,"0246",HAMPTON & HELMICK,36.925313,-76.317393
"11","51","710","000902","51710000902","9.02",Census Tract,G5020,S,17627459,8026430,"+36.9372397","-076.3092149","NAVAL BASE, SEWELLS POINT",0.367552649582729,0.00259478277450723,"0248",HAMPTON & BAKER,36.923785,-76.316641
"11","51","710","000902","51710000902","9.02",Census Tract,G5020,S,17627459,8026430,"+36.9372397","-076.3092149","NAVAL BASE, SEWELLS POINT",0.367552649582729,0.00259478277450723,"0250",HAMPTON & STAFF COLLEGE,36.918838,-76.311732
"11","51","710","000902","51710000902","9.02",Census Tract,G5020,S,17627459,8026430,"+36.9372397","-076.3092149","NAVAL BASE, SEWELLS POINT",0.367552649582729,0.00259478277450723,"2066",1ST VIEW & BAY,36.945197,-76.270407
"11","51","710","000902","51710000902","9.02",Census Tract,G5020,S,17627459,8026430,"+36.9372397","-076.3092149","NAVAL BASE, SEWELLS POINT",0.367552649582729,0.00259478277450723,"3774",GATE 4 NAVAL STATION,36.945231,-76.272542
"11","51","710","000902","51710000902","9.02",Census Tract,G5020,S,17627459,8026430,"+36.9372397","-076.3092149","NAVAL BASE, SEWELLS POINT",0.367552649582729,0.00259478277450723,"3891",VIRGINIA & GILBERT,36.947393,-76.322919
"11","51","710","000902","51710000902","9.02",Census Tract,G5020,S,17627459,8026430,"+36.9372397","-076.3092149","NAVAL BASE, SEWELLS POINT",0.367552649582729,0.00259478277450723,"3892",GILBERT & GALLEY,36.9475,-76.314491
"11","51","710","000902","51710000902","9.02",Census Tract,G5020,S,17627459,8026430,"+36.9372397","-076.3092149","NAVAL BASE, SEWELLS POINT",0.367552649582729,0.00259478277450723,"3893",GILBERT & BAINBRIDGE,36.947813,-76.307697
"11","51","710","000902","51710000902","9.02",Census Tract,G5020,S,17627459,8026430,"+36.9372397","-076.3092149","NAVAL BASE, SEWELLS POINT",0.367552649582729,0.00259478277450723,"5079",HAMPTON & TAUSSIG,36.941592,-76.318664
"11","51","710","000902","51710000902","9.02",Census Tract,G5020,S,17627459,8026430,"+36.9372397","-076.3092149","NAVAL BASE, SEWELLS POINT",0.367552649582729,0.00259478277450723,"5082",B & VIRGINIA,36.937312,-76.321285
"11","51","710","000902","51710000902","9.02",Census Tract,G5020,S,17627459,8026430,"+36.9372397","-076.3092149","NAVAL BASE, SEWELLS POINT",0.367552649582729,0.00259478277450723,"5085",DECATUR & GILBERT,36.946529,-76.328606
"11","51","710","000902","51710000902","9.02",Census Tract,G5020,S,17627459,8026430,"+36.9372397","-076.3092149","NAVAL BASE, SEWELLS POINT",0.367552649582729,0.00259478277450723,"5145",HAMPTON & B,36.938809,-76.318371
"11","51","710","000902","51710000902","9.02",Census Tract,G5020,S,17627459,8026430,"+36.9372397","-076.3092149","NAVAL BASE, SEWELLS POINT",0.367552649582729,0.00259478277450723,"5185",GILBERT & BACON,36.947358,-76.317263
"11","51","710","000902","51710000902","9.02",Census Tract,G5020,S,17627459,8026430,"+36.9372397","-076.3092149","NAVAL BASE, SEWELLS POINT",0.367552649582729,0.00259478277450723,"5920",1ST VIEW & RIDGEWELL,36.946452,-76.267542
"11","51","710","000902","51710000902","9.02",Census Tract,G5020,S,17627459,8026430,"+36.9372397","-076.3092149","NAVAL BASE, SEWELLS POINT",0.367552649582729,0.00259478277450723,"6051",HAMPTON & TAUSSIG,36.942136,-76.31906
"11","51","710","000902","51710000902","9.02",Census Tract,G5020,S,17627459,8026430,"+36.9372397","-076.3092149","NAVAL BASE, SEWELLS POINT",0.367552649582729,0.00259478277450723,"8851",GILBERT & FARRAGUT,36.947692,-76.310371
"11","51","710","000902","51710000902","9.02",Census Tract,G5020,S,17627459,8026430,"+36.9372397","-076.3092149","NAVAL BASE, SEWELLS POINT",0.367552649582729,0.00259478277450723,"8870",SECOND & A,36.938322,-76.325156
"11","51","710","000902","51710000902","9.02",Census Tract,G5020,S,17627459,8026430,"+36.9372397","-076.3092149","NAVAL BASE, SEWELLS POINT",0.367552649582729,0.00259478277450723,"8871",SECOND & ESCORT,36.939719,-76.325278
"12","51","710","001100","51710001100","11",Census Tract,G5020,S,660096,0,"+36.9296812","-076.3122741",GLENWOOD PARK,0.039400613195385,6.67621295864166e-05,"0235",HAMPTON & BEECHWOOD,36.929456,-76.317648
"13","51","710","001200","51710001200","12",Census Tract,G5020,S,2001429,1416159,"+36.9110890","-076.3051537","LOCHAVEN, MEADOWBROOK",0.106239159938007,0.000345570942229488,"0228",HAMPTON & HELENA,36.909809,-76.305531
"13","51","710","001200","51710001200","12",Census Tract,G5020,S,2001429,1416159,"+36.9110890","-076.3051537","LOCHAVEN, MEADOWBROOK",0.106239159938007,0.000345570942229488,"0230",HAMPTON & LITTLE CREEK,36.915454,-76.307612
"13","51","710","001200","51710001200","12",Census Tract,G5020,S,2001429,1416159,"+36.9110890","-076.3051537","LOCHAVEN, MEADOWBROOK",0.106239159938007,0.000345570942229488,"0252",HAMPTON & LITTLE CREEK,36.915778,-76.30843
"13","51","710","001200","51710001200","12",Census Tract,G5020,S,2001429,1416159,"+36.9110890","-076.3051537","LOCHAVEN, MEADOWBROOK",0.106239159938007,0.000345570942229488,"0253",HAMPTON & RUNNYMEDE,36.914414,-76.307211
"13","51","710","001200","51710001200","12",Census Tract,G5020,S,2001429,1416159,"+36.9110890","-076.3051537","LOCHAVEN, MEADOWBROOK",0.106239159938007,0.000345570942229488,"0254",HAMPTON & NORTH SHORE,36.910923,-76.30599
"13","51","710","001200","51710001200","12",Census Tract,G5020,S,2001429,1416159,"+36.9110890","-076.3051537","LOCHAVEN, MEADOWBROOK",0.106239159938007,0.000345570942229488,"0336",HAMPTON & RUNNYMEDE,36.913464,-76.306299
"13","51","710","001200","51710001200","12",Census Tract,G5020,S,2001429,1416159,"+36.9110890","-076.3051537","LOCHAVEN, MEADOWBROOK",0.106239159938007,0.000345570942229488,"0871",LITTLE CREEK & CORTLANDT,36.915749,-76.302155
"13","51","710","001200","51710001200","12",Census Tract,G5020,S,2001429,1416159,"+36.9110890","-076.3051537","LOCHAVEN, MEADOWBROOK",0.106239159938007,0.000345570942229488,"0872",LITTLE CREEK & ENFIELD,36.916003,-76.2978
"13","51","710","001200","51710001200","12",Census Tract,G5020,S,2001429,1416159,"+36.9110890","-076.3051537","LOCHAVEN, MEADOWBROOK",0.106239159938007,0.000345570942229488,"0974",LITTLE CREEK & ENFIELD,36.916144,-76.298022
"13","51","710","001200","51710001200","12",Census Tract,G5020,S,2001429,1416159,"+36.9110890","-076.3051537","LOCHAVEN, MEADOWBROOK",0.106239159938007,0.000345570942229488,"0976",LITTLE CREEK & CORTLANDT,36.915842,-76.302377
"13","51","710","001200","51710001200","12",Census Tract,G5020,S,2001429,1416159,"+36.9110890","-076.3051537","LOCHAVEN, MEADOWBROOK",0.106239159938007,0.000345570942229488,"0978",LITTLE CREEK & HAMPTON,36.916111,-76.306706
"13","51","710","001200","51710001200","12",Census Tract,G5020,S,2001429,1416159,"+36.9110890","-076.3051537","LOCHAVEN, MEADOWBROOK",0.106239159938007,0.000345570942229488,"3874",LITTLE CREEK & SHIRLAND,36.915875,-76.304897
"14","51","710","001300","51710001300","13",Census Tract,G5020,S,655895,0,"+36.9178174","-076.2803592",SUSSEX,0.0388515786690604,6.63272330445575e-05,"0169",GRANBY & LITTLE CREEK,36.915456,-76.272758
"14","51","710","001300","51710001300","13",Census Tract,G5020,S,655895,0,"+36.9178174","-076.2803592",SUSSEX,0.0388515786690604,6.63272330445575e-05,"0966",LITTLE CREEK & VICTORY,36.915167,-76.275839
"14","51","710","001300","51710001300","13",Census Tract,G5020,S,655895,0,"+36.9178174","-076.2803592",SUSSEX,0.0388515786690604,6.63272330445575e-05,"0967",LITTLE CREEK & NEWPORT,36.915622,-76.279867
"14","51","710","001300","51710001300","13",Census Tract,G5020,S,655895,0,"+36.9178174","-076.2803592",SUSSEX,0.0388515786690604,6.63272330445575e-05,"0969",LITTLE CREEK & RUTHVEN,36.916166,-76.285737
"14","51","710","001300","51710001300","13",Census Tract,G5020,S,655895,0,"+36.9178174","-076.2803592",SUSSEX,0.0388515786690604,6.63272330445575e-05,"0970",LITTLE CREEK & GRANTHAM,36.916265,-76.287891
"15","51","710","001400","51710001400","14",Census Tract,G5020,S,1359451,43015,"+36.9080035","-076.2679909",WARDS CORNER,0.0520453609345234,0.000141805750441112,"0034",GRANBY & FORSYTHE,36.906911,-76.275806
"15","51","710","001400","51710001400","14",Census Tract,G5020,S,1359451,43015,"+36.9080035","-076.2679909",WARDS CORNER,0.0520453609345234,0.000141805750441112,"0036",GRANBY & FIFE,36.90864,-76.275082
"15","51","710","001400","51710001400","14",Census Tract,G5020,S,1359451,43015,"+36.9080035","-076.2679909",WARDS CORNER,0.0520453609345234,0.000141805750441112,"0037",GRANBY & SUBURBAN,36.91231,-76.273488
"16","51","710","001500","51710001500","15",Census Tract,G5020,S,861348,91921,"+36.9134612","-076.2844792",COLONY POINT,0.0494961743854709,9.63927603890663e-05,"0170",GRANBY & NORTH SHORE,36.912501,-76.273809
"16","51","710","001500","51710001500","15",Census Tract,G5020,S,861348,91921,"+36.9134612","-076.2844792",COLONY POINT,0.0494961743854709,9.63927603890663e-05,"0876",LITTLE CREEK & ARMFIELD,36.916095,-76.290152
"16","51","710","001500","51710001500","15",Census Tract,G5020,S,861348,91921,"+36.9134612","-076.2844792",COLONY POINT,0.0494961743854709,9.63927603890663e-05,"0877",LITTLE CREEK & RUTHVEN,36.916,-76.285358
"16","51","710","001500","51710001500","15",Census Tract,G5020,S,861348,91921,"+36.9134612","-076.2844792",COLONY POINT,0.0494961743854709,9.63927603890663e-05,"0878",LITTLE CREEK & SHERYL,36.915584,-76.281386
"16","51","710","001500","51710001500","15",Census Tract,G5020,S,861348,91921,"+36.9134612","-076.2844792",COLONY POINT,0.0494961743854709,9.63927603890663e-05,"0881",LITTLE CREEK & COLONIAL,36.914919,-76.274783
"17","51","710","001600","51710001600","16",Census Tract,G5020,S,501432,8666,"+36.9129440","-076.2950247",TITUSTOWN,0.0457540164919128,5.15825849855248e-05,"0873",LITTLE CREEK & TAPLEY,36.91602,-76.295806
"17","51","710","001600","51710001600","16",Census Tract,G5020,S,501432,8666,"+36.9129440","-076.2950247",TITUSTOWN,0.0457540164919128,5.15825849855248e-05,"0874",LITTLE CREEK & DIVEN,36.916057,-76.293735
"17","51","710","001600","51710001600","16",Census Tract,G5020,S,501432,8666,"+36.9129440","-076.2950247",TITUSTOWN,0.0457540164919128,5.15825849855248e-05,"0971",LITTLE CREEK & MOUNT PLEASANT,36.916229,-76.29201
"17","51","710","001600","51710001600","16",Census Tract,G5020,S,501432,8666,"+36.9129440","-076.2950247",TITUSTOWN,0.0457540164919128,5.15825849855248e-05,"0972",LITTLE CREEK & DIVEN,36.916207,-76.293657
"17","51","710","001600","51710001600","16",Census Tract,G5020,S,501432,8666,"+36.9129440","-076.2950247",TITUSTOWN,0.0457540164919128,5.15825849855248e-05,"3881",LITTLE CREEK & ARMFIELD,36.916309,-76.290113
"18","51","710","001700","51710001700","17",Census Tract,G5020,S,1066503,252185,"+36.9050782","-076.2826278",TALBOT PARK,0.0517573866078358,0.000133330351316779,"0171",GRANBY & WARREN,36.908965,-76.275313
"18","51","710","001700","51710001700","17",Census Tract,G5020,S,1066503,252185,"+36.9050782","-076.2826278",TALBOT PARK,0.0517573866078358,0.000133330351316779,"0173",GRANBY & OXFORD,36.905869,-76.276686
"18","51","710","001700","51710001700","17",Census Tract,G5020,S,1066503,252185,"+36.9050782","-076.2826278",TALBOT PARK,0.0517573866078358,0.000133330351316779,"0175",GRANBY & CARLISLE,36.902626,-76.278048
"18","51","710","001700","51710001700","17",Census Tract,G5020,S,1066503,252185,"+36.9050782","-076.2826278",TALBOT PARK,0.0517573866078358,0.000133330351316779,"0177",GRANBY & WHITING,36.900507,-76.278963
"18","51","710","001700","51710001700","17",Census Tract,G5020,S,1066503,252185,"+36.9050782","-076.2826278",TALBOT PARK,0.0517573866078358,0.000133330351316779,"0178",GRANBY & KINGSLEY,36.897975,-76.279961
"19","51","710","002000","51710002000","20",Census Tract,G5020,S,922706,263931,"+36.8966314","-076.2604123",ROLAND PARK,0.053302000852388,0.000119966077243503,"0587",TIDEWATER & WAUKESHA,36.893907,-76.257447
"19","51","710","002000","51710002000","20",Census Tract,G5020,S,922706,263931,"+36.8966314","-076.2604123",ROLAND PARK,0.053302000852388,0.000119966077243503,"5743",TIDEWATER & WAUKESHA,36.894867,-76.257025
"20","51","710","002100","51710002100","21",Census Tract,G5020,S,1305366,515718,"+36.8892141","-076.2688749",LAKEWOOD,0.0582287157879663,0.000184089049902521,"0589",TIDEWATER & NORVIEW,36.890835,-76.25868
"20","51","710","002100","51710002100","21",Census Tract,G5020,S,1305366,515718,"+36.8892141","-076.2688749",LAKEWOOD,0.0582287157879663,0.000184089049902521,"0590",TIDEWATER & WILLOWWOOD,36.887734,-76.25988
"20","51","710","002100","51710002100","21",Census Tract,G5020,S,1305366,515718,"+36.8892141","-076.2688749",LAKEWOOD,0.0582287157879663,0.000184089049902521,"0591",TIDEWATER & BAPAUME,36.885469,-76.26065
"21","51","710","002200","51710002200","22",Census Tract,G5020,S,1486455,883212,"+36.8967187","-076.2806643","RIVERPOINT, BELVEDERE",0.0777827446529577,0.00023956758358723,"0027",GRANBY & WILLOW WOOD,36.891013,-76.278763
"21","51","710","002200","51710002200","22",Census Tract,G5020,S,1486455,883212,"+36.8967187","-076.2806643","RIVERPOINT, BELVEDERE",0.0777827446529577,0.00023956758358723,"0028",GRANBY & SEVERN,36.894237,-76.278976
"21","51","710","002200","51710002200","22",Census Tract,G5020,S,1486455,883212,"+36.8967187","-076.2806643","RIVERPOINT, BELVEDERE",0.0777827446529577,0.00023956758358723,"0030",GRANBY & KINGSLEY,36.897633,-76.279555
"21","51","710","002200","51710002200","22",Census Tract,G5020,S,1486455,883212,"+36.8967187","-076.2806643","RIVERPOINT, BELVEDERE",0.0777827446529577,0.00023956758358723,"0031",GRANBY & DUMONT,36.900284,-76.278722
"21","51","710","002200","51710002200","22",Census Tract,G5020,S,1486455,883212,"+36.8967187","-076.2806643","RIVERPOINT, BELVEDERE",0.0777827446529577,0.00023956758358723,"0032",GRANBY & SIR OLIVER,36.902341,-76.27782
"21","51","710","002200","51710002200","22",Census Tract,G5020,S,1486455,883212,"+36.8967187","-076.2806643","RIVERPOINT, BELVEDERE",0.0777827446529577,0.00023956758358723,"0033",GRANBY & SEEKEL,36.905483,-76.276433
"21","51","710","002200","51710002200","22",Census Tract,G5020,S,1486455,883212,"+36.8967187","-076.2806643","RIVERPOINT, BELVEDERE",0.0777827446529577,0.00023956758358723,"0180",GRANBY & SEVERN,36.894418,-76.279333
"21","51","710","002200","51710002200","22",Census Tract,G5020,S,1486455,883212,"+36.8967187","-076.2806643","RIVERPOINT, BELVEDERE",0.0777827446529577,0.00023956758358723,"0181",GRANBY & WILLOW WOOD,36.890773,-76.279176
"22","51","710","002300","51710002300","23",Census Tract,G5020,S,949911,614759,"+36.8977324","-076.2976672",LARCHMONT,0.0539350894248151,0.000158185651958728,"0222",HAMPTON & BOLLING,36.891063,-76.30373
"22","51","710","002300","51710002300","23",Census Tract,G5020,S,949911,614759,"+36.8977324","-076.2976672",LARCHMONT,0.0539350894248151,0.000158185651958728,"0223",HAMPTON & ROCKBRIDGE,36.894709,-76.303064
"22","51","710","002300","51710002300","23",Census Tract,G5020,S,949911,614759,"+36.8977324","-076.2976672",LARCHMONT,0.0539350894248151,0.000158185651958728,"0225",HAMPTON & SURRY,36.896514,-76.302741
"22","51","710","002300","51710002300","23",Census Tract,G5020,S,949911,614759,"+36.8977324","-076.2976672",LARCHMONT,0.0539350894248151,0.000158185651958728,"0226",HAMPTON & LEXAN,36.900283,-76.303237
"22","51","710","002300","51710002300","23",Census Tract,G5020,S,949911,614759,"+36.8977324","-076.2976672",LARCHMONT,0.0539350894248151,0.000158185651958728,"0227",HAMPTON & ESCADRILLE,36.902286,-76.303851
"23","51","710","002400","51710002400","24",Census Tract,G5020,S,1463332,2333983,"+36.8974493","-076.3136903",EDGEWATER,0.0805810479538151,0.000383894213205773,"0256",HAMPTON & LEXAN,36.900529,-76.303656
"23","51","710","002400","51710002400","24",Census Tract,G5020,S,1463332,2333983,"+36.8974493","-076.3136903",EDGEWATER,0.0805810479538151,0.000383894213205773,"0258",HAMPTON & SURREY,36.896117,-76.303021
"23","51","710","002400","51710002400","24",Census Tract,G5020,S,1463332,2333983,"+36.8974493","-076.3136903",EDGEWATER,0.0805810479538151,0.000383894213205773,"0259",HAMPTON & ROCKBRIDGE,36.894748,-76.303373
"24","51","710","002500","51710002500","25",Census Tract,G5020,S,1392465,40067,"+36.8821639","-076.3067789","LAMBERT'S POINT, ODU",0.0650770614972724,0.000144798307950611,"0218",HAMPTON & 41ST,36.882399,-76.302209
"24","51","710","002500","51710002500","25",Census Tract,G5020,S,1392465,40067,"+36.8821639","-076.3067789","LAMBERT'S POINT, ODU",0.0650770614972724,0.000144798307950611,"0261",HAMPTON & BOLLING,36.890844,-76.303932
"24","51","710","002500","51710002500","25",Census Tract,G5020,S,1392465,40067,"+36.8821639","-076.3067789","LAMBERT'S POINT, ODU",0.0650770614972724,0.000144798307950611,"0264",HAMPTON & 45TH,36.88464,-76.302588
"24","51","710","002500","51710002500","25",Census Tract,G5020,S,1392465,40067,"+36.8821639","-076.3067789","LAMBERT'S POINT, ODU",0.0650770614972724,0.000144798307950611,"0266",HAMPTON & 41ST,36.881588,-76.302397
"24","51","710","002500","51710002500","25",Census Tract,G5020,S,1392465,40067,"+36.8821639","-076.3067789","LAMBERT'S POINT, ODU",0.0650770614972724,0.000144798307950611,"0267",HAMPTON & 25TH,36.875673,-76.301959
"24","51","710","002500","51710002500","25",Census Tract,G5020,S,1392465,40067,"+36.8821639","-076.3067789","LAMBERT'S POINT, ODU",0.0650770614972724,0.000144798307950611,"0421",38TH & BLUESTONE,36.879632,-76.30537
"24","51","710","002500","51710002500","25",Census Tract,G5020,S,1392465,40067,"+36.8821639","-076.3067789","LAMBERT'S POINT, ODU",0.0650770614972724,0.000144798307950611,"0441",38TH & BOWDENS FERRY,36.879565,-76.30347
"24","51","710","002500","51710002500","25",Census Tract,G5020,S,1392465,40067,"+36.8821639","-076.3067789","LAMBERT'S POINT, ODU",0.0650770614972724,0.000144798307950611,"1911",HAMPTON & 37TH,36.878835,-76.302135
"24","51","710","002500","51710002500","25",Census Tract,G5020,S,1392465,40067,"+36.8821639","-076.3067789","LAMBERT'S POINT, ODU",0.0650770614972724,0.000144798307950611,"3784",38TH & HAMPTON,36.879698,-76.303212
"24","51","710","002500","51710002500","25",Census Tract,G5020,S,1392465,40067,"+36.8821639","-076.3067789","LAMBERT'S POINT, ODU",0.0650770614972724,0.000144798307950611,"5668",ELKHORN & 39TH,36.880048,-76.307885
"24","51","710","002500","51710002500","25",Census Tract,G5020,S,1392465,40067,"+36.8821639","-076.3067789","LAMBERT'S POINT, ODU",0.0650770614972724,0.000144798307950611,"5669",ELKHORN & 41ST,36.881919,-76.307999
"24","51","710","002500","51710002500","25",Census Tract,G5020,S,1392465,40067,"+36.8821639","-076.3067789","LAMBERT'S POINT, ODU",0.0650770614972724,0.000144798307950611,"5670",ELKHORN & 39TH,36.880243,-76.307769
"24","51","710","002500","51710002500","25",Census Tract,G5020,S,1392465,40067,"+36.8821639","-076.3067789","LAMBERT'S POINT, ODU",0.0650770614972724,0.000144798307950611,"5671",ELKHORN & 42ND,36.882407,-76.307881
"24","51","710","002500","51710002500","25",Census Tract,G5020,S,1392465,40067,"+36.8821639","-076.3067789","LAMBERT'S POINT, ODU",0.0650770614972724,0.000144798307950611,"5828",HAMPTON & 49TH,36.88889,-76.303059
"24","51","710","002500","51710002500","25",Census Tract,G5020,S,1392465,40067,"+36.8821639","-076.3067789","LAMBERT'S POINT, ODU",0.0650770614972724,0.000144798307950611,"5835",43RD & BOWDENS FERRY,36.883328,-76.305002
"24","51","710","002500","51710002500","25",Census Tract,G5020,S,1392465,40067,"+36.8821639","-076.3067789","LAMBERT'S POINT, ODU",0.0650770614972724,0.000144798307950611,"9143",38TH & BLUESTONE,36.879496,-76.304912
"24","51","710","002500","51710002500","25",Census Tract,G5020,S,1392465,40067,"+36.8821639","-076.3067789","LAMBERT'S POINT, ODU",0.0650770614972724,0.000144798307950611,"9145",49TH & QUARANTINE,36.887489,-76.307644
"24","51","710","002500","51710002500","25",Census Tract,G5020,S,1392465,40067,"+36.8821639","-076.3067789","LAMBERT'S POINT, ODU",0.0650770614972724,0.000144798307950611,"9158",POWHATAN & 46TH,36.885821,-76.312565
"25","51","710","002600","51710002600","26",Census Tract,G5020,S,848899,167670,"+36.8860879","-076.2966307",NORTH COLLEY,0.048713885757905,0.000102757873481904,"0219",HAMPTON & 45TH,36.884223,-76.302219
"25","51","710","002600","51710002600","26",Census Tract,G5020,S,848899,167670,"+36.8860879","-076.2966307",NORTH COLLEY,0.048713885757905,0.000102757873481904,"0221",HAMPTON & 49TH,36.887224,-76.302407
"25","51","710","002600","51710002600","26",Census Tract,G5020,S,848899,167670,"+36.8860879","-076.2966307",NORTH COLLEY,0.048713885757905,0.000102757873481904,"3785",HAMPTON & SHELL STATION,36.888639,-76.302658
"25","51","710","002600","51710002600","26",Census Tract,G5020,S,848899,167670,"+36.8860879","-076.2966307",NORTH COLLEY,0.048713885757905,0.000102757873481904,"6056",38th & KELLAM,36.879932,-76.298464
"26","51","710","002700","51710002700","27",Census Tract,G5020,S,993401,0,"+36.8762031","-076.2949722",PARK PLACE (WEST),0.041513037438292,0.000100403199120939,"0214",HAMPTON & 27TH,36.877004,-76.30189
"26","51","710","002700","51710002700","27",Census Tract,G5020,S,993401,0,"+36.8762031","-076.2949722",PARK PLACE (WEST),0.041513037438292,0.000100403199120939,"0216",HAMPTON & 37TH,36.878321,-76.301975
"26","51","710","002700","51710002700","27",Census Tract,G5020,S,993401,0,"+36.8762031","-076.2949722",PARK PLACE (WEST),0.041513037438292,0.000100403199120939,"0427",COLLEY & 35TH,36.878046,-76.294852
"26","51","710","002700","51710002700","27",Census Tract,G5020,S,993401,0,"+36.8762031","-076.2949722",PARK PLACE (WEST),0.041513037438292,0.000100403199120939,"0428",COLLEY & 26TH,36.87458,-76.295312
"26","51","710","002700","51710002700","27",Census Tract,G5020,S,993401,0,"+36.8762031","-076.2949722",PARK PLACE (WEST),0.041513037438292,0.000100403199120939,"0435",COLLEY & 26TH,36.874054,-76.295021
"26","51","710","002700","51710002700","27",Census Tract,G5020,S,993401,0,"+36.8762031","-076.2949722",PARK PLACE (WEST),0.041513037438292,0.000100403199120939,"0437",COLLEY & 35TH,36.878106,-76.294728
"26","51","710","002700","51710002700","27",Census Tract,G5020,S,993401,0,"+36.8762031","-076.2949722",PARK PLACE (WEST),0.041513037438292,0.000100403199120939,"0732",NEWPORT & 37TH,36.879354,-76.290423
"26","51","710","002700","51710002700","27",Census Tract,G5020,S,993401,0,"+36.8762031","-076.2949722",PARK PLACE (WEST),0.041513037438292,0.000100403199120939,"0745",NEWPORT & 37TH,36.879605,-76.290605
"26","51","710","002700","51710002700","27",Census Tract,G5020,S,993401,0,"+36.8762031","-076.2949722",PARK PLACE (WEST),0.041513037438292,0.000100403199120939,"0747",NEWPORT & 35TH,36.878414,-76.290525
"26","51","710","002700","51710002700","27",Census Tract,G5020,S,993401,0,"+36.8762031","-076.2949722",PARK PLACE (WEST),0.041513037438292,0.000100403199120939,"0748",35TH & COLONIAL,36.878109,-76.28869
"26","51","710","002700","51710002700","27",Census Tract,G5020,S,993401,0,"+36.8762031","-076.2949722",PARK PLACE (WEST),0.041513037438292,0.000100403199120939,"0750",COLONIAL & 30TH,36.875375,-76.289076
"26","51","710","002700","51710002700","27",Census Tract,G5020,S,993401,0,"+36.8762031","-076.2949722",PARK PLACE (WEST),0.041513037438292,0.000100403199120939,"0751",COLONIAL & 26TH,36.873028,-76.290161
"26","51","710","002700","51710002700","27",Census Tract,G5020,S,993401,0,"+36.8762031","-076.2949722",PARK PLACE (WEST),0.041513037438292,0.000100403199120939,"6055",38TH & KILLAM,36.879832,-76.297869
"27","51","710","002800","51710002800","28",Census Tract,G5020,S,1307959,369370,"+36.8859436","-076.2847893","COLONIAL PLACE, RIVERVIEW",0.0562660045132207,0.000169548171243956,"0023",GRANBY & DELAWARE,36.88285,-76.281593
"27","51","710","002800","51710002800","28",Census Tract,G5020,S,1307959,369370,"+36.8859436","-076.2847893","COLONIAL PLACE, RIVERVIEW",0.0562660045132207,0.000169548171243956,"0024",GRANBY & 42ND,36.884642,-76.2813
"27","51","710","002800","51710002800","28",Census Tract,G5020,S,1307959,369370,"+36.8859436","-076.2847893","COLONIAL PLACE, RIVERVIEW",0.0562660045132207,0.000169548171243956,"0182",GRANBY & CONNECTICUT,36.885585,-76.281396
"27","51","710","002800","51710002800","28",Census Tract,G5020,S,1307959,369370,"+36.8859436","-076.2847893","COLONIAL PLACE, RIVERVIEW",0.0562660045132207,0.000169548171243956,"0733",NEWPORT & GEORGIA,36.880631,-76.290204
"27","51","710","002800","51710002800","28",Census Tract,G5020,S,1307959,369370,"+36.8859436","-076.2847893","COLONIAL PLACE, RIVERVIEW",0.0562660045132207,0.000169548171243956,"0735",NEWPORT & PENNSYLVANIA,36.883614,-76.289212
"27","51","710","002800","51710002800","28",Census Tract,G5020,S,1307959,369370,"+36.8859436","-076.2847893","COLONIAL PLACE, RIVERVIEW",0.0562660045132207,0.000169548171243956,"0737",NEWPORT & CONNECTICUT,36.886587,-76.288153
"27","51","710","002800","51710002800","28",Census Tract,G5020,S,1307959,369370,"+36.8859436","-076.2847893","COLONIAL PLACE, RIVERVIEW",0.0562660045132207,0.000169548171243956,"0741",NEWPORT & PENNSYLVANIA,36.883808,-76.289277
"27","51","710","002800","51710002800","28",Census Tract,G5020,S,1307959,369370,"+36.8859436","-076.2847893","COLONIAL PLACE, RIVERVIEW",0.0562660045132207,0.000169548171243956,"0743",NEWPORT & VIRGINIA,36.882312,-76.289775
"27","51","710","002800","51710002800","28",Census Tract,G5020,S,1307959,369370,"+36.8859436","-076.2847893","COLONIAL PLACE, RIVERVIEW",0.0562660045132207,0.000169548171243956,"0744",NEWPORT & GEORGIA,36.880838,-76.29028
"27","51","710","002800","51710002800","28",Census Tract,G5020,S,1307959,369370,"+36.8859436","-076.2847893","COLONIAL PLACE, RIVERVIEW",0.0562660045132207,0.000169548171243956,"0928",GRANBY & DELAWARE,36.882776,-76.28184
"27","51","710","002800","51710002800","28",Census Tract,G5020,S,1307959,369370,"+36.8859436","-076.2847893","COLONIAL PLACE, RIVERVIEW",0.0562660045132207,0.000169548171243956,"9185",NEWPORT & RHODE ISLAND,36.88765,-76.288284
"28","51","710","002900","51710002900","29",Census Tract,G5020,S,1788621,133407,"+36.8753822","-076.2796559",PARK PLACE (EAST),0.0584311668610882,0.000194256536659438,"0017",26TH & ARMISTEAD,36.870387,-76.281573
"28","51","710","002900","51710002900","29",Census Tract,G5020,S,1788621,133407,"+36.8753822","-076.2796559",PARK PLACE (EAST),0.0584311668610882,0.000194256536659438,"0018",MONTICELLO & 29TH,36.872931,-76.28137
"28","51","710","002900","51710002900","29",Census Tract,G5020,S,1788621,133407,"+36.8753822","-076.2796559",PARK PLACE (EAST),0.0584311668610882,0.000194256536659438,"0020",GRANBY & 33RD,36.877198,-76.281799
"28","51","710","002900","51710002900","29",Census Tract,G5020,S,1788621,133407,"+36.8753822","-076.2796559",PARK PLACE (EAST),0.0584311668610882,0.000194256536659438,"0022",GRANBY & 38TH,36.88036,-76.281989
"28","51","710","002900","51710002900","29",Census Tract,G5020,S,1788621,133407,"+36.8753822","-076.2796559",PARK PLACE (EAST),0.0584311668610882,0.000194256536659438,"0184",GRANBY & 35TH,36.878784,-76.282172
"28","51","710","002900","51710002900","29",Census Tract,G5020,S,1788621,133407,"+36.8753822","-076.2796559",PARK PLACE (EAST),0.0584311668610882,0.000194256536659438,"0186",MONTICELLO & 29th,36.872814,-76.281576
"28","51","710","002900","51710002900","29",Census Tract,G5020,S,1788621,133407,"+36.8753822","-076.2796559",PARK PLACE (EAST),0.0584311668610882,0.000194256536659438,"0188",MONTICELLO & 25TH,36.870127,-76.282805
"28","51","710","002900","51710002900","29",Census Tract,G5020,S,1788621,133407,"+36.8753822","-076.2796559",PARK PLACE (EAST),0.0584311668610882,0.000194256536659438,"0286",26TH & GAZEL,36.87033,-76.277747
"28","51","710","002900","51710002900","29",Census Tract,G5020,S,1788621,133407,"+36.8753822","-076.2796559",PARK PLACE (EAST),0.0584311668610882,0.000194256536659438,"0289",26TH & WAVERLY,36.87215,-76.274518
"28","51","710","002900","51710002900","29",Census Tract,G5020,S,1788621,133407,"+36.8753822","-076.2796559",PARK PLACE (EAST),0.0584311668610882,0.000194256536659438,"0387",27TH & LEO,36.871449,-76.276587
"28","51","710","002900","51710002900","29",Census Tract,G5020,S,1788621,133407,"+36.8753822","-076.2796559",PARK PLACE (EAST),0.0584311668610882,0.000194256536659438,"0389",27TH & FAWN,36.871084,-76.278984
"28","51","710","002900","51710002900","29",Census Tract,G5020,S,1788621,133407,"+36.8753822","-076.2796559",PARK PLACE (EAST),0.0584311668610882,0.000194256536659438,"0390",MONTICELLO & 26TH,36.871024,-76.282198
"28","51","710","002900","51710002900","29",Census Tract,G5020,S,1788621,133407,"+36.8753822","-076.2796559",PARK PLACE (EAST),0.0584311668610882,0.000194256536659438,"0728",COLONIAL & 29TH,36.874915,-76.289161
"28","51","710","002900","51710002900","29",Census Tract,G5020,S,1788621,133407,"+36.8753822","-076.2796559",PARK PLACE (EAST),0.0584311668610882,0.000194256536659438,"0730",COLONIAL & 31ST,36.876319,-76.288553
"28","51","710","002900","51710002900","29",Census Tract,G5020,S,1788621,133407,"+36.8753822","-076.2796559",PARK PLACE (EAST),0.0584311668610882,0.000194256536659438,"0731",COLONIAL & 35TH,36.87803,-76.288434
"28","51","710","002900","51710002900","29",Census Tract,G5020,S,1788621,133407,"+36.8753822","-076.2796559",PARK PLACE (EAST),0.0584311668610882,0.000194256536659438,"0757",COLONIAL & 26TH,36.872691,-76.290121
"28","51","710","002900","51710002900","29",Census Tract,G5020,S,1788621,133407,"+36.8753822","-076.2796559",PARK PLACE (EAST),0.0584311668610882,0.000194256536659438,"3804",26TH & WAVERLY,36.872202,-76.274751
"29","51","710","003000","51710003000","30",Census Tract,G5020,S,983283,234814,"+36.8771858","-076.2693396","LAFAYETTE, WINONA",0.0505461702517192,0.000123115985471152,"0290",LAFAYETTE & DUPONT,36.874331,-76.270783
"29","51","710","003000","51710003000","30",Census Tract,G5020,S,983283,234814,"+36.8771858","-076.2693396","LAFAYETTE, WINONA",0.0505461702517192,0.000123115985471152,"0292",LAFAYETTE & BELLEVUE,36.877658,-76.267118
"29","51","710","003000","51710003000","30",Census Tract,G5020,S,983283,234814,"+36.8771858","-076.2693396","LAFAYETTE, WINONA",0.0505461702517192,0.000123115985471152,"0293",LAFAYETTE & LORRAINE,36.877956,-76.265194
"29","51","710","003000","51710003000","30",Census Tract,G5020,S,983283,234814,"+36.8771858","-076.2693396","LAFAYETTE, WINONA",0.0505461702517192,0.000123115985471152,"0380",LAFAYETTE & TIDEWATER,36.877853,-76.263999
"29","51","710","003000","51710003000","30",Census Tract,G5020,S,983283,234814,"+36.8771858","-076.2693396","LAFAYETTE, WINONA",0.0505461702517192,0.000123115985471152,"0382",LAFAYETTE & VERSAILLES,36.877433,-76.267444
"29","51","710","003000","51710003000","30",Census Tract,G5020,S,983283,234814,"+36.8771858","-076.2693396","LAFAYETTE, WINONA",0.0505461702517192,0.000123115985471152,"0384",LAFAYETTE & ORLEANS,36.875135,-76.269593
"29","51","710","003000","51710003000","30",Census Tract,G5020,S,983283,234814,"+36.8771858","-076.2693396","LAFAYETTE, WINONA",0.0505461702517192,0.000123115985471152,"0593",TIDEWATER & CLARK,36.880042,-76.262669
"29","51","710","003000","51710003000","30",Census Tract,G5020,S,983283,234814,"+36.8771858","-076.2693396","LAFAYETTE, WINONA",0.0505461702517192,0.000123115985471152,"0594",TIDEWATER & LAFAYETTE,36.877158,-76.263876
"29","51","710","003000","51710003000","30",Census Tract,G5020,S,983283,234814,"+36.8771858","-076.2693396","LAFAYETTE, WINONA",0.0505461702517192,0.000123115985471152,"0595",TIDEWATER & BELLEVUE,36.875873,-76.264335
"29","51","710","003000","51710003000","30",Census Tract,G5020,S,983283,234814,"+36.8771858","-076.2693396","LAFAYETTE, WINONA",0.0505461702517192,0.000123115985471152,"0597",TIDEWATER & SHOOP,36.872274,-76.265649
"29","51","710","003000","51710003000","30",Census Tract,G5020,S,983283,234814,"+36.8771858","-076.2693396","LAFAYETTE, WINONA",0.0505461702517192,0.000123115985471152,"0598",TIDEWATER & HANCOCK,36.870509,-76.266423
"30","51","710","003100","51710003100","31",Census Tract,G5020,S,1131579,17251,"+36.8818878","-076.2568749",FAIRMOUNT PARK,0.0465176920738658,0.000116121365328534,"0375",LAFAYETTE & MARNE,36.875598,-76.254833
"30","51","710","003100","51710003100","31",Census Tract,G5020,S,1131579,17251,"+36.8818878","-076.2568749",FAIRMOUNT PARK,0.0465176920738658,0.000116121365328534,"0376",LAFAYETTE & LENS,36.875963,-76.256401
"30","51","710","003100","51710003100","31",Census Tract,G5020,S,1131579,17251,"+36.8818878","-076.2568749",FAIRMOUNT PARK,0.0465176920738658,0.000116121365328534,"0377",LAFAYETTE & BREST,36.876561,-76.258824
"30","51","710","003100","51710003100","31",Census Tract,G5020,S,1131579,17251,"+36.8818878","-076.2568749",FAIRMOUNT PARK,0.0465176920738658,0.000116121365328534,"0378",LAFAYETTE & DUNKIRK,36.877082,-76.260876
"30","51","710","003100","51710003100","31",Census Tract,G5020,S,1131579,17251,"+36.8818878","-076.2568749",FAIRMOUNT PARK,0.0465176920738658,0.000116121365328534,"0533",TIDEWATER & LAFAYETTE,36.878115,-76.263271
"30","51","710","003100","51710003100","31",Census Tract,G5020,S,1131579,17251,"+36.8818878","-076.2568749",FAIRMOUNT PARK,0.0465176920738658,0.000116121365328534,"0535",TIDEWATER & COLUMBIA,36.881444,-76.261975
"30","51","710","003100","51710003100","31",Census Tract,G5020,S,1131579,17251,"+36.8818878","-076.2568749",FAIRMOUNT PARK,0.0465176920738658,0.000116121365328534,"0536",TIDEWATER & CROMWELL,36.885622,-76.260391
"30","51","710","003100","51710003100","31",Census Tract,G5020,S,1131579,17251,"+36.8818878","-076.2568749",FAIRMOUNT PARK,0.0465176920738658,0.000116121365328534,"0537",TIDEWATER & WILLOW WOOD,36.887951,-76.259597
"30","51","710","003100","51710003100","31",Census Tract,G5020,S,1131579,17251,"+36.8818878","-076.2568749",FAIRMOUNT PARK,0.0465176920738658,0.000116121365328534,"0538",TIDEWATER & NORVIEW,36.891005,-76.25832
"31","51","710","003200","51710003200","32",Census Tract,G5020,S,861644,25884,"+36.8715165","-076.2613186",SHOOP PARK AREA,0.0410851007968211,8.96982596020386e-05,"0297",LAFAYETTE & BAPAUME,36.876813,-76.260329
"31","51","710","003200","51710003200","32",Census Tract,G5020,S,861644,25884,"+36.8715165","-076.2613186",SHOOP PARK AREA,0.0410851007968211,8.96982596020386e-05,"0528",TIDEWATER & HANCOCK,36.870496,-76.266187
"31","51","710","003200","51710003200","32",Census Tract,G5020,S,861644,25884,"+36.8715165","-076.2613186",SHOOP PARK AREA,0.0410851007968211,8.96982596020386e-05,"0529",TIDEWATER & SHOOP,36.871971,-76.265554
"31","51","710","003200","51710003200","32",Census Tract,G5020,S,861644,25884,"+36.8715165","-076.2613186",SHOOP PARK AREA,0.0410851007968211,8.96982596020386e-05,"0530",TIDEWATER & SAINT DENIS,36.874658,-76.264607
"31","51","710","003200","51710003200","32",Census Tract,G5020,S,861644,25884,"+36.8715165","-076.2613186",SHOOP PARK AREA,0.0410851007968211,8.96982596020386e-05,"2041",LAFAYETTE & LENS,36.875944,-76.256755
"32","51","710","003300","51710003300","33",Census Tract,G5020,S,1285596,3978,"+36.8664554","-076.2535781",BALLENTINE PLACE,0.0521873540337383,0.000130322156642348,"0300",CHESAPEAKE & CROMWELL,36.875535,-76.252477
"32","51","710","003300","51710003300","33",Census Tract,G5020,S,1285596,3978,"+36.8664554","-076.2535781",BALLENTINE PLACE,0.0521873540337383,0.000130322156642348,"0988",BALLENTINE & PETERSON,36.87143,-76.25256
"32","51","710","003300","51710003300","33",Census Tract,G5020,S,1285596,3978,"+36.8664554","-076.2535781",BALLENTINE PLACE,0.0521873540337383,0.000130322156642348,"0990",BALLENTINE & TAIT,36.867802,-76.251711
"32","51","710","003300","51710003300","33",Census Tract,G5020,S,1285596,3978,"+36.8664554","-076.2535781",BALLENTINE PLACE,0.0521873540337383,0.000130322156642348,"0992",BALLENTINE & TARRANT,36.863104,-76.250534
"32","51","710","003300","51710003300","33",Census Tract,G5020,S,1285596,3978,"+36.8664554","-076.2535781",BALLENTINE PLACE,0.0521873540337383,0.000130322156642348,"1000",BALLENTINE & TARRANT,36.862514,-76.25024
"32","51","710","003300","51710003300","33",Census Tract,G5020,S,1285596,3978,"+36.8664554","-076.2535781",BALLENTINE PLACE,0.0521873540337383,0.000130322156642348,"1001",BALLENTINE & TAIT,36.867624,-76.251508
"32","51","710","003300","51710003300","33",Census Tract,G5020,S,1285596,3978,"+36.8664554","-076.2535781",BALLENTINE PLACE,0.0521873540337383,0.000130322156642348,"1003",BALLENTINE & PETERSON,36.871243,-76.252409
"32","51","710","003300","51710003300","33",Census Tract,G5020,S,1285596,3978,"+36.8664554","-076.2535781",BALLENTINE PLACE,0.0521873540337383,0.000130322156642348,"1004",BALLENTINE & HANBURY,36.873124,-76.252905
"32","51","710","003300","51710003300","33",Census Tract,G5020,S,1285596,3978,"+36.8664554","-076.2535781",BALLENTINE PLACE,0.0521873540337383,0.000130322156642348,"1219",PRINCESS ANNE & GRANDY,36.860573,-76.249082
"32","51","710","003300","51710003300","33",Census Tract,G5020,S,1285596,3978,"+36.8664554","-076.2535781",BALLENTINE PLACE,0.0521873540337383,0.000130322156642348,"1912",PRINCESS ANNE & VINCENT,36.85934,-76.250805
"32","51","710","003300","51710003300","33",Census Tract,G5020,S,1285596,3978,"+36.8664554","-076.2535781",BALLENTINE PLACE,0.0521873540337383,0.000130322156642348,"2637",HANBURY & BALLENTINE,36.873315,-76.25257
"32","51","710","003300","51710003300","33",Census Tract,G5020,S,1285596,3978,"+36.8664554","-076.2535781",BALLENTINE PLACE,0.0521873540337383,0.000130322156642348,"2989",BALLENTINE & DANA,36.864119,-76.25064
"32","51","710","003300","51710003300","33",Census Tract,G5020,S,1285596,3978,"+36.8664554","-076.2535781",BALLENTINE PLACE,0.0521873540337383,0.000130322156642348,"2998",BALLENTINE & MCLEMORE,36.865971,-76.25127
"33","51","710","003400","51710003400","34",Census Tract,G5020,S,1149500,52529,"+36.8656869","-076.2667752","LINDENWOOD, VILLA HEIGHTS",0.057929337895393,0.000121472365433004,"0527",TIDEWATER & LINDENWOOD,36.86629,-76.269039
"33","51","710","003400","51710003400","34",Census Tract,G5020,S,1149500,52529,"+36.8656869","-076.2667752","LINDENWOOD, VILLA HEIGHTS",0.057929337895393,0.000121472365433004,"0600",TIDEWATER & LINDENWOOD,36.866969,-76.268915
"34","51","710","003501","51710003501","35.01",Census Tract,G5020,S,1149097,0,"+36.8615855","-076.2765441",HUNTERSVILLE (EAST),0.0461625913597071,0.000116117919527939,"0409",TIDEWATER & PRINCESS ANNE,36.857035,-76.273096
"34","51","710","003501","51710003501","35.01",Census Tract,G5020,S,1149097,0,"+36.8615855","-076.2765441",HUNTERSVILLE (EAST),0.0461625913597071,0.000116117919527939,"0411",CHURCH & GOFF,36.859748,-76.277909
"34","51","710","003501","51710003501","35.01",Census Tract,G5020,S,1149097,0,"+36.8615855","-076.2765441",HUNTERSVILLE (EAST),0.0461625913597071,0.000116117919527939,"0412",CHURCH & B,36.863777,-76.278738
"34","51","710","003501","51710003501","35.01",Census Tract,G5020,S,1149097,0,"+36.8615855","-076.2765441",HUNTERSVILLE (EAST),0.0461625913597071,0.000116117919527939,"0448",CHURCH & 18TH,36.86416,-76.279059
"34","51","710","003501","51710003501","35.01",Census Tract,G5020,S,1149097,0,"+36.8615855","-076.2765441",HUNTERSVILLE (EAST),0.0461625913597071,0.000116117919527939,"0524",TIDEWATER & GOFF,36.858028,-76.272647
"34","51","710","003501","51710003501","35.01",Census Tract,G5020,S,1149097,0,"+36.8615855","-076.2765441",HUNTERSVILLE (EAST),0.0461625913597071,0.000116117919527939,"0601",TIDEWATER & GOFF,36.858298,-76.27291
"34","51","710","003501","51710003501","35.01",Census Tract,G5020,S,1149097,0,"+36.8615855","-076.2765441",HUNTERSVILLE (EAST),0.0461625913597071,0.000116117919527939,"1228",PRINCESS ANNE & TIDEWATER,36.856341,-76.27256
"34","51","710","003501","51710003501","35.01",Census Tract,G5020,S,1149097,0,"+36.8615855","-076.2765441",HUNTERSVILLE (EAST),0.0461625913597071,0.000116117919527939,"1229",PRINCESS ANNE & CHAPEL,36.857321,-76.275454
"34","51","710","003501","51710003501","35.01",Census Tract,G5020,S,1149097,0,"+36.8615855","-076.2765441",HUNTERSVILLE (EAST),0.0461625913597071,0.000116117919527939,"1231",PRINCESS ANNE & CHURCH,36.858481,-76.278962
"34","51","710","003501","51710003501","35.01",Census Tract,G5020,S,1149097,0,"+36.8615855","-076.2765441",HUNTERSVILLE (EAST),0.0461625913597071,0.000116117919527939,"1232",PRINCESS ANNE & ARMISTEAD,36.860267,-76.285245
"34","51","710","003501","51710003501","35.01",Census Tract,G5020,S,1149097,0,"+36.8615855","-076.2765441",HUNTERSVILLE (EAST),0.0461625913597071,0.000116117919527939,"3396",TIDEWATER & SAINT JULIAN,36.861103,-76.271689
"34","51","710","003501","51710003501","35.01",Census Tract,G5020,S,1149097,0,"+36.8615855","-076.2765441",HUNTERSVILLE (EAST),0.0461625913597071,0.000116117919527939,"5734",CHURCH & GOFF,36.859647,-76.27819
"34","51","710","003501","51710003501","35.01",Census Tract,G5020,S,1149097,0,"+36.8615855","-076.2765441",HUNTERSVILLE (EAST),0.0461625913597071,0.000116117919527939,"5742",TIDEWATER & GORDON,36.860917,-76.271374
"35","51","710","003600","51710003600","36",Census Tract,G5020,S,854084,0,"+36.8656898","-076.2874270",EAST GHENT (NORTH),0.0409364017591979,8.6311389353981e-05,"0015",MONTICELLO & 18TH,36.865303,-76.284726
"35","51","710","003600","51710003600","36",Census Tract,G5020,S,854084,0,"+36.8656898","-076.2874270",EAST GHENT (NORTH),0.0409364017591979,8.6311389353981e-05,"0189",MONTICELLO & 19TH,36.86603,-76.284652
"35","51","710","003600","51710003600","36",Census Tract,G5020,S,854084,0,"+36.8656898","-076.2874270",EAST GHENT (NORTH),0.0409364017591979,8.6311389353981e-05,"0191",MONTICELLO & 15TH,36.862512,-76.286128
"35","51","710","003600","51710003600","36",Census Tract,G5020,S,854084,0,"+36.8656898","-076.2874270",EAST GHENT (NORTH),0.0409364017591979,8.6311389353981e-05,"0413",20TH & GRANBY,36.86679,-76.28527
"35","51","710","003600","51710003600","36",Census Tract,G5020,S,854084,0,"+36.8656898","-076.2874270",EAST GHENT (NORTH),0.0409364017591979,8.6311389353981e-05,"0414",21ST & OMOHUNDRO,36.868145,-76.28718
"35","51","710","003600","51710003600","36",Census Tract,G5020,S,854084,0,"+36.8656898","-076.2874270",EAST GHENT (NORTH),0.0409364017591979,8.6311389353981e-05,"0415",21ST & LLEWELLYN,36.868589,-76.288774
"35","51","710","003600","51710003600","36",Census Tract,G5020,S,854084,0,"+36.8656898","-076.2874270",EAST GHENT (NORTH),0.0409364017591979,8.6311389353981e-05,"0416",21ST & DEBREE,36.868835,-76.290337
"35","51","710","003600","51710003600","36",Census Tract,G5020,S,854084,0,"+36.8656898","-076.2874270",EAST GHENT (NORTH),0.0409364017591979,8.6311389353981e-05,"0444",21ST & DEBREE,36.868597,-76.289971
"35","51","710","003600","51710003600","36",Census Tract,G5020,S,854084,0,"+36.8656898","-076.2874270",EAST GHENT (NORTH),0.0409364017591979,8.6311389353981e-05,"0445",21ST & LLEWELLYN,36.868192,-76.287935
"35","51","710","003600","51710003600","36",Census Tract,G5020,S,854084,0,"+36.8656898","-076.2874270",EAST GHENT (NORTH),0.0409364017591979,8.6311389353981e-05,"0447",20TH & MONTICELLO,36.86661,-76.285095
"35","51","710","003600","51710003600","36",Census Tract,G5020,S,854084,0,"+36.8656898","-076.2874270",EAST GHENT (NORTH),0.0409364017591979,8.6311389353981e-05,"0722",COLONIAL & PRINCESS ANNE,36.863687,-76.294024
"35","51","710","003600","51710003600","36",Census Tract,G5020,S,854084,0,"+36.8656898","-076.2874270",EAST GHENT (NORTH),0.0409364017591979,8.6311389353981e-05,"0725",COLONIAL & WASHINGTON,36.86727,-76.29254
"35","51","710","003600","51710003600","36",Census Tract,G5020,S,854084,0,"+36.8656898","-076.2874270",EAST GHENT (NORTH),0.0409364017591979,8.6311389353981e-05,"1235",PRINCESS ANNE & PENDER,36.861992,-76.291032
"35","51","710","003600","51710003600","36",Census Tract,G5020,S,854084,0,"+36.8656898","-076.2874270",EAST GHENT (NORTH),0.0409364017591979,8.6311389353981e-05,"1236",PRINCESS ANNE & COLONIAL,36.863473,-76.29381
"35","51","710","003600","51710003600","36",Census Tract,G5020,S,854084,0,"+36.8656898","-076.2874270",EAST GHENT (NORTH),0.0409364017591979,8.6311389353981e-05,"2287",COLONIAL & 22ND,36.870173,-76.291275
"36","51","710","003700","51710003700","37",Census Tract,G5020,S,623438,0,"+36.8688844","-076.2966834",EAST GHENT,0.0335180900155166,6.3005069384093e-05,"0209",HAMPTON & PRINCESS ANNE,36.866647,-76.300362
"36","51","710","003700","51710003700","37",Census Tract,G5020,S,623438,0,"+36.8688844","-076.2966834",EAST GHENT,0.0335180900155166,6.3005069384093e-05,"0211",HAMPTON & SPOTSWOOD,36.869021,-76.300657
"36","51","710","003700","51710003700","37",Census Tract,G5020,S,623438,0,"+36.8688844","-076.2966834",EAST GHENT,0.0335180900155166,6.3005069384093e-05,"0417",21ST & MANTEO,36.870154,-76.294257
"36","51","710","003700","51710003700","37",Census Tract,G5020,S,623438,0,"+36.8688844","-076.2966834",EAST GHENT,0.0335180900155166,6.3005069384093e-05,"0443",21ST & COLONIAL,36.869451,-76.293118
"36","51","710","003700","51710003700","37",Census Tract,G5020,S,623438,0,"+36.8688844","-076.2966834",EAST GHENT,0.0335180900155166,6.3005069384093e-05,"0753",COLONIAL & 21ST,36.868651,-76.292062
"36","51","710","003700","51710003700","37",Census Tract,G5020,S,623438,0,"+36.8688844","-076.2966834",EAST GHENT,0.0335180900155166,6.3005069384093e-05,"0754",COLONIAL & SPOTSWOOD,36.86681,-76.292852
"36","51","710","003700","51710003700","37",Census Tract,G5020,S,623438,0,"+36.8688844","-076.2966834",EAST GHENT,0.0335180900155166,6.3005069384093e-05,"0755",COLONIAL & PRINCESS ANNE,36.863794,-76.294157
"36","51","710","003700","51710003700","37",Census Tract,G5020,S,623438,0,"+36.8688844","-076.2966834",EAST GHENT,0.0335180900155166,6.3005069384093e-05,"1237",PRINCESS ANNE & MANTEO,36.864866,-76.296936
"36","51","710","003700","51710003700","37",Census Tract,G5020,S,623438,0,"+36.8688844","-076.2966834",EAST GHENT,0.0335180900155166,6.3005069384093e-05,"2286",COLONIAL & 22ND,36.870246,-76.291404
"36","51","710","003700","51710003700","37",Census Tract,G5020,S,623438,0,"+36.8688844","-076.2966834",EAST GHENT,0.0335180900155166,6.3005069384093e-05,"2532",HAMPTON & WOODROW,36.87227,-76.301352
"37","51","710","003800","51710003800","38",Census Tract,G5020,S,1184542,228680,"+36.8680069","-076.3083363",WEST GHENT,0.0579071931041695,0.000142819282627657,"0208",HAMPTON & GRAYDON,36.865936,-76.301043
"37","51","710","003800","51710003800","38",Census Tract,G5020,S,1184542,228680,"+36.8680069","-076.3083363",WEST GHENT,0.0579071931041695,0.000142819282627657,"0268",HAMPTON & WOODROW,36.871617,-76.301368
"37","51","710","003800","51710003800","38",Census Tract,G5020,S,1184542,228680,"+36.8680069","-076.3083363",WEST GHENT,0.0579071931041695,0.000142819282627657,"0281",HAMPTON & SPOTSWOOD,36.868705,-76.300716
"38","51","710","004001","51710004001","40.01",Census Tract,G5020,S,375559,0,"+36.8598510","-076.2917763",EAST GHENT (SOUTH),0.0262853490879218,3.79504079430424e-05,"0192",MONTICELLO & PRINCESS ANNE,36.860352,-76.287013
"38","51","710","004001","51710004001","40.01",Census Tract,G5020,S,375559,0,"+36.8598510","-076.2917763",EAST GHENT (SOUTH),0.0262853490879218,3.79504079430424e-05,"0720",COLONIAL & BOISSEVAIN,36.859553,-76.296093
"38","51","710","004001","51710004001","40.01",Census Tract,G5020,S,375559,0,"+36.8598510","-076.2917763",EAST GHENT (SOUTH),0.0262853490879218,3.79504079430424e-05,"0721",COLONIAL & GRAYDON,36.862689,-76.294543
"38","51","710","004001","51710004001","40.01",Census Tract,G5020,S,375559,0,"+36.8598510","-076.2917763",EAST GHENT (SOUTH),0.0262853490879218,3.79504079430424e-05,"1168",PRINCESS ANNE & BOTETOURT,36.862473,-76.292213
"38","51","710","004001","51710004001","40.01",Census Tract,G5020,S,375559,0,"+36.8598510","-076.2917763",EAST GHENT (SOUTH),0.0262853490879218,3.79504079430424e-05,"5605",VIRGINIA BEACH & GRANBY,36.857576,-76.289696
"38","51","710","004001","51710004001","40.01",Census Tract,G5020,S,375559,0,"+36.8598510","-076.2917763",EAST GHENT (SOUTH),0.0262853490879218,3.79504079430424e-05,"5701",OLNEY & MOWBRAY,36.857566,-76.293457
"39","51","710","004002","51710004002","40.02",Census Tract,G5020,S,1304684,404360,"+36.8571105","-076.3011941",GHENT,0.0610520362119343,0.00017269561671941,"0203",OLNEY & COLONIAL,36.859043,-76.29678
"39","51","710","004002","51710004002","40.02",Census Tract,G5020,S,1304684,404360,"+36.8571105","-076.3011941",GHENT,0.0610520362119343,0.00017269561671941,"0204",OLNEY & STOCKLEY GARDENS,36.860112,-76.299225
"39","51","710","004002","51710004002","40.02",Census Tract,G5020,S,1304684,404360,"+36.8571105","-076.3011941",GHENT,0.0610520362119343,0.00017269561671941,"0205",OLNEY & NORFOLK GENERAL,36.861621,-76.302657
"39","51","710","004002","51710004002","40.02",Census Tract,G5020,S,1304684,404360,"+36.8571105","-076.3011941",GHENT,0.0610520362119343,0.00017269561671941,"0272",REDGATE & COLLEY,36.863996,-76.30136
"39","51","710","004002","51710004002","40.02",Census Tract,G5020,S,1304684,404360,"+36.8571105","-076.3011941",GHENT,0.0610520362119343,0.00017269561671941,"0273",COLLEY & RALEIGH,36.863123,-76.300238
"39","51","710","004002","51710004002","40.02",Census Tract,G5020,S,1304684,404360,"+36.8571105","-076.3011941",GHENT,0.0610520362119343,0.00017269561671941,"0275",OLNEY & MOWBRAY ARCH,36.859415,-76.298056
"39","51","710","004002","51710004002","40.02",Census Tract,G5020,S,1304684,404360,"+36.8571105","-076.3011941",GHENT,0.0610520362119343,0.00017269561671941,"0276",OLNEY & CHRYSLER MUSEUM,36.85743,-76.293607
"39","51","710","004002","51710004002","40.02",Census Tract,G5020,S,1304684,404360,"+36.8571105","-076.3011941",GHENT,0.0610520362119343,0.00017269561671941,"0430",COLLEY & GRAYDON,36.865245,-76.299498
"39","51","710","004002","51710004002","40.02",Census Tract,G5020,S,1304684,404360,"+36.8571105","-076.3011941",GHENT,0.0610520362119343,0.00017269561671941,"0432",COLLEY & RALEIGH,36.861916,-76.299617
"39","51","710","004002","51710004002","40.02",Census Tract,G5020,S,1304684,404360,"+36.8571105","-076.3011941",GHENT,0.0610520362119343,0.00017269561671941,"0433",COLLEY & GRAYDON,36.864916,-76.299564
"39","51","710","004002","51710004002","40.02",Census Tract,G5020,S,1304684,404360,"+36.8571105","-076.3011941",GHENT,0.0610520362119343,0.00017269561671941,"0756",COLONIAL & BOISSEVAIN,36.859737,-76.296135
"39","51","710","004002","51710004002","40.02",Census Tract,G5020,S,1304684,404360,"+36.8571105","-076.3011941",GHENT,0.0610520362119343,0.00017269561671941,"1166",PRINCESS ANNE & MANTEO,36.864906,-76.297286
"39","51","710","004002","51710004002","40.02",Census Tract,G5020,S,1304684,404360,"+36.8571105","-076.3011941",GHENT,0.0610520362119343,0.00017269561671941,"1167",PRINCESS ANNE & COLONIAL,36.863741,-76.294633
"39","51","710","004002","51710004002","40.02",Census Tract,G5020,S,1304684,404360,"+36.8571105","-076.3011941",GHENT,0.0610520362119343,0.00017269561671941,"5744",FORT NORFOLK STATION,36.859156,-76.304389
"39","51","710","004002","51710004002","40.02",Census Tract,G5020,S,1304684,404360,"+36.8571105","-076.3011941",GHENT,0.0610520362119343,0.00017269561671941,"5767",COLLEY & FAIRFAX,36.859567,-76.300744
"39","51","710","004002","51710004002","40.02",Census Tract,G5020,S,1304684,404360,"+36.8571105","-076.3011941",GHENT,0.0610520362119343,0.00017269561671941,"5779",REDGATE & CHILDRENS WAY,36.86409,-76.301378
"39","51","710","004002","51710004002","40.02",Census Tract,G5020,S,1304684,404360,"+36.8571105","-076.3011941",GHENT,0.0610520362119343,0.00017269561671941,"8001",EVMC FORT NORFOLK STATION,36.858697,-76.30349
"40","51","710","004100","51710004100","41",Census Tract,G5020,S,409608,0,"+36.8569038","-076.2829062","YOUNG TERRACE, CHURCH STREET",0.0263774089584907,4.13889521484479e-05,"0013",MONTICELLO & PRINCESS ANNE,36.860413,-76.28674
"40","51","710","004100","51710004100","41",Census Tract,G5020,S,409608,0,"+36.8569038","-076.2829062","YOUNG TERRACE, CHURCH STREET",0.0263774089584907,4.13889521484479e-05,"0452",CHURCH & OLNEY,36.854019,-76.280023
"40","51","710","004100","51710004100","41",Census Tract,G5020,S,409608,0,"+36.8569038","-076.2829062","YOUNG TERRACE, CHURCH STREET",0.0263774089584907,4.13889521484479e-05,"1021",VIRGINIA BEACH & SALTER,36.857682,-76.284401
"40","51","710","004100","51710004100","41",Census Tract,G5020,S,409608,0,"+36.8569038","-076.2829062","YOUNG TERRACE, CHURCH STREET",0.0263774089584907,4.13889521484479e-05,"1159",VIRGINIA BEACH & SALTER,36.857906,-76.284319
"40","51","710","004100","51710004100","41",Census Tract,G5020,S,409608,0,"+36.8569038","-076.2829062","YOUNG TERRACE, CHURCH STREET",0.0263774089584907,4.13889521484479e-05,"1171",PRINCESS ANNE & ARMISTEAD,36.86011,-76.285268
"40","51","710","004100","51710004100","41",Census Tract,G5020,S,409608,0,"+36.8569038","-076.2829062","YOUNG TERRACE, CHURCH STREET",0.0263774089584907,4.13889521484479e-05,"1173",PRINCESS ANNE & CHURCH,36.858214,-76.278704
"40","51","710","004100","51710004100","41",Census Tract,G5020,S,409608,0,"+36.8569038","-076.2829062","YOUNG TERRACE, CHURCH STREET",0.0263774089584907,4.13889521484479e-05,"1339",VIRGINIA BEACH & LINCOLN,36.856821,-76.279903
"40","51","710","004100","51710004100","41",Census Tract,G5020,S,409608,0,"+36.8569038","-076.2829062","YOUNG TERRACE, CHURCH STREET",0.0263774089584907,4.13889521484479e-05,"3354",VIRGINIA BEACH & LINCOLN,36.856627,-76.280003
"41","51","710","004200","51710004200","42",Census Tract,G5020,S,461318,0,"+36.8539638","-076.2757769","CALVERT SQUARE, CHURCH STREET",0.0279958858481397,4.66118903884494e-05,"0406",CHURCH & OLNEY,36.854039,-76.279681
"41","51","710","004200","51710004200","42",Census Tract,G5020,S,461318,0,"+36.8539638","-076.2757769","CALVERT SQUARE, CHURCH STREET",0.0279958858481397,4.66118903884494e-05,"0521",TIDEWATER & OLNEY,36.852342,-76.275198
"41","51","710","004200","51710004200","42",Census Tract,G5020,S,461318,0,"+36.8539638","-076.2757769","CALVERT SQUARE, CHURCH STREET",0.0279958858481397,4.66118903884494e-05,"0602",TIDEWATER & PRINCESS ANNE,36.856093,-76.273958
"41","51","710","004200","51710004200","42",Census Tract,G5020,S,461318,0,"+36.8539638","-076.2757769","CALVERT SQUARE, CHURCH STREET",0.0279958858481397,4.66118903884494e-05,"1023",VIRGINIA BEACH & CHAPEL,36.85498,-76.276275
"41","51","710","004200","51710004200","42",Census Tract,G5020,S,461318,0,"+36.8539638","-076.2757769","CALVERT SQUARE, CHURCH STREET",0.0279958858481397,4.66118903884494e-05,"1155",VIRGINIA BEACH & TIDEWATER,36.854429,-76.273814
"41","51","710","004200","51710004200","42",Census Tract,G5020,S,461318,0,"+36.8539638","-076.2757769","CALVERT SQUARE, CHURCH STREET",0.0279958858481397,4.66118903884494e-05,"1156",VIRGINIA BEACH & CHAPEL,36.85537,-76.276692
"41","51","710","004200","51710004200","42",Census Tract,G5020,S,461318,0,"+36.8539638","-076.2757769","CALVERT SQUARE, CHURCH STREET",0.0279958858481397,4.66118903884494e-05,"1175",PRINCESS ANNE & CHAPEL,36.857055,-76.275217
"41","51","710","004200","51710004200","42",Census Tract,G5020,S,461318,0,"+36.8539638","-076.2757769","CALVERT SQUARE, CHURCH STREET",0.0279958858481397,4.66118903884494e-05,"1176",PRINCESS ANNE & TIDEWATER,36.856217,-76.272609
"41","51","710","004200","51710004200","42",Census Tract,G5020,S,461318,0,"+36.8539638","-076.2757769","CALVERT SQUARE, CHURCH STREET",0.0279958858481397,4.66118903884494e-05,"3832",BRAMBLETON & LANDING,36.851873,-76.27799
"41","51","710","004200","51710004200","42",Census Tract,G5020,S,461318,0,"+36.8539638","-076.2757769","CALVERT SQUARE, CHURCH STREET",0.0279958858481397,4.66118903884494e-05,"3833",TIDEWATER & BAGNALL,36.853572,-76.275112
"42","51","710","004300","51710004300","43",Census Tract,G5020,S,1178742,7997,"+36.8558356","-076.2646406","BRAMBLETON (NORTH), MOTON",0.0470208393076679,0.000119911815587172,"0709",CORPREW & COVENANT,36.850557,-76.264106
"42","51","710","004300","51710004300","43",Census Tract,G5020,S,1178742,7997,"+36.8558356","-076.2646406","BRAMBLETON (NORTH), MOTON",0.0470208393076679,0.000119911815587172,"1025",VIRGINIA BEACH & MARSHALL,36.85223,-76.267586
"42","51","710","004300","51710004300","43",Census Tract,G5020,S,1178742,7997,"+36.8558356","-076.2646406","BRAMBLETON (NORTH), MOTON",0.0470208393076679,0.000119911815587172,"1026",VIRGINIA BEACH & COVENANT,36.851866,-76.264053
"42","51","710","004300","51710004300","43",Census Tract,G5020,S,1178742,7997,"+36.8558356","-076.2646406","BRAMBLETON (NORTH), MOTON",0.0470208393076679,0.000119911815587172,"1028",VIRGINIA BEACH & OAKLAWN,36.852061,-76.259239
"42","51","710","004300","51710004300","43",Census Tract,G5020,S,1178742,7997,"+36.8558356","-076.2646406","BRAMBLETON (NORTH), MOTON",0.0470208393076679,0.000119911815587172,"1153",VIRGINIA BEACH & COVENANT,36.852107,-76.263654
"42","51","710","004300","51710004300","43",Census Tract,G5020,S,1178742,7997,"+36.8558356","-076.2646406","BRAMBLETON (NORTH), MOTON",0.0470208393076679,0.000119911815587172,"1154",VIRGINIA BEACH & MARSHALL,36.852451,-76.267508
"42","51","710","004300","51710004300","43",Census Tract,G5020,S,1178742,7997,"+36.8558356","-076.2646406","BRAMBLETON (NORTH), MOTON",0.0470208393076679,0.000119911815587172,"1177",PRINCESS ANNE & HANSON,36.8549,-76.268538
"42","51","710","004300","51710004300","43",Census Tract,G5020,S,1178742,7997,"+36.8558356","-076.2646406","BRAMBLETON (NORTH), MOTON",0.0470208393076679,0.000119911815587172,"1179",PRINCESS ANNE & PARK,36.853868,-76.263934
"42","51","710","004300","51710004300","43",Census Tract,G5020,S,1178742,7997,"+36.8558356","-076.2646406","BRAMBLETON (NORTH), MOTON",0.0470208393076679,0.000119911815587172,"1180",PRINCESS ANNE & RAINEY,36.854397,-76.260958
"42","51","710","004300","51710004300","43",Census Tract,G5020,S,1178742,7997,"+36.8558356","-076.2646406","BRAMBLETON (NORTH), MOTON",0.0470208393076679,0.000119911815587172,"1223",PRINCESS ANNE & RAINEY,36.854476,-76.2613
"42","51","710","004300","51710004300","43",Census Tract,G5020,S,1178742,7997,"+36.8558356","-076.2646406","BRAMBLETON (NORTH), MOTON",0.0470208393076679,0.000119911815587172,"1224",PRINCESS ANNE & PARK,36.854016,-76.264021
"42","51","710","004300","51710004300","43",Census Tract,G5020,S,1178742,7997,"+36.8558356","-076.2646406","BRAMBLETON (NORTH), MOTON",0.0470208393076679,0.000119911815587172,"1225",PRINCESS ANNE & MARSHALL,36.854358,-76.266224
"42","51","710","004300","51710004300","43",Census Tract,G5020,S,1178742,7997,"+36.8558356","-076.2646406","BRAMBLETON (NORTH), MOTON",0.0470208393076679,0.000119911815587172,"1226",PRINCESS ANNE & MALTBY,36.854951,-76.268081
"43","51","710","004400","51710004400","44",Census Tract,G5020,S,695846,12670,"+36.8564451","-076.2541084",ROBERTS VILLAGE/BOWLING GREEN,0.039270960066564,7.15918350295148e-05,"1147",VIRGINIA BEACH & GODFREY,36.852756,-76.249892
"43","51","710","004400","51710004400","44",Census Tract,G5020,S,695846,12670,"+36.8564451","-076.2541084",ROBERTS VILLAGE/BOWLING GREEN,0.039270960066564,7.15918350295148e-05,"1148",VIRGINIA BEACH & MERRIMAC,36.852445,-76.252759
"43","51","710","004400","51710004400","44",Census Tract,G5020,S,695846,12670,"+36.8564451","-076.2541084",ROBERTS VILLAGE/BOWLING GREEN,0.039270960066564,7.15918350295148e-05,"1149",VIRGINIA BEACH & NORCHESTER,36.852348,-76.255476
"43","51","710","004400","51710004400","44",Census Tract,G5020,S,695846,12670,"+36.8564451","-076.2541084",ROBERTS VILLAGE/BOWLING GREEN,0.039270960066564,7.15918350295148e-05,"1151",VIRGINIA BEACH & OAKLAWN,36.852202,-76.258933
"43","51","710","004400","51710004400","44",Census Tract,G5020,S,695846,12670,"+36.8564451","-076.2541084",ROBERTS VILLAGE/BOWLING GREEN,0.039270960066564,7.15918350295148e-05,"1183",PRINCESS ANNE & MAJESTIC,36.855045,-76.257796
"43","51","710","004400","51710004400","44",Census Tract,G5020,S,695846,12670,"+36.8564451","-076.2541084",ROBERTS VILLAGE/BOWLING GREEN,0.039270960066564,7.15918350295148e-05,"1185",PRINCESS ANNE & MERRIMAC,36.857307,-76.253686
"43","51","710","004400","51710004400","44",Census Tract,G5020,S,695846,12670,"+36.8564451","-076.2541084",ROBERTS VILLAGE/BOWLING GREEN,0.039270960066564,7.15918350295148e-05,"1186",PRINCESS ANNE & BALLENTINE,36.859496,-76.250324
"43","51","710","004400","51710004400","44",Census Tract,G5020,S,695846,12670,"+36.8564451","-076.2541084",ROBERTS VILLAGE/BOWLING GREEN,0.039270960066564,7.15918350295148e-05,"1221",PRINCESS ANNE & MERRIMAC,36.857275,-76.254011
"43","51","710","004400","51710004400","44",Census Tract,G5020,S,695846,12670,"+36.8564451","-076.2541084",ROBERTS VILLAGE/BOWLING GREEN,0.039270960066564,7.15918350295148e-05,"1222",PRINCESS ANNE & GRAND BASSA,36.85561,-76.256915
"43","51","710","004400","51710004400","44",Census Tract,G5020,S,695846,12670,"+36.8564451","-076.2541084",ROBERTS VILLAGE/BOWLING GREEN,0.039270960066564,7.15918350295148e-05,"2288",BALLENTINE & PRINCESS ANNE,36.859041,-76.249545
"43","51","710","004400","51710004400","44",Census Tract,G5020,S,695846,12670,"+36.8564451","-076.2541084",ROBERTS VILLAGE/BOWLING GREEN,0.039270960066564,7.15918350295148e-05,"3407",BALLENTINE & WOODLAND,36.854008,-76.248475
"43","51","710","004400","51710004400","44",Census Tract,G5020,S,695846,12670,"+36.8564451","-076.2541084",ROBERTS VILLAGE/BOWLING GREEN,0.039270960066564,7.15918350295148e-05,"5974",BALLENTINE & HOLLISTER,36.855491,-76.248898
"44","51","710","004500","51710004500","45",Census Tract,G5020,S,773401,0,"+36.8496217","-076.2505470",MIDDLETOWN ARCH,0.0458194462087321,7.814154779294e-05,"0620",CORPREW & MAJESTIC,36.850469,-76.257229
"44","51","710","004500","51710004500","45",Census Tract,G5020,S,773401,0,"+36.8496217","-076.2505470",MIDDLETOWN ARCH,0.0458194462087321,7.814154779294e-05,"0621",CORPREW & GATE HOUSE,36.850587,-76.251315
"44","51","710","004500","51710004500","45",Census Tract,G5020,S,773401,0,"+36.8496217","-076.2505470",MIDDLETOWN ARCH,0.0458194462087321,7.814154779294e-05,"0622",BALLENTINE & MIDDLE TOWNE,36.848317,-76.250752
"44","51","710","004500","51710004500","45",Census Tract,G5020,S,773401,0,"+36.8496217","-076.2505470",MIDDLETOWN ARCH,0.0458194462087321,7.814154779294e-05,"0692",BALLENTINE & CONNECTOR,36.851749,-76.24788
"44","51","710","004500","51710004500","45",Census Tract,G5020,S,773401,0,"+36.8496217","-076.2505470",MIDDLETOWN ARCH,0.0458194462087321,7.814154779294e-05,"0703",CORPREW & BALLENTINE,36.850199,-76.249316
"44","51","710","004500","51710004500","45",Census Tract,G5020,S,773401,0,"+36.8496217","-076.2505470",MIDDLETOWN ARCH,0.0458194462087321,7.814154779294e-05,"0704",CORPREW & GATE HOUSE,36.850656,-76.251627
"44","51","710","004500","51710004500","45",Census Tract,G5020,S,773401,0,"+36.8496217","-076.2505470",MIDDLETOWN ARCH,0.0458194462087321,7.814154779294e-05,"0705",CORPREW & NORCHESTER,36.850584,-76.255369
"44","51","710","004500","51710004500","45",Census Tract,G5020,S,773401,0,"+36.8496217","-076.2505470",MIDDLETOWN ARCH,0.0458194462087321,7.814154779294e-05,"0706",CORPREW & MAJESTIC,36.850538,-76.257664
"44","51","710","004500","51710004500","45",Census Tract,G5020,S,773401,0,"+36.8496217","-076.2505470",MIDDLETOWN ARCH,0.0458194462087321,7.814154779294e-05,"1030",VIRGINIA BEACH & NORCHESTER,36.852202,-76.25529
"44","51","710","004500","51710004500","45",Census Tract,G5020,S,773401,0,"+36.8496217","-076.2505470",MIDDLETOWN ARCH,0.0458194462087321,7.814154779294e-05,"1031",VIRGINIA BEACH & MERRIMAC,36.852261,-76.253039
"44","51","710","004500","51710004500","45",Census Tract,G5020,S,773401,0,"+36.8496217","-076.2505470",MIDDLETOWN ARCH,0.0458194462087321,7.814154779294e-05,"1032",VIRGINIA BEACH & BELLMORE,36.852564,-76.250035
"44","51","710","004500","51710004500","45",Census Tract,G5020,S,773401,0,"+36.8496217","-076.2505470",MIDDLETOWN ARCH,0.0458194462087321,7.814154779294e-05,"1033",VIRGINIA BEACH & BALLENTINE,36.852798,-76.248429
"44","51","710","004500","51710004500","45",Census Tract,G5020,S,773401,0,"+36.8496217","-076.2505470",MIDDLETOWN ARCH,0.0458194462087321,7.814154779294e-05,"2968",BALLENTINE & LAKEBRIDGE,36.848299,-76.250278
"44","51","710","004500","51710004500","45",Census Tract,G5020,S,773401,0,"+36.8496217","-076.2505470",MIDDLETOWN ARCH,0.0458194462087321,7.814154779294e-05,"3023",CORPREW & NORCHESTER,36.850511,-76.254837
"44","51","710","004500","51710004500","45",Census Tract,G5020,S,773401,0,"+36.8496217","-076.2505470",MIDDLETOWN ARCH,0.0458194462087321,7.814154779294e-05,"5073",BALLENTINE & LRT STATION,36.846696,-76.252515
"44","51","710","004500","51710004500","45",Census Tract,G5020,S,773401,0,"+36.8496217","-076.2505470",MIDDLETOWN ARCH,0.0458194462087321,7.814154779294e-05,"9235",BALLENTINE & VIRGINIA BEACH,36.852134,-76.248068
"45","51","710","004600","51710004600","46",Census Tract,G5020,S,1141944,328374,"+36.8434484","-076.2500421",CHESTERFIELD HEIGHTS,0.0551819715377468,0.000148541647650783,"0627",KIMBALL & FORBES,36.84309,-76.260429
"45","51","710","004600","51710004600","46",Census Tract,G5020,S,1141944,328374,"+36.8434484","-076.2500421",CHESTERFIELD HEIGHTS,0.0551819715377468,0.000148541647650783,"0628",KIMBALL & MAJESTIC,36.842751,-76.25788
"45","51","710","004600","51710004600","46",Census Tract,G5020,S,1141944,328374,"+36.8434484","-076.2500421",CHESTERFIELD HEIGHTS,0.0551819715377468,0.000148541647650783,"0630",KIMBALL & BALLENTINE,36.842237,-76.253851
"45","51","710","004600","51710004600","46",Census Tract,G5020,S,1141944,328374,"+36.8434484","-076.2500421",CHESTERFIELD HEIGHTS,0.0551819715377468,0.000148541647650783,"0699",KIMBALL & MAJESTIC,36.84283,-76.257621
"45","51","710","004600","51710004600","46",Census Tract,G5020,S,1141944,328374,"+36.8434484","-076.2500421",CHESTERFIELD HEIGHTS,0.0551819715377468,0.000148541647650783,"0700",KIMBALL & FORBES,36.843253,-76.260715
"45","51","710","004600","51710004600","46",Census Tract,G5020,S,1141944,328374,"+36.8434484","-076.2500421",CHESTERFIELD HEIGHTS,0.0551819715377468,0.000148541647650783,"3025",KIMBALL & WILEY,36.842691,-76.245828
"45","51","710","004600","51710004600","46",Census Tract,G5020,S,1141944,328374,"+36.8434484","-076.2500421",CHESTERFIELD HEIGHTS,0.0551819715377468,0.000148541647650783,"3026",KIMBALL & COURT,36.843227,-76.248912
"45","51","710","004600","51710004600","46",Census Tract,G5020,S,1141944,328374,"+36.8434484","-076.2500421",CHESTERFIELD HEIGHTS,0.0551819715377468,0.000148541647650783,"3027",KIMBALL & KIMBALL,36.843047,-76.247337
"45","51","710","004600","51710004600","46",Census Tract,G5020,S,1141944,328374,"+36.8434484","-076.2500421",CHESTERFIELD HEIGHTS,0.0551819715377468,0.000148541647650783,"3030",KIMBALL & WILEY,36.842798,-76.245848
"45","51","710","004600","51710004600","46",Census Tract,G5020,S,1141944,328374,"+36.8434484","-076.2500421",CHESTERFIELD HEIGHTS,0.0551819715377468,0.000148541647650783,"3847",KIMBALL & COURT,36.843335,-76.24912
"45","51","710","004600","51710004600","46",Census Tract,G5020,S,1141944,328374,"+36.8434484","-076.2500421",CHESTERFIELD HEIGHTS,0.0551819715377468,0.000148541647650783,"3882",WESTMINSTER & BALLENTINE,36.844798,-76.249984
"45","51","710","004600","51710004600","46",Census Tract,G5020,S,1141944,328374,"+36.8434484","-076.2500421",CHESTERFIELD HEIGHTS,0.0551819715377468,0.000148541647650783,"3884",WESTMINSTER & CHICK,36.844338,-76.248001
"45","51","710","004600","51710004600","46",Census Tract,G5020,S,1141944,328374,"+36.8434484","-076.2500421",CHESTERFIELD HEIGHTS,0.0551819715377468,0.000148541647650783,"3885",KIMBALL & KIMBALL,36.843206,-76.247332
"45","51","710","004600","51710004600","46",Census Tract,G5020,S,1141944,328374,"+36.8434484","-076.2500421",CHESTERFIELD HEIGHTS,0.0551819715377468,0.000148541647650783,"5971",WESTMINSTER & CHICK,36.844508,-76.248252
"45","51","710","004600","51710004600","46",Census Tract,G5020,S,1141944,328374,"+36.8434484","-076.2500421",CHESTERFIELD HEIGHTS,0.0551819715377468,0.000148541647650783,"8008",BALLENTINE BROAD CREEK STATION,36.84619,-76.253188
"46","51","710","004700","51710004700","47",Census Tract,G5020,S,1381197,169512,"+36.8464758","-076.2633177","BRAMBLETON (SOUTH), NSU",0.0696763775537271,0.000156669878430512,"0615",PARK & PRESIDENTIAL,36.84705,-76.269877
"46","51","710","004700","51710004700","47",Census Tract,G5020,S,1381197,169512,"+36.8464758","-076.2633177","BRAMBLETON (SOUTH), NSU",0.0696763775537271,0.000156669878430512,"0616",PARK & BOND,36.849031,-76.268087
"46","51","710","004700","51710004700","47",Census Tract,G5020,S,1381197,169512,"+36.8464758","-076.2633177","BRAMBLETON (SOUTH), NSU",0.0696763775537271,0.000156669878430512,"0618",CORPREW & PRESIDENTIAL,36.850452,-76.261019
"46","51","710","004700","51710004700","47",Census Tract,G5020,S,1381197,169512,"+36.8464758","-076.2633177","BRAMBLETON (SOUTH), NSU",0.0696763775537271,0.000156669878430512,"0711",PARK & BOND,36.849592,-76.26785
"46","51","710","004700","51710004700","47",Census Tract,G5020,S,1381197,169512,"+36.8464758","-076.2633177","BRAMBLETON (SOUTH), NSU",0.0696763775537271,0.000156669878430512,"0712",PARK & OLNEY,36.847872,-76.269423
"46","51","710","004700","51710004700","47",Census Tract,G5020,S,1381197,169512,"+36.8464758","-076.2633177","BRAMBLETON (SOUTH), NSU",0.0696763775537271,0.000156669878430512,"0713",BRAMBLETON & MARSHALL,36.847086,-76.27133
"46","51","710","004700","51710004700","47",Census Tract,G5020,S,1381197,169512,"+36.8464758","-076.2633177","BRAMBLETON (SOUTH), NSU",0.0696763775537271,0.000156669878430512,"0825",BRAMBLETON & PARK,36.84606,-76.269996
"46","51","710","004700","51710004700","47",Census Tract,G5020,S,1381197,169512,"+36.8464758","-076.2633177","BRAMBLETON (SOUTH), NSU",0.0696763775537271,0.000156669878430512,"2120",CORPREW & JOSEPH,36.850522,-76.265292
"46","51","710","004700","51710004700","47",Census Tract,G5020,S,1381197,169512,"+36.8464758","-076.2633177","BRAMBLETON (SOUTH), NSU",0.0696763775537271,0.000156669878430512,"5740",BALLENTINE & LRT STATION,36.847264,-76.252574
"46","51","710","004700","51710004700","47",Census Tract,G5020,S,1381197,169512,"+36.8464758","-076.2633177","BRAMBLETON (SOUTH), NSU",0.0696763775537271,0.000156669878430512,"8007",NSU STATION,36.845864,-76.269374
"47","51","710","004800","51710004800","48",Census Tract,G5020,S,1015137,100223,"+36.8469101","-076.2801795",TIDEWATER GARDENS,0.0483653017449433,0.000112686844205145,"0404",SAINT PAULS & WOOD,36.850991,-76.284817
"47","51","710","004800","51710004800","48",Census Tract,G5020,S,1015137,100223,"+36.8469101","-076.2801795",TIDEWATER GARDENS,0.0483653017449433,0.000112686844205145,"0454",DNTC,36.850464,-76.283474
"47","51","710","004800","51710004800","48",Census Tract,G5020,S,1015137,100223,"+36.8469101","-076.2801795",TIDEWATER GARDENS,0.0483653017449433,0.000112686844205145,"0455",BRAMBLETON & SAINT PAULS,36.853709,-76.284791
"47","51","710","004800","51710004800","48",Census Tract,G5020,S,1015137,100223,"+36.8469101","-076.2801795",TIDEWATER GARDENS,0.0483653017449433,0.000112686844205145,"0604",TIDEWATER & CHARLOTTE,36.847372,-76.277687
"47","51","710","004800","51710004800","48",Census Tract,G5020,S,1015137,100223,"+36.8469101","-076.2801795",TIDEWATER GARDENS,0.0483653017449433,0.000112686844205145,"0612",BRAMBLETON & LINCOLN,36.853475,-76.282015
"47","51","710","004800","51710004800","48",Census Tract,G5020,S,1015137,100223,"+36.8469101","-076.2801795",TIDEWATER GARDENS,0.0483653017449433,0.000112686844205145,"0613",BRAMBLETON & CHURCH,36.85267,-76.279497
"47","51","710","004800","51710004800","48",Census Tract,G5020,S,1015137,100223,"+36.8469101","-076.2801795",TIDEWATER GARDENS,0.0483653017449433,0.000112686844205145,"3024",TIDEWATER & MAY,36.848367,-76.276832
"47","51","710","004800","51710004800","48",Census Tract,G5020,S,1015137,100223,"+36.8469101","-076.2801795",TIDEWATER GARDENS,0.0483653017449433,0.000112686844205145,"8006",HARBOR PARK STATION,36.844006,-76.278042
"48","51","710","004900","51710004900","49",Census Tract,G5020,S,1462111,389113,"+36.8497564","-076.2913365","CBD, FREEMASON HARBOR",0.0569046457234544,0.000187041639112355,"0003",SAINT PAULS & CHARLOTTE,36.85184,-76.28552
"48","51","710","004900","51710004900","49",Census Tract,G5020,S,1462111,389113,"+36.8497564","-076.2913365","CBD, FREEMASON HARBOR",0.0569046457234544,0.000187041639112355,"0006",SAINT PAULS & PLUME,36.846439,-76.285941
"48","51","710","004900","51710004900","49",Census Tract,G5020,S,1462111,389113,"+36.8497564","-076.2913365","CBD, FREEMASON HARBOR",0.0569046457234544,0.000187041639112355,"0008",WATERSIDE & COMMERCIAL,36.844572,-76.289287
"48","51","710","004900","51710004900","49",Census Tract,G5020,S,1462111,389113,"+36.8497564","-076.2913365","CBD, FREEMASON HARBOR",0.0569046457234544,0.000187041639112355,"0010",MONTICELLO & BRAMBLETON,36.853162,-76.287918
"48","51","710","004900","51710004900","49",Census Tract,G5020,S,1462111,389113,"+36.8497564","-076.2913365","CBD, FREEMASON HARBOR",0.0569046457234544,0.000187041639112355,"0011",MONTICELLO & STARKE,36.854809,-76.287066
"48","51","710","004900","51710004900","49",Census Tract,G5020,S,1462111,389113,"+36.8497564","-076.2913365","CBD, FREEMASON HARBOR",0.0569046457234544,0.000187041639112355,"5607",VIRGINIA BEACH & BOUSH,36.857746,-76.288728
"48","51","710","004900","51710004900","49",Census Tract,G5020,S,1462111,389113,"+36.8497564","-076.2913365","CBD, FREEMASON HARBOR",0.0569046457234544,0.000187041639112355,"5636",BOUSH & BROOKE,36.848608,-76.29251
"48","51","710","004900","51710004900","49",Census Tract,G5020,S,1462111,389113,"+36.8497564","-076.2913365","CBD, FREEMASON HARBOR",0.0569046457234544,0.000187041639112355,"5888",BRAMBLETON & YARMOUTH,36.853881,-76.293681
"48","51","710","004900","51710004900","49",Census Tract,G5020,S,1462111,389113,"+36.8497564","-076.2913365","CBD, FREEMASON HARBOR",0.0569046457234544,0.000187041639112355,"6052",CITY HALL & BANK,36.847532,-76.289507
"48","51","710","004900","51710004900","49",Census Tract,G5020,S,1462111,389113,"+36.8497564","-076.2913365","CBD, FREEMASON HARBOR",0.0569046457234544,0.000187041639112355,"6094",BANK & PLUME,36.846505,-76.289381
"48","51","710","004900","51710004900","49",Census Tract,G5020,S,1462111,389113,"+36.8497564","-076.2913365","CBD, FREEMASON HARBOR",0.0569046457234544,0.000187041639112355,"8002",YORK STREET FREEMASON STATION,36.853569,-76.293885
"48","51","710","004900","51710004900","49",Census Tract,G5020,S,1462111,389113,"+36.8497564","-076.2913365","CBD, FREEMASON HARBOR",0.0569046457234544,0.000187041639112355,"8003",MONTICELLO,36.851187,-76.288796
"48","51","710","004900","51710004900","49",Census Tract,G5020,S,1462111,389113,"+36.8497564","-076.2913365","CBD, FREEMASON HARBOR",0.0569046457234544,0.000187041639112355,"8004",MACARTHUR SQUARE STATION,36.847201,-76.290229
"48","51","710","004900","51710004900","49",Census Tract,G5020,S,1462111,389113,"+36.8497564","-076.2913365","CBD, FREEMASON HARBOR",0.0569046457234544,0.000187041639112355,"8005",CIVIC PLAZA STATION,36.845937,-76.286011
"48","51","710","004900","51710004900","49",Census Tract,G5020,S,1462111,389113,"+36.8497564","-076.2913365","CBD, FREEMASON HARBOR",0.0569046457234544,0.000187041639112355,F001,FERRY STOP - WATERSIDE,36.843292,-76.290922
"49","51","710","005000","51710005000","50",Census Tract,G5020,S,2615719,1305027,"+36.8333375","-076.2836407",BERKLEY,0.087355736459889,0.000396052114722707,"0465",MAIN & BERKLEY,36.832191,-76.283524
"49","51","710","005000","51710005000","50",Census Tract,G5020,S,2615719,1305027,"+36.8333375","-076.2836407",BERKLEY,0.087355736459889,0.000396052114722707,"0467",LIBERTY & GRAYSON,36.829828,-76.281516
"49","51","710","005000","51710005000","50",Census Tract,G5020,S,2615719,1305027,"+36.8333375","-076.2836407",BERKLEY,0.087355736459889,0.000396052114722707,"0468",LIBERTY & LANCASTER,36.828807,-76.280525
"49","51","710","005000","51710005000","50",Census Tract,G5020,S,2615719,1305027,"+36.8333375","-076.2836407",BERKLEY,0.087355736459889,0.000396052114722707,"0469",LIBERTY & SHERMAN,36.825912,-76.277814
"49","51","710","005000","51710005000","50",Census Tract,G5020,S,2615719,1305027,"+36.8333375","-076.2836407",BERKLEY,0.087355736459889,0.000396052114722707,"0508",LIBERTY & SHERMAN,36.825989,-76.27769
"49","51","710","005000","51710005000","50",Census Tract,G5020,S,2615719,1305027,"+36.8333375","-076.2836407",BERKLEY,0.087355736459889,0.000396052114722707,"0510",LIBERTY & GRAYSON,36.829883,-76.281389
"49","51","710","005000","51710005000","50",Census Tract,G5020,S,2615719,1305027,"+36.8333375","-076.2836407",BERKLEY,0.087355736459889,0.000396052114722707,"0511",MAIN & BERKLEY,36.832156,-76.283396
"49","51","710","005000","51710005000","50",Census Tract,G5020,S,2615719,1305027,"+36.8333375","-076.2836407",BERKLEY,0.087355736459889,0.000396052114722707,"5532",LIBERTY & CULPEPPER,36.828236,-76.279728
"50","51","710","005100","51710005100","51",Census Tract,G5020,S,2798912,835633,"+36.8322313","-076.2588821",CAMPOSTELLA HEIGHTS,0.0803917847637155,0.000367135725027275,"0758",INDIAN RIVER & OAKWOOD,36.831309,-76.25911
"50","51","710","005100","51710005100","51",Census Tract,G5020,S,2798912,835633,"+36.8322313","-076.2588821",CAMPOSTELLA HEIGHTS,0.0803917847637155,0.000367135725027275,"0761",INDIAN RIVER & FORD,36.830126,-76.253709
"50","51","710","005100","51710005100","51",Census Tract,G5020,S,2798912,835633,"+36.8322313","-076.2588821",CAMPOSTELLA HEIGHTS,0.0803917847637155,0.000367135725027275,"0818",WILSON & CYPRESS,36.82837,-76.266327
"50","51","710","005100","51710005100","51",Census Tract,G5020,S,2798912,835633,"+36.8322313","-076.2588821",CAMPOSTELLA HEIGHTS,0.0803917847637155,0.000367135725027275,"0819",WILSON & MANSON,36.826327,-76.267744
"50","51","710","005100","51710005100","51",Census Tract,G5020,S,2798912,835633,"+36.8322313","-076.2588821",CAMPOSTELLA HEIGHTS,0.0803917847637155,0.000367135725027275,"0826",CAMPOSTELLA & INDIAN RIVER,36.831079,-76.261836
"50","51","710","005100","51710005100","51",Census Tract,G5020,S,2798912,835633,"+36.8322313","-076.2588821",CAMPOSTELLA HEIGHTS,0.0803917847637155,0.000367135725027275,"0827",MELON & CAMPOSTELLA,36.827627,-76.262875
"50","51","710","005100","51710005100","51",Census Tract,G5020,S,2798912,835633,"+36.8322313","-076.2588821",CAMPOSTELLA HEIGHTS,0.0803917847637155,0.000367135725027275,"0860",CAMPOSTELLA & BERKLEY,36.82374,-76.260499
"50","51","710","005100","51710005100","51",Census Tract,G5020,S,2798912,835633,"+36.8322313","-076.2588821",CAMPOSTELLA HEIGHTS,0.0803917847637155,0.000367135725027275,"0861",CAMPOSTELLA & MELON,36.828225,-76.260938
"50","51","710","005100","51710005100","51",Census Tract,G5020,S,2798912,835633,"+36.8322313","-076.2588821",CAMPOSTELLA HEIGHTS,0.0803917847637155,0.000367135725027275,"0862",CAMPOSTELLA & CANTON,36.831936,-76.261651
"50","51","710","005100","51710005100","51",Census Tract,G5020,S,2798912,835633,"+36.8322313","-076.2588821",CAMPOSTELLA HEIGHTS,0.0803917847637155,0.000367135725027275,"0863",CAMPOSTELLA & ARLINGTON,36.835301,-76.26295
"50","51","710","005100","51710005100","51",Census Tract,G5020,S,2798912,835633,"+36.8322313","-076.2588821",CAMPOSTELLA HEIGHTS,0.0803917847637155,0.000367135725027275,"0961",INDIAN RIVER & CAMPOS,36.830817,-76.259607
"50","51","710","005100","51710005100","51",Census Tract,G5020,S,2798912,835633,"+36.8322313","-076.2588821",CAMPOSTELLA HEIGHTS,0.0803917847637155,0.000367135725027275,"3082",INDIAN RIVER & ELKIN,36.830851,-76.263264
"50","51","710","005100","51710005100","51",Census Tract,G5020,S,2798912,835633,"+36.8322313","-076.2588821",CAMPOSTELLA HEIGHTS,0.0803917847637155,0.000367135725027275,"3089",INDIAN RIVER & ELKIN,36.830698,-76.263436
"50","51","710","005100","51710005100","51",Census Tract,G5020,S,2798912,835633,"+36.8322313","-076.2588821",CAMPOSTELLA HEIGHTS,0.0803917847637155,0.000367135725027275,"3831",INDIAN RIVER & FORD,36.830611,-76.254086
"50","51","710","005100","51710005100","51",Census Tract,G5020,S,2798912,835633,"+36.8322313","-076.2588821",CAMPOSTELLA HEIGHTS,0.0803917847637155,0.000367135725027275,"3836",CAMPOSTELLA & ELKIN,36.832779,-76.262184
"50","51","710","005100","51710005100","51",Census Tract,G5020,S,2798912,835633,"+36.8322313","-076.2588821",CAMPOSTELLA HEIGHTS,0.0803917847637155,0.000367135725027275,"3838",MELON & VINE,36.825614,-76.264385
"50","51","710","005100","51710005100","51",Census Tract,G5020,S,2798912,835633,"+36.8322313","-076.2588821",CAMPOSTELLA HEIGHTS,0.0803917847637155,0.000367135725027275,"3839",BERKLEY & CRYSTAL,36.824969,-76.26678
"50","51","710","005100","51710005100","51",Census Tract,G5020,S,2798912,835633,"+36.8322313","-076.2588821",CAMPOSTELLA HEIGHTS,0.0803917847637155,0.000367135725027275,"5759",WILSON & MANSON,36.826356,-76.267624
"50","51","710","005100","51710005100","51",Census Tract,G5020,S,2798912,835633,"+36.8322313","-076.2588821",CAMPOSTELLA HEIGHTS,0.0803917847637155,0.000367135725027275,"5947",WILSON & CASS,36.829771,-76.265196
"50","51","710","005100","51710005100","51",Census Tract,G5020,S,2798912,835633,"+36.8322313","-076.2588821",CAMPOSTELLA HEIGHTS,0.0803917847637155,0.000367135725027275,"5961",CAMPOSTELLA & GREENLEAF,36.82531,-76.260591
"51","51","710","005500","51710005500","55",Census Tract,G5020,S,2159620,55715,"+36.9233475","-076.2612573",MONTICELLO VILLAGE,0.0634532918465403,0.000224041077786114,"0882",TAUSSIG & GRANBY,36.917803,-76.271258
"51","51","710","005500","51710005500","55",Census Tract,G5020,S,2159620,55715,"+36.9233475","-076.2612573",MONTICELLO VILLAGE,0.0634532918465403,0.000224041077786114,"0883",TAUSSIG & LITTLE CREEK,36.917326,-76.269463
"51","51","710","005500","51710005500","55",Census Tract,G5020,S,2159620,55715,"+36.9233475","-076.2612573",MONTICELLO VILLAGE,0.0634532918465403,0.000224041077786114,"0887",LITTLE CREEK & VAN PATTEN,36.91682,-76.256375
"51","51","710","005500","51710005500","55",Census Tract,G5020,S,2159620,55715,"+36.9233475","-076.2612573",MONTICELLO VILLAGE,0.0634532918465403,0.000224041077786114,"0963",LITTLE CREEK & GALVESTON,36.918263,-76.26219
"51","51","710","005500","51710005500","55",Census Tract,G5020,S,2159620,55715,"+36.9233475","-076.2612573",MONTICELLO VILLAGE,0.0634532918465403,0.000224041077786114,"0964",LITTLE CREEK & WEST GLEN,36.91776,-76.265298
"51","51","710","005500","51710005500","55",Census Tract,G5020,S,2159620,55715,"+36.9233475","-076.2612573",MONTICELLO VILLAGE,0.0634532918465403,0.000224041077786114,"0965",TAUSSIG & LITTLE CREEK,36.917607,-76.270024
"51","51","710","005500","51710005500","55",Census Tract,G5020,S,2159620,55715,"+36.9233475","-076.2612573",MONTICELLO VILLAGE,0.0634532918465403,0.000224041077786114,"5724",TIDEWATER &  NORMAN,36.927625,-76.253057
"51","51","710","005500","51710005500","55",Census Tract,G5020,S,2159620,55715,"+36.9233475","-076.2612573",MONTICELLO VILLAGE,0.0634532918465403,0.000224041077786114,"5725",TIDEWATER & MARVIN,36.924702,-76.252626
"51","51","710","005500","51710005500","55",Census Tract,G5020,S,2159620,55715,"+36.9233475","-076.2612573",MONTICELLO VILLAGE,0.0634532918465403,0.000224041077786114,"5726",TIDEWATER & LEONARD,36.920297,-76.253362
"51","51","710","005500","51710005500","55",Census Tract,G5020,S,2159620,55715,"+36.9233475","-076.2612573",MONTICELLO VILLAGE,0.0634532918465403,0.000224041077786114,"5846",LITTLE CREEK & VANPATTEN,36.916826,-76.255972
"52","51","710","005601","51710005601","56.01",Census Tract,G5020,S,2037014,32119,"+36.9296465","-076.2264060","BAYVIEW (SOUTH), SNUG HARBOR",0.0795576114879685,0.000209269603814439,"0323",CHESAPEAKE & FRANK,36.926413,-76.243141
"52","51","710","005601","51710005601","56.01",Census Tract,G5020,S,2037014,32119,"+36.9296465","-076.2264060","BAYVIEW (SOUTH), SNUG HARBOR",0.0795576114879685,0.000209269603814439,"0349",CHESAPEAKE & SHEPPARD,36.923932,-76.243065
"52","51","710","005601","51710005601","56.01",Census Tract,G5020,S,2037014,32119,"+36.9296465","-076.2264060","BAYVIEW (SOUTH), SNUG HARBOR",0.0795576114879685,0.000209269603814439,"5721",TIDEWATER & MARVIN,36.925112,-76.252367
"52","51","710","005601","51710005601","56.01",Census Tract,G5020,S,2037014,32119,"+36.9296465","-076.2264060","BAYVIEW (SOUTH), SNUG HARBOR",0.0795576114879685,0.000209269603814439,"5722",TIDEWATER & NORMAN,36.929237,-76.253021
"53","51","710","005602","51710005602","56.02",Census Tract,G5020,S,1559973,4335,"+36.9195388","-076.2439189","BAYVIEW (SOUTH), FOREST PARK",0.0559237900203007,0.000158193338218933,"0318",CHESAPEAKE & LITTLE CREEK,36.915209,-76.241387
"53","51","710","005602","51710005602","56.02",Census Tract,G5020,S,1559973,4335,"+36.9195388","-076.2439189","BAYVIEW (SOUTH), FOREST PARK",0.0559237900203007,0.000158193338218933,"0319",CHESAPEAKE & ELK,36.917801,-76.24178
"53","51","710","005602","51710005602","56.02",Census Tract,G5020,S,1559973,4335,"+36.9195388","-076.2439189","BAYVIEW (SOUTH), FOREST PARK",0.0559237900203007,0.000158193338218933,"0322",CHESAPEAKE & SHEPPARD,36.923773,-76.242736
"53","51","710","005602","51710005602","56.02",Census Tract,G5020,S,1559973,4335,"+36.9195388","-076.2439189","BAYVIEW (SOUTH), FOREST PARK",0.0559237900203007,0.000158193338218933,"0351",CHESAPEAKE & BURKSDALE,36.919975,-76.242451
"53","51","710","005602","51710005602","56.02",Census Tract,G5020,S,1559973,4335,"+36.9195388","-076.2439189","BAYVIEW (SOUTH), FOREST PARK",0.0559237900203007,0.000158193338218933,"0352",CHESAPEAKE & DOVERCOURT,36.916779,-76.241996
"53","51","710","005602","51710005602","56.02",Census Tract,G5020,S,1559973,4335,"+36.9195388","-076.2439189","BAYVIEW (SOUTH), FOREST PARK",0.0559237900203007,0.000158193338218933,"0353",CHESAPEAKE & LITTLE CREEK,36.914937,-76.241687
"53","51","710","005602","51710005602","56.02",Census Tract,G5020,S,1559973,4335,"+36.9195388","-076.2439189","BAYVIEW (SOUTH), FOREST PARK",0.0559237900203007,0.000158193338218933,"0579",LITTLE CREEK & MOOSE,36.915925,-76.236177
"53","51","710","005602","51710005602","56.02",Census Tract,G5020,S,1559973,4335,"+36.9195388","-076.2439189","BAYVIEW (SOUTH), FOREST PARK",0.0559237900203007,0.000158193338218933,"0581",LITTLE CREEK & ELTON,36.915407,-76.249227
"53","51","710","005602","51710005602","56.02",Census Tract,G5020,S,1559973,4335,"+36.9195388","-076.2439189","BAYVIEW (SOUTH), FOREST PARK",0.0559237900203007,0.000158193338218933,"0582",LITTLE CREEK RD & OLD OCEAN VIEW,36.915687,-76.251373
"53","51","710","005602","51710005602","56.02",Census Tract,G5020,S,1559973,4335,"+36.9195388","-076.2439189","BAYVIEW (SOUTH), FOREST PARK",0.0559237900203007,0.000158193338218933,"3336",LITTLE CREEK & MERRITT,36.915081,-76.246327
"53","51","710","005602","51710005602","56.02",Census Tract,G5020,S,1559973,4335,"+36.9195388","-076.2439189","BAYVIEW (SOUTH), FOREST PARK",0.0559237900203007,0.000158193338218933,"5720",TIDEWATER & LEONARD,36.920771,-76.253004
"54","51","710","005701","51710005701","57.01",Census Tract,G5020,S,2142240,0,"+36.9109254","-076.2552972",SOUTHERN SHOPPING CENTER,0.0695720812698741,0.000216613496158449,"0540",TIDEWATER & LITTLE CREEK,36.912741,-76.255056
"54","51","710","005701","51710005701","57.01",Census Tract,G5020,S,2142240,0,"+36.9109254","-076.2552972",SOUTHERN SHOPPING CENTER,0.0695720812698741,0.000216613496158449,"0541",LITTLE CREEK & HAROLD,36.915814,-76.25297
"54","51","710","005701","51710005701","57.01",Census Tract,G5020,S,2142240,0,"+36.9109254","-076.2552972",SOUTHERN SHOPPING CENTER,0.0695720812698741,0.000216613496158449,"0583",TIDEWATER & LITTLE CREEK,36.914665,-76.254654
"54","51","710","005701","51710005701","57.01",Census Tract,G5020,S,2142240,0,"+36.9109254","-076.2552972",SOUTHERN SHOPPING CENTER,0.0695720812698741,0.000216613496158449,"0584",TIDEWATER & BILTMORE,36.909898,-76.256208
"54","51","710","005701","51710005701","57.01",Census Tract,G5020,S,2142240,0,"+36.9109254","-076.2552972",SOUTHERN SHOPPING CENTER,0.0695720812698741,0.000216613496158449,"0665",SEWELLS POINT & AVENUE I,36.912953,-76.247619
"54","51","710","005701","51710005701","57.01",Census Tract,G5020,S,2142240,0,"+36.9109254","-076.2552972",SOUTHERN SHOPPING CENTER,0.0695720812698741,0.000216613496158449,"0666",SEWELLS POINT & DENISON,36.910339,-76.245908
"54","51","710","005701","51710005701","57.01",Census Tract,G5020,S,2142240,0,"+36.9109254","-076.2552972",SOUTHERN SHOPPING CENTER,0.0695720812698741,0.000216613496158449,"0667",SEWELLS POINT & AVENUE E,36.907754,-76.244567
"54","51","710","005701","51710005701","57.01",Census Tract,G5020,S,2142240,0,"+36.9109254","-076.2552972",SOUTHERN SHOPPING CENTER,0.0695720812698741,0.000216613496158449,"0669",SEWELLS POINT & KITTRELL,36.90428,-76.242952
"54","51","710","005701","51710005701","57.01",Census Tract,G5020,S,2142240,0,"+36.9109254","-076.2552972",SOUTHERN SHOPPING CENTER,0.0695720812698741,0.000216613496158449,"0884",LITTLE CREEK & FORT WORTH,36.917755,-76.264653
"54","51","710","005701","51710005701","57.01",Census Tract,G5020,S,2142240,0,"+36.9109254","-076.2552972",SOUTHERN SHOPPING CENTER,0.0695720812698741,0.000216613496158449,"0885",LITTLE CREEK & GALVESTON,36.918012,-76.262017
"54","51","710","005701","51710005701","57.01",Census Tract,G5020,S,2142240,0,"+36.9109254","-076.2552972",SOUTHERN SHOPPING CENTER,0.0695720812698741,0.000216613496158449,"0886",LITTLE CREEK & DALLAS,36.917419,-76.258884
"54","51","710","005701","51710005701","57.01",Census Tract,G5020,S,2142240,0,"+36.9109254","-076.2552972",SOUTHERN SHOPPING CENTER,0.0695720812698741,0.000216613496158449,"3101",TIDEWATER & STANLEY,36.912841,-76.25517
"54","51","710","005701","51710005701","57.01",Census Tract,G5020,S,2142240,0,"+36.9109254","-076.2552972",SOUTHERN SHOPPING CENTER,0.0695720812698741,0.000216613496158449,"3849",TIDEWATER & EASY,36.91021,-76.2559
"55","51","710","005702","51710005702","57.02",Census Tract,G5020,S,1774921,3673,"+36.8945845","-076.2506421",SEWELLS GARDENS,0.0679345820577189,0.000179813689732404,"0539",TIDEWATER & WIDGEON,36.900328,-76.255939
"55","51","710","005702","51710005702","57.02",Census Tract,G5020,S,1774921,3673,"+36.8945845","-076.2506421",SEWELLS GARDENS,0.0679345820577189,0.000179813689732404,"0586",TIDEWATER & WIDGEON,36.900968,-76.256469
"55","51","710","005702","51710005702","57.02",Census Tract,G5020,S,1774921,3673,"+36.8945845","-076.2506421",SEWELLS GARDENS,0.0679345820577189,0.000179813689732404,"0675",SEWELLS POINT & QUAIL,36.896589,-76.240911
"55","51","710","005702","51710005702","57.02",Census Tract,G5020,S,1774921,3673,"+36.8945845","-076.2506421",SEWELLS GARDENS,0.0679345820577189,0.000179813689732404,"6125",SEWELLS POINT & MARIETTA,36.899544,-76.242429
"55","51","710","005702","51710005702","57.02",Census Tract,G5020,S,1774921,3673,"+36.8945845","-076.2506421",SEWELLS GARDENS,0.0679345820577189,0.000179813689732404,"6126",SEWELLS POINT & WIDGEON,36.901825,-76.242652
"56","51","710","005800","51710005800","58",Census Tract,G5020,S,1570326,0,"+36.9077427","-076.2385958","ROSEMONT, OAKWOOD",0.0646572670433921,0.000158777473682948,"0315",CHESAPEAKE & ROSEFIELD,36.911102,-76.240749
"56","51","710","005800","51710005800","58",Census Tract,G5020,S,1570326,0,"+36.9077427","-076.2385958","ROSEMONT, OAKWOOD",0.0646572670433921,0.000158777473682948,"0317",EVELYN BUTTS & AVENUE J,36.913998,-76.243418
"56","51","710","005800","51710005800","58",Census Tract,G5020,S,1570326,0,"+36.9077427","-076.2385958","ROSEMONT, OAKWOOD",0.0646572670433921,0.000158777473682948,"0354",EVELYN BUTTS & AVENUE J,36.913906,-76.243577
"56","51","710","005800","51710005800","58",Census Tract,G5020,S,1570326,0,"+36.9077427","-076.2385958","ROSEMONT, OAKWOOD",0.0646572670433921,0.000158777473682948,"0355",CHESAPEAKE & AVE I,36.912803,-76.241365
"56","51","710","005800","51710005800","58",Census Tract,G5020,S,1570326,0,"+36.9077427","-076.2385958","ROSEMONT, OAKWOOD",0.0646572670433921,0.000158777473682948,"0357",CHESAPEAKE & JOHNSTONS,36.907352,-76.24044
"56","51","710","005800","51710005800","58",Census Tract,G5020,S,1570326,0,"+36.9077427","-076.2385958","ROSEMONT, OAKWOOD",0.0646572670433921,0.000158777473682948,"0359",CHESAPEAKE & KITRELL,36.905114,-76.240119
"56","51","710","005800","51710005800","58",Census Tract,G5020,S,1570326,0,"+36.9077427","-076.2385958","ROSEMONT, OAKWOOD",0.0646572670433921,0.000158777473682948,"0542",LITTLE CREEK & SEWELLS POINT,36.915163,-76.24985
"56","51","710","005800","51710005800","58",Census Tract,G5020,S,1570326,0,"+36.9077427","-076.2385958","ROSEMONT, OAKWOOD",0.0646572670433921,0.000158777473682948,"0543",LITTLE CREEK & MERRITT,36.914913,-76.246293
"56","51","710","005800","51710005800","58",Census Tract,G5020,S,1570326,0,"+36.9077427","-076.2385958","ROSEMONT, OAKWOOD",0.0646572670433921,0.000158777473682948,"0660",SEWELLS POINT & KITTREL,36.904331,-76.242818
"56","51","710","005800","51710005800","58",Census Tract,G5020,S,1570326,0,"+36.9077427","-076.2385958","ROSEMONT, OAKWOOD",0.0646572670433921,0.000158777473682948,"0662",SEWELLS POINT & AVENUE E,36.908209,-76.244668
"56","51","710","005800","51710005800","58",Census Tract,G5020,S,1570326,0,"+36.9077427","-076.2385958","ROSEMONT, OAKWOOD",0.0646572670433921,0.000158777473682948,"0663",SEWELLS POINT & DENISON,36.910401,-76.245794
"56","51","710","005800","51710005800","58",Census Tract,G5020,S,1570326,0,"+36.9077427","-076.2385958","ROSEMONT, OAKWOOD",0.0646572670433921,0.000158777473682948,"0664",SEWELLS POINT & AVENUE I,36.913249,-76.247746
"56","51","710","005800","51710005800","58",Census Tract,G5020,S,1570326,0,"+36.9077427","-076.2385958","ROSEMONT, OAKWOOD",0.0646572670433921,0.000158777473682948,"0888",JOHNSTONS & AUBURN,36.90775,-76.238553
"56","51","710","005800","51710005800","58",Census Tract,G5020,S,1570326,0,"+36.9077427","-076.2385958","ROSEMONT, OAKWOOD",0.0646572670433921,0.000158777473682948,"0890",JOHNSTONS & MILITARY,36.908477,-76.23496
"56","51","710","005800","51710005800","58",Census Tract,G5020,S,1570326,0,"+36.9077427","-076.2385958","ROSEMONT, OAKWOOD",0.0646572670433921,0.000158777473682948,"0891",MILITARY & JOHNSTONS,36.906843,-76.232535
"56","51","710","005800","51710005800","58",Census Tract,G5020,S,1570326,0,"+36.9077427","-076.2385958","ROSEMONT, OAKWOOD",0.0646572670433921,0.000158777473682948,"0892",MILITARY & SPRINGMEADOW,36.904021,-76.230478
"56","51","710","005800","51710005800","58",Census Tract,G5020,S,1570326,0,"+36.9077427","-076.2385958","ROSEMONT, OAKWOOD",0.0646572670433921,0.000158777473682948,"0957",JOHNSTONS & MILITARY,36.908798,-76.234733
"56","51","710","005800","51710005800","58",Census Tract,G5020,S,1570326,0,"+36.9077427","-076.2385958","ROSEMONT, OAKWOOD",0.0646572670433921,0.000158777473682948,"0959",JOHNSTONS & ROSEMONT,36.907862,-76.238279
"56","51","710","005800","51710005800","58",Census Tract,G5020,S,1570326,0,"+36.9077427","-076.2385958","ROSEMONT, OAKWOOD",0.0646572670433921,0.000158777473682948,"3880",CHESAPEAKE & JOHNSTONS,36.908676,-76.240328
"57","51","710","005901","51710005901","59.01",Census Tract,G5020,S,1476951,0,"+36.8966114","-076.2340508","WELLINGTON OAKS, NORVIEW",0.0571395482334256,0.000149315633688166,"0303",CHESAPEAKE & CURIE,36.897507,-76.238578
"57","51","710","005901","51710005901","59.01",Census Tract,G5020,S,1476951,0,"+36.8966114","-076.2340508","WELLINGTON OAKS, NORVIEW",0.0571395482334256,0.000149315633688166,"0310",CHESAPEAKE & GREEN,36.891341,-76.237649
"57","51","710","005901","51710005901","59.01",Census Tract,G5020,S,1476951,0,"+36.8966114","-076.2340508","WELLINGTON OAKS, NORVIEW",0.0571395482334256,0.000149315633688166,"0311",CHESAPEAKE & STRAND,36.895304,-76.238225
"57","51","710","005901","51710005901","59.01",Census Tract,G5020,S,1476951,0,"+36.8966114","-076.2340508","WELLINGTON OAKS, NORVIEW",0.0571395482334256,0.000149315633688166,"0312",CHESAPEAKE & DUNDALE,36.900768,-76.239094
"57","51","710","005901","51710005901","59.01",Census Tract,G5020,S,1476951,0,"+36.8966114","-076.2340508","WELLINGTON OAKS, NORVIEW",0.0571395482334256,0.000149315633688166,"0360",CHESAPEAKE & DUNDALE,36.899659,-76.239255
"57","51","710","005901","51710005901","59.01",Census Tract,G5020,S,1476951,0,"+36.8966114","-076.2340508","WELLINGTON OAKS, NORVIEW",0.0571395482334256,0.000149315633688166,"0362",CHESAPEAKE & PICADILLY,36.897117,-76.238827
"57","51","710","005901","51710005901","59.01",Census Tract,G5020,S,1476951,0,"+36.8966114","-076.2340508","WELLINGTON OAKS, NORVIEW",0.0571395482334256,0.000149315633688166,"0363",CHESAPEAKE & STRAND,36.893576,-76.238275
"57","51","710","005901","51710005901","59.01",Census Tract,G5020,S,1476951,0,"+36.8966114","-076.2340508","WELLINGTON OAKS, NORVIEW",0.0571395482334256,0.000149315633688166,"0364",CHESAPEAKE & GREEN,36.891756,-76.237997
"57","51","710","005901","51710005901","59.01",Census Tract,G5020,S,1476951,0,"+36.8966114","-076.2340508","WELLINGTON OAKS, NORVIEW",0.0571395482334256,0.000149315633688166,"0649",SEWELLS POINT & PARTRIDGE,36.895391,-76.239889
"57","51","710","005901","51710005901","59.01",Census Tract,G5020,S,1476951,0,"+36.8966114","-076.2340508","WELLINGTON OAKS, NORVIEW",0.0571395482334256,0.000149315633688166,"0650",SEWELLS POINT & QUAIL,36.897209,-76.241295
"57","51","710","005901","51710005901","59.01",Census Tract,G5020,S,1476951,0,"+36.8966114","-076.2340508","WELLINGTON OAKS, NORVIEW",0.0571395482334256,0.000149315633688166,"0651",SEWELLS POINT & MARIETTA,36.899456,-76.242287
"57","51","710","005901","51710005901","59.01",Census Tract,G5020,S,1476951,0,"+36.8966114","-076.2340508","WELLINGTON OAKS, NORVIEW",0.0571395482334256,0.000149315633688166,"0774",SEWELLS POINT & GREENWOOD,36.893354,-76.238941
"57","51","710","005901","51710005901","59.01",Census Tract,G5020,S,1476951,0,"+36.8966114","-076.2340508","WELLINGTON OAKS, NORVIEW",0.0571395482334256,0.000149315633688166,"0893",MILITARY & LONGDALE,36.900994,-76.228274
"57","51","710","005901","51710005901","59.01",Census Tract,G5020,S,1476951,0,"+36.8966114","-076.2340508","WELLINGTON OAKS, NORVIEW",0.0571395482334256,0.000149315633688166,"0895",MILITARY & CRESCENT,36.898179,-76.226142
"57","51","710","005901","51710005901","59.01",Census Tract,G5020,S,1476951,0,"+36.8966114","-076.2340508","WELLINGTON OAKS, NORVIEW",0.0571395482334256,0.000149315633688166,"0896",MILITARY & INTERNATIONAL,36.896219,-76.224779
"57","51","710","005901","51710005901","59.01",Census Tract,G5020,S,1476951,0,"+36.8966114","-076.2340508","WELLINGTON OAKS, NORVIEW",0.0571395482334256,0.000149315633688166,"6127",SEWELLS POINT & WIDGEON,36.902052,-76.242548
"58","51","710","005902","51710005902","59.02",Census Tract,G5020,S,2035249,0,"+36.8861708","-076.2276761",NORVELLA HEIGHTS,0.067724758444731,0.000205729571432105,"0645",SEWELLS POINT & LITTLE JOHN,36.879024,-76.233351
"58","51","710","005902","51710005902","59.02",Census Tract,G5020,S,2035249,0,"+36.8861708","-076.2276761",NORVELLA HEIGHTS,0.067724758444731,0.000205729571432105,"0646",SEWELLS POINT & KENNEBECK,36.881502,-76.233734
"58","51","710","005902","51710005902","59.02",Census Tract,G5020,S,2035249,0,"+36.8861708","-076.2276761",NORVELLA HEIGHTS,0.067724758444731,0.000205729571432105,"0647",SEWELLS POINT & NORVIEW,36.888963,-76.238139
"58","51","710","005902","51710005902","59.02",Census Tract,G5020,S,2035249,0,"+36.8861708","-076.2276761",NORVELLA HEIGHTS,0.067724758444731,0.000205729571432105,"0771",SEWELLS POINT & TEXAS,36.885672,-76.235777
"58","51","710","005902","51710005902","59.02",Census Tract,G5020,S,2035249,0,"+36.8861708","-076.2276761",NORVELLA HEIGHTS,0.067724758444731,0.000205729571432105,"0898",MILITARY & NORVELLA,36.892958,-76.222396
"58","51","710","005902","51710005902","59.02",Census Tract,G5020,S,2035249,0,"+36.8861708","-076.2276761",NORVELLA HEIGHTS,0.067724758444731,0.000205729571432105,"0900",AZALEA GARDEN & IOWA,36.888216,-76.221105
"58","51","710","005902","51710005902","59.02",Census Tract,G5020,S,2035249,0,"+36.8861708","-076.2276761",NORVELLA HEIGHTS,0.067724758444731,0.000205729571432105,"0901",AZALEA GARDEN & WINDERMERE,36.885557,-76.222801
"58","51","710","005902","51710005902","59.02",Census Tract,G5020,S,2035249,0,"+36.8861708","-076.2276761",NORVELLA HEIGHTS,0.067724758444731,0.000205729571432105,"0903",AZALEA GARDEN & BEAMON,36.881334,-76.2255
"58","51","710","005902","51710005902","59.02",Census Tract,G5020,S,2035249,0,"+36.8861708","-076.2276761",NORVELLA HEIGHTS,0.067724758444731,0.000205729571432105,"3879",AZALEA GARDEN & FARIS,36.888405,-76.220838
"59","51","710","005903","51710005903","59.03",Census Tract,G5020,S,1449571,0,"+36.8780178","-076.2224828","FOX HALL, COMMERCE PARK",0.0616240155476043,0.000146512532153835,"0626",SEWELLS POINT & DENVER,36.871757,-76.232128
"59","51","710","005903","51710005903","59.03",Census Tract,G5020,S,1449571,0,"+36.8780178","-076.2224828","FOX HALL, COMMERCE PARK",0.0616240155476043,0.000146512532153835,"0644",SEWELLS POINT & BRUCE,36.875154,-76.232694
"59","51","710","005903","51710005903","59.03",Census Tract,G5020,S,1449571,0,"+36.8780178","-076.2224828","FOX HALL, COMMERCE PARK",0.0616240155476043,0.000146512532153835,"0905",ROBIN HOOD & WALMER,36.879025,-76.226195
"59","51","710","005903","51710005903","59.03",Census Tract,G5020,S,1449571,0,"+36.8780178","-076.2224828","FOX HALL, COMMERCE PARK",0.0616240155476043,0.000146512532153835,"0907",ROBIN HOOD & AYLIFF,36.879943,-76.221583
"59","51","710","005903","51710005903","59.03",Census Tract,G5020,S,1449571,0,"+36.8780178","-076.2224828","FOX HALL, COMMERCE PARK",0.0616240155476043,0.000146512532153835,"0908",ROBIN HOOD & ALMEDA,36.881514,-76.216691
"59","51","710","005903","51710005903","59.03",Census Tract,G5020,S,1449571,0,"+36.8780178","-076.2224828","FOX HALL, COMMERCE PARK",0.0616240155476043,0.000146512532153835,"0943",MILITARY & ROBIN HOOD,36.880089,-76.212614
"59","51","710","005903","51710005903","59.03",Census Tract,G5020,S,1449571,0,"+36.8780178","-076.2224828","FOX HALL, COMMERCE PARK",0.0616240155476043,0.000146512532153835,"0944",ROBIN HOOD & ALMEDA,36.881003,-76.218286
"59","51","710","005903","51710005903","59.03",Census Tract,G5020,S,1449571,0,"+36.8780178","-076.2224828","FOX HALL, COMMERCE PARK",0.0616240155476043,0.000146512532153835,"0945",ROBIN HOOD & AYLIFF,36.880245,-76.220812
"59","51","710","005903","51710005903","59.03",Census Tract,G5020,S,1449571,0,"+36.8780178","-076.2224828","FOX HALL, COMMERCE PARK",0.0616240155476043,0.000146512532153835,"0946",ROBIN HOOD & AZALEA GARDEN,36.879307,-76.226525
"59","51","710","005903","51710005903","59.03",Census Tract,G5020,S,1449571,0,"+36.8780178","-076.2224828","FOX HALL, COMMERCE PARK",0.0616240155476043,0.000146512532153835,"0947",AZALEA GARDEN & BEAMON,36.881909,-76.225018
"60","51","710","006000","51710006000","60",Census Tract,G5020,S,1657679,20936,"+36.8874176","-076.2438024","NORVIEW, FIVE POINTS",0.0659952068088007,0.000169681466656946,"0307",CHESAPEAKE & LENOIR,36.885075,-76.244738
"60","51","710","006000","51710006000","60",Census Tract,G5020,S,1657679,20936,"+36.8874176","-076.2438024","NORVIEW, FIVE POINTS",0.0659952068088007,0.000169681466656946,"0309",CHESAPEAKE & NORVIEW,36.889139,-76.239358
"60","51","710","006000","51710006000","60",Census Tract,G5020,S,1657679,20936,"+36.8874176","-076.2438024","NORVIEW, FIVE POINTS",0.0659952068088007,0.000169681466656946,"0365",CHESAPEAKE & NORVIEW,36.889606,-76.23913
"60","51","710","006000","51710006000","60",Census Tract,G5020,S,1657679,20936,"+36.8874176","-076.2438024","NORVIEW, FIVE POINTS",0.0659952068088007,0.000169681466656946,"0367",CHESAPEAKE & CRAVEN,36.887825,-76.241893
"60","51","710","006000","51710006000","60",Census Tract,G5020,S,1657679,20936,"+36.8874176","-076.2438024","NORVIEW, FIVE POINTS",0.0659952068088007,0.000169681466656946,"0368",CHESAPEAKE & NANSEMOND,36.885544,-76.244632
"60","51","710","006000","51710006000","60",Census Tract,G5020,S,1657679,20936,"+36.8874176","-076.2438024","NORVIEW, FIVE POINTS",0.0659952068088007,0.000169681466656946,"0370",CHESAPEAKE & WAYNE CREEK,36.884026,-76.245988
"60","51","710","006000","51710006000","60",Census Tract,G5020,S,1657679,20936,"+36.8874176","-076.2438024","NORVIEW, FIVE POINTS",0.0659952068088007,0.000169681466656946,"0676",SEWELLS POINT & GREENWOOD,36.892165,-76.238892
"60","51","710","006000","51710006000","60",Census Tract,G5020,S,1657679,20936,"+36.8874176","-076.2438024","NORVIEW, FIVE POINTS",0.0659952068088007,0.000169681466656946,"0677",SEWELLS POINT & CHESAPEAKE,36.888818,-76.238228
"60","51","710","006000","51710006000","60",Census Tract,G5020,S,1657679,20936,"+36.8874176","-076.2438024","NORVIEW, FIVE POINTS",0.0659952068088007,0.000169681466656946,"0680",SEWELLS POINT & WINDERMERE,36.883767,-76.234677
"60","51","710","006000","51710006000","60",Census Tract,G5020,S,1657679,20936,"+36.8874176","-076.2438024","NORVIEW, FIVE POINTS",0.0659952068088007,0.000169681466656946,"0681",SEWELLS POINT & KENNEBECK,36.881112,-76.233861
"60","51","710","006000","51710006000","60",Census Tract,G5020,S,1657679,20936,"+36.8874176","-076.2438024","NORVIEW, FIVE POINTS",0.0659952068088007,0.000169681466656946,"0717",SEWELLS POINT & NORVELLA,36.886376,-76.236492
"60","51","710","006000","51710006000","60",Census Tract,G5020,S,1657679,20936,"+36.8874176","-076.2438024","NORVIEW, FIVE POINTS",0.0659952068088007,0.000169681466656946,"0759",SEWELLS POINT & STRAND,36.894618,-76.239454
"61","51","710","006100","51710006100","61",Census Tract,G5020,S,3120448,30186,"+36.8745713","-076.2424994","ESTABROOK, COLEMAN PLACE",0.0887345691729952,0.000318427311240989,"0302",CHESAPEAKE & ROBINHOOD,36.878538,-76.24956
"61","51","710","006100","51710006100","61",Census Tract,G5020,S,3120448,30186,"+36.8745713","-076.2424994","ESTABROOK, COLEMAN PLACE",0.0887345691729952,0.000318427311240989,"0304",CHESAPEAKE & BUCKINGHAM,36.881237,-76.247307
"61","51","710","006100","51710006100","61",Census Tract,G5020,S,3120448,30186,"+36.8745713","-076.2424994","ESTABROOK, COLEMAN PLACE",0.0887345691729952,0.000318427311240989,"0371",CHESAPEAKE & NOTTAWAY,36.880122,-76.248374
"61","51","710","006100","51710006100","61",Census Tract,G5020,S,3120448,30186,"+36.8745713","-076.2424994","ESTABROOK, COLEMAN PLACE",0.0887345691729952,0.000318427311240989,"0372",CHESAPEAKE & ROBIN HOOD,36.878882,-76.2496
"61","51","710","006100","51710006100","61",Census Tract,G5020,S,3120448,30186,"+36.8745713","-076.2424994","ESTABROOK, COLEMAN PLACE",0.0887345691729952,0.000318427311240989,"0642",AZALEA GARDEN & EARLY,36.868798,-76.233424
"61","51","710","006100","51710006100","61",Census Tract,G5020,S,3120448,30186,"+36.8745713","-076.2424994","ESTABROOK, COLEMAN PLACE",0.0887345691729952,0.000318427311240989,"0682",SEWELLS POINT & LITTLE JOHN,36.87885,-76.233497
"61","51","710","006100","51710006100","61",Census Tract,G5020,S,3120448,30186,"+36.8745713","-076.2424994","ESTABROOK, COLEMAN PLACE",0.0887345691729952,0.000318427311240989,"0683",SEWELLS POINT & WOOLSEY,36.875194,-76.232889
"61","51","710","006100","51710006100","61",Census Tract,G5020,S,3120448,30186,"+36.8745713","-076.2424994","ESTABROOK, COLEMAN PLACE",0.0887345691729952,0.000318427311240989,"0684",AZALEA GARDEN & EARLY,36.868928,-76.233515
"61","51","710","006100","51710006100","61",Census Tract,G5020,S,3120448,30186,"+36.8745713","-076.2424994","ESTABROOK, COLEMAN PLACE",0.0887345691729952,0.000318427311240989,"0960",SEWELLS POINT & DENVER,36.871495,-76.232282
"61","51","710","006100","51710006100","61",Census Tract,G5020,S,3120448,30186,"+36.8745713","-076.2424994","ESTABROOK, COLEMAN PLACE",0.0887345691729952,0.000318427311240989,"1214",PRINCESS ANNE & EARLY,36.867186,-76.23151
"61","51","710","006100","51710006100","61",Census Tract,G5020,S,3120448,30186,"+36.8745713","-076.2424994","ESTABROOK, COLEMAN PLACE",0.0887345691729952,0.000318427311240989,"1216",PRINCESS ANNE & FAIRBANKS,36.865882,-76.238234
"61","51","710","006100","51710006100","61",Census Tract,G5020,S,3120448,30186,"+36.8745713","-076.2424994","ESTABROOK, COLEMAN PLACE",0.0887345691729952,0.000318427311240989,"1217",PRINCESS ANNE & MINNESOTA,36.864819,-76.24053
"61","51","710","006100","51710006100","61",Census Tract,G5020,S,3120448,30186,"+36.8745713","-076.2424994","ESTABROOK, COLEMAN PLACE",0.0887345691729952,0.000318427311240989,"2128",PRINCESS ANNE & AZALEA GARDEN,36.867053,-76.233633
"61","51","710","006100","51710006100","61",Census Tract,G5020,S,3120448,30186,"+36.8745713","-076.2424994","ESTABROOK, COLEMAN PLACE",0.0887345691729952,0.000318427311240989,"5752",PRINCESS ANNE & INGLESIDE,36.862159,-76.246335
"62","51","710","006200","51710006200","62",Census Tract,G5020,S,2232705,64281,"+36.8712580","-076.2161669","RIVER OAKS, FOXHALL",0.0862272751164254,0.000232145263622597,"0911",MILITARY & ELIZABETH,36.876367,-76.210799
"62","51","710","006200","51710006200","62",Census Tract,G5020,S,2232705,64281,"+36.8712580","-076.2161669","RIVER OAKS, FOXHALL",0.0862272751164254,0.000232145263622597,"0942",MILITARY & LAKE WRIGHT,36.877784,-76.211048
"62","51","710","006200","51710006200","62",Census Tract,G5020,S,2232705,64281,"+36.8712580","-076.2161669","RIVER OAKS, FOXHALL",0.0862272751164254,0.000232145263622597,"1194",PRINCESS ANNE & NORCOVA,36.868888,-76.227168
"62","51","710","006200","51710006200","62",Census Tract,G5020,S,2232705,64281,"+36.8712580","-076.2161669","RIVER OAKS, FOXHALL",0.0862272751164254,0.000232145263622597,"1195",PRINCESS ANNE & MCNEAL,36.870733,-76.223807
"62","51","710","006200","51710006200","62",Census Tract,G5020,S,2232705,64281,"+36.8712580","-076.2161669","RIVER OAKS, FOXHALL",0.0862272751164254,0.000232145263622597,"1197",PRINCESS ANNE & DARDEN,36.872684,-76.220199
"62","51","710","006200","51710006200","62",Census Tract,G5020,S,2232705,64281,"+36.8712580","-076.2161669","RIVER OAKS, FOXHALL",0.0862272751164254,0.000232145263622597,"1198",PRINCESS ANNE & GABRIEL,36.874199,-76.217385
"62","51","710","006200","51710006200","62",Census Tract,G5020,S,2232705,64281,"+36.8712580","-076.2161669","RIVER OAKS, FOXHALL",0.0862272751164254,0.000232145263622597,"1201",PRINCESS ANNE & MILITARY,36.874334,-76.208788
"62","51","710","006200","51710006200","62",Census Tract,G5020,S,2232705,64281,"+36.8712580","-076.2161669","RIVER OAKS, FOXHALL",0.0862272751164254,0.000232145263622597,"1207",PRINCESS ANNE & COWAND,36.875073,-76.212508
"62","51","710","006200","51710006200","62",Census Tract,G5020,S,2232705,64281,"+36.8712580","-076.2161669","RIVER OAKS, FOXHALL",0.0862272751164254,0.000232145263622597,"1208",PRINCESS ANNE & GABRIEL,36.874278,-76.217718
"62","51","710","006200","51710006200","62",Census Tract,G5020,S,2232705,64281,"+36.8712580","-076.2161669","RIVER OAKS, FOXHALL",0.0862272751164254,0.000232145263622597,"1209",PRINCESS ANNE & BEEKMAN,36.871576,-76.222706
"62","51","710","006200","51710006200","62",Census Tract,G5020,S,2232705,64281,"+36.8712580","-076.2161669","RIVER OAKS, FOXHALL",0.0862272751164254,0.000232145263622597,"1211",PRINCESS ANNE & HALSTEAD,36.870128,-76.225379
"62","51","710","006200","51710006200","62",Census Tract,G5020,S,2232705,64281,"+36.8712580","-076.2161669","RIVER OAKS, FOXHALL",0.0862272751164254,0.000232145263622597,"1212",PRINCESS ANNE & NORCOVA,36.868949,-76.227619
"62","51","710","006200","51710006200","62",Census Tract,G5020,S,2232705,64281,"+36.8712580","-076.2161669","RIVER OAKS, FOXHALL",0.0862272751164254,0.000232145263622597,"5448",KEMPSVILLE & TITANS,36.870479,-76.204316
"63","51","710","006400","51710006400","64",Census Tract,G5020,S,2326493,615556,"+36.8468363","-076.2345013","INGLESIDE, NORFOLK SQUARE",0.0710005100984341,0.000297243382551489,"0634",SCOTT & VIRGINIA BEACH,36.853195,-76.241958
"63","51","710","006400","51710006400","64",Census Tract,G5020,S,2326493,615556,"+36.8468363","-076.2345013","INGLESIDE, NORFOLK SQUARE",0.0710005100984341,0.000297243382551489,"0635",GATLING & TRICI,36.849899,-76.239941
"63","51","710","006400","51710006400","64",Census Tract,G5020,S,2326493,615556,"+36.8468363","-076.2345013","INGLESIDE, NORFOLK SQUARE",0.0710005100984341,0.000297243382551489,"0636",VIRGINIA BEACH & INGLESIDE,36.854527,-76.238818
"63","51","710","006400","51710006400","64",Census Tract,G5020,S,2326493,615556,"+36.8468363","-076.2345013","INGLESIDE, NORFOLK SQUARE",0.0710005100984341,0.000297243382551489,"0637",VIRGINIA BEACH & NORFOLK SQUARE,36.855261,-76.234851
"63","51","710","006400","51710006400","64",Census Tract,G5020,S,2326493,615556,"+36.8468363","-076.2345013","INGLESIDE, NORFOLK SQUARE",0.0710005100984341,0.000297243382551489,"0638",VIRGINIA BEACH & AZALEA GARDEN,36.855631,-76.232966
"63","51","710","006400","51710006400","64",Census Tract,G5020,S,2326493,615556,"+36.8468363","-076.2345013","INGLESIDE, NORFOLK SQUARE",0.0710005100984341,0.000297243382551489,"0691",GATLING & WAKEFIELD,36.849931,-76.237821
"63","51","710","006400","51710006400","64",Census Tract,G5020,S,2326493,615556,"+36.8468363","-076.2345013","INGLESIDE, NORFOLK SQUARE",0.0710005100984341,0.000297243382551489,"8009",INGLESIDE ROAD STATION,36.842736,-76.23502
"64","51","710","006501","51710006501","65.01",Census Tract,G5020,S,906095,96961,"+36.9326894","-076.2074346",EAST OCEAN VIEW,0.0452289259879831,0.00010145235225165,"0070",OCEAN VIEW & 3RD BAY,36.934911,-76.212704
"64","51","710","006501","51710006501","65.01",Census Tract,G5020,S,906095,96961,"+36.9326894","-076.2074346",EAST OCEAN VIEW,0.0452289259879831,0.00010145235225165,"0071",OCEAN VIEW & 7TH BAY,36.9341,-76.20953
"64","51","710","006501","51710006501","65.01",Census Tract,G5020,S,906095,96961,"+36.9326894","-076.2074346",EAST OCEAN VIEW,0.0452289259879831,0.00010145235225165,"0072",OCEAN VIEW & 10TH BAY,36.933115,-76.205746
"64","51","710","006501","51710006501","65.01",Census Tract,G5020,S,906095,96961,"+36.9326894","-076.2074346",EAST OCEAN VIEW,0.0452289259879831,0.00010145235225165,"0074",OCEAN VIEW & 14TH BAY,36.931915,-76.200956
"64","51","710","006501","51710006501","65.01",Census Tract,G5020,S,906095,96961,"+36.9326894","-076.2074346",EAST OCEAN VIEW,0.0452289259879831,0.00010145235225165,"0133",OCEAN VIEW & 14TH BAY,36.931902,-76.200404
"64","51","710","006501","51710006501","65.01",Census Tract,G5020,S,906095,96961,"+36.9326894","-076.2074346",EAST OCEAN VIEW,0.0452289259879831,0.00010145235225165,"0137",OCEAN VIEW & 10TH BAY,36.933125,-76.205138
"64","51","710","006501","51710006501","65.01",Census Tract,G5020,S,906095,96961,"+36.9326894","-076.2074346",EAST OCEAN VIEW,0.0452289259879831,0.00010145235225165,"0138",OCEAN VIEW & 6TH BAY,36.934484,-76.210343
"64","51","710","006501","51710006501","65.01",Census Tract,G5020,S,906095,96961,"+36.9326894","-076.2074346",EAST OCEAN VIEW,0.0452289259879831,0.00010145235225165,"0139",OCEAN VIEW & 2ND BAY,36.93547,-76.214096
"65","51","710","006502","51710006502","65.02",Census Tract,G5020,S,1249005,483012,"+36.9272754","-076.1875476",EAST OCEAN VIEW,0.0648745989224556,0.000175170301153431,"0075",OCEAN VIEW & 16TH BAY,36.931381,-76.198895
"65","51","710","006502","51710006502","65.02",Census Tract,G5020,S,1249005,483012,"+36.9272754","-076.1875476",EAST OCEAN VIEW,0.0648745989224556,0.000175170301153431,"0077",OCEAN VIEW & 20TH BAY,36.930475,-76.193606
"65","51","710","006502","51710006502","65.02",Census Tract,G5020,S,1249005,483012,"+36.9272754","-076.1875476",EAST OCEAN VIEW,0.0648745989224556,0.000175170301153431,"0079",SHORE & PLEASANT,36.928098,-76.191202
"65","51","710","006502","51710006502","65.02",Census Tract,G5020,S,1249005,483012,"+36.9272754","-076.1875476",EAST OCEAN VIEW,0.0648745989224556,0.000175170301153431,"0132",OCEAN VIEW & 19TH BAY,36.930883,-76.194834
"65","51","710","006502","51710006502","65.02",Census Tract,G5020,S,1249005,483012,"+36.9272754","-076.1875476",EAST OCEAN VIEW,0.0648745989224556,0.000175170301153431,"0869",SHORE & PLEASANT,36.928887,-76.191269
"66","51","710","006601","51710006601","66.01",Census Tract,G5020,S,771908,27766,"+36.9225214","-076.2303373","BEL AIRE, HEWITT FARMS",0.0478340304204881,8.08715704754856e-05,"0577",LITTLE CREEK & BISON,36.916907,-76.231874
"67","51","710","006602","51710006602","66.02",Census Tract,G5020,S,1499384,52855,"+36.9236080","-076.2200670","TARRALLTON, WEDGEWOOD",0.0557291081282117,0.000156980691407617,"0576",LITTLE CREEK & MEADOW CREEK,36.916939,-76.228484
"67","51","710","006602","51710006602","66.02",Census Tract,G5020,S,1499384,52855,"+36.9236080","-076.2200670","TARRALLTON, WEDGEWOOD",0.0557291081282117,0.000156980691407617,"5895",LITTLE CREEK & HALPRIN,36.91533,-76.221182
"68","51","710","006603","51710006603","66.03",Census Tract,G5020,S,1430197,314637,"+36.9231571","-076.2087613",NORTH CAMELLIA ACRES,0.0568569552210765,0.000176454863336572,"0567",LITTLE CREEK & WALTERS,36.917221,-76.203253
"68","51","710","006603","51710006603","66.03",Census Tract,G5020,S,1430197,314637,"+36.9231571","-076.2087613",NORTH CAMELLIA ACRES,0.0568569552210765,0.000176454863336572,"0568",LITTLE CREEK & NANCY,36.916597,-76.206553
"68","51","710","006603","51710006603","66.03",Census Tract,G5020,S,1430197,314637,"+36.9231571","-076.2087613",NORTH CAMELLIA ACRES,0.0568569552210765,0.000176454863336572,"0569",LITTLE CREEK & TARPON,36.915979,-76.209632
"68","51","710","006603","51710006603","66.03",Census Tract,G5020,S,1430197,314637,"+36.9231571","-076.2087613",NORTH CAMELLIA ACRES,0.0568569552210765,0.000176454863336572,"0570",LITTLE CREEK & AZALEA GARDEN,36.915441,-76.212397
"68","51","710","006603","51710006603","66.03",Census Tract,G5020,S,1430197,314637,"+36.9231571","-076.2087613",NORTH CAMELLIA ACRES,0.0568569552210765,0.000176454863336572,"0571",LITTLE CREEK & MONA,36.915305,-76.21548
"68","51","710","006603","51710006603","66.03",Census Tract,G5020,S,1430197,314637,"+36.9231571","-076.2087613",NORTH CAMELLIA ACRES,0.0568569552210765,0.000176454863336572,"0572",LITTLE CREEK & ROOSEVELT GARDENS,36.915292,-76.218401
"69","51","710","006604","51710006604","66.04",Census Tract,G5020,S,845726,205034,"+36.9209091","-076.1961035","SHORE DRIVE, CAMELLIA GARDENS",0.0431341709328828,0.000106262761022536,"0080",SHORE & DUNNING,36.921058,-76.192628
"69","51","710","006604","51710006604","66.04",Census Tract,G5020,S,845726,205034,"+36.9209091","-076.1961035","SHORE DRIVE, CAMELLIA GARDENS",0.0431341709328828,0.000106262761022536,"0129",SHORE & DUNNING,36.920597,-76.192435
"69","51","710","006604","51710006604","66.04",Census Tract,G5020,S,845726,205034,"+36.9209091","-076.1961035","SHORE DRIVE, CAMELLIA GARDENS",0.0431341709328828,0.000106262761022536,"0565",LITTLE CREEK & SHORE,36.918229,-76.193441
"69","51","710","006604","51710006604","66.04",Census Tract,G5020,S,845726,205034,"+36.9209091","-076.1961035","SHORE DRIVE, CAMELLIA GARDENS",0.0431341709328828,0.000106262761022536,"0566",LITTLE CREEK & WOODALL,36.9181,-76.19809
"70","51","710","006605","51710006605","66.05",Census Tract,G5020,S,1909209,380578,"+36.9123240","-076.2040159","CAMELLIA ACRES, SARATOGA",0.0844489667162626,0.000231538349755417,"0082",SHORE & FLOWERFIELD,36.915265,-76.191367
"70","51","710","006605","51710006605","66.05",Census Tract,G5020,S,1909209,380578,"+36.9123240","-076.2040159","CAMELLIA ACRES, SARATOGA",0.0844489667162626,0.000231538349755417,"0083",SHORE & HEUTTE,36.912779,-76.190159
"70","51","710","006605","51710006605","66.05",Census Tract,G5020,S,1909209,380578,"+36.9123240","-076.2040159","CAMELLIA ACRES, SARATOGA",0.0844489667162626,0.000231538349755417,"0554",LITTLE CREEK & HALPRIN,36.915008,-76.219791
"70","51","710","006605","51710006605","66.05",Census Tract,G5020,S,1909209,380578,"+36.9123240","-076.2040159","CAMELLIA ACRES, SARATOGA",0.0844489667162626,0.000231538349755417,"0555",LITTLE CREEK & BROOKFIELD,36.915144,-76.21275
"70","51","710","006605","51710006605","66.05",Census Tract,G5020,S,1909209,380578,"+36.9123240","-076.2040159","CAMELLIA ACRES, SARATOGA",0.0844489667162626,0.000231538349755417,"0556",LITTLE CREEK &  TARPON,36.915761,-76.209206
"70","51","710","006605","51710006605","66.05",Census Tract,G5020,S,1909209,380578,"+36.9123240","-076.2040159","CAMELLIA ACRES, SARATOGA",0.0844489667162626,0.000231538349755417,"0557",LITTLE CREEK & NANCY,36.916415,-76.205761
"70","51","710","006605","51710006605","66.05",Census Tract,G5020,S,1909209,380578,"+36.9123240","-076.2040159","CAMELLIA ACRES, SARATOGA",0.0844489667162626,0.000231538349755417,"0559",LITTLE CREEK & REDMON,36.917638,-76.199114
"70","51","710","006605","51710006605","66.05",Census Tract,G5020,S,1909209,380578,"+36.9123240","-076.2040159","CAMELLIA ACRES, SARATOGA",0.0844489667162626,0.000231538349755417,"0560",LITTLE CREEK & WOODALL,36.917855,-76.197252
"70","51","710","006605","51710006605","66.05",Census Tract,G5020,S,1909209,380578,"+36.9123240","-076.2040159","CAMELLIA ACRES, SARATOGA",0.0844489667162626,0.000231538349755417,"0561",LITTLE CREEK & SHORE,36.917931,-76.195166
"71","51","710","006606","51710006606","66.06",Census Tract,G5020,S,2130568,92031,"+36.9093656","-076.2259727","LARRYMORE LAWNS, PINEWOOD",0.0723474987434148,0.000224735551014555,"0546",LITTLE CREEK & MOOSE,36.915671,-76.236272
"71","51","710","006606","51710006606","66.06",Census Tract,G5020,S,2130568,92031,"+36.9093656","-076.2259727","LARRYMORE LAWNS, PINEWOOD",0.0723474987434148,0.000224735551014555,"0548",LITTLE CREEK & BISON,36.916647,-76.23173
"71","51","710","006606","51710006606","66.06",Census Tract,G5020,S,2130568,92031,"+36.9093656","-076.2259727","LARRYMORE LAWNS, PINEWOOD",0.0723474987434148,0.000224735551014555,"0549",LITTLE CREEK & MEADOW CREEK,36.916789,-76.229419
"71","51","710","006606","51710006606","66.06",Census Tract,G5020,S,2130568,92031,"+36.9093656","-076.2259727","LARRYMORE LAWNS, PINEWOOD",0.0723474987434148,0.000224735551014555,"0551",LITTLE CREEK & WEDGEWOOD,36.916078,-76.225967
"71","51","710","006606","51710006606","66.06",Census Tract,G5020,S,2130568,92031,"+36.9093656","-076.2259727","LARRYMORE LAWNS, PINEWOOD",0.0723474987434148,0.000224735551014555,"0956",MILITARY & JOHNSTONS,36.906872,-76.232212
"72","51","710","006607","51710006607","66.07",Census Tract,G5020,S,2011327,364131,"+36.8967230","-076.2166487","BROMLEY, AZALEA ACRES",0.078019409916617,0.000240152509138352,"0949",MILITARY & AZALEA GARDEN,36.890601,-76.220398
"72","51","710","006607","51710006607","66.07",Census Tract,G5020,S,2011327,364131,"+36.8967230","-076.2166487","BROMLEY, AZALEA ACRES",0.078019409916617,0.000240152509138352,"0950",MILITARY & NORVELLA,36.893301,-76.222358
"72","51","710","006607","51710006607","66.07",Census Tract,G5020,S,2011327,364131,"+36.8967230","-076.2166487","BROMLEY, AZALEA ACRES",0.078019409916617,0.000240152509138352,"0951",MILITARY & NORVIEW,36.895594,-76.224095
"72","51","710","006607","51710006607","66.07",Census Tract,G5020,S,2011327,364131,"+36.8967230","-076.2166487","BROMLEY, AZALEA ACRES",0.078019409916617,0.000240152509138352,"0953",MILITARY & MEADOW LAKE,36.898299,-76.226068
"72","51","710","006607","51710006607","66.07",Census Tract,G5020,S,2011327,364131,"+36.8967230","-076.2166487","BROMLEY, AZALEA ACRES",0.078019409916617,0.000240152509138352,"0954",MILITARY & LONGDALE,36.901013,-76.227992
"73","51","710","006800","51710006800","68",Census Tract,G5020,S,2821272,148402,"+36.8625523","-076.1906538","LAKE TERRACE, HOLLYWOOD",0.0947790525716554,0.000300102743206736,"1206",KEMPSVILLE & TITANS,36.870509,-76.204154
"73","51","710","006800","51710006800","68",Census Tract,G5020,S,2821272,148402,"+36.8625523","-076.1906538","LAKE TERRACE, HOLLYWOOD",0.0947790525716554,0.000300102743206736,"5781",NEWTOWN & VIRGINIA BEACH,36.856322,-76.177287
"73","51","710","006800","51710006800","68",Census Tract,G5020,S,2821272,148402,"+36.8625523","-076.1906538","LAKE TERRACE, HOLLYWOOD",0.0947790525716554,0.000300102743206736,"6086",WESLEYAN & ACADEMY,36.875257,-76.190166
"74","51","710","006901","51710006901","69.01",Census Tract,G5020,S,4298518,15042,"+36.8530592","-076.1997057","JANAF, MILITARY CIRCLE",0.108097328016201,0.000435850387748231,"0633",CENTER & NEWTOWN,36.847144,-76.183249
"74","51","710","006901","51710006901","69.01",Census Tract,G5020,S,4298518,15042,"+36.8530592","-076.1997057","JANAF, MILITARY CIRCLE",0.108097328016201,0.000435850387748231,"0914",JANAF SHOPPING CENTER,36.859316,-76.206575
"74","51","710","006901","51710006901","69.01",Census Tract,G5020,S,4298518,15042,"+36.8530592","-076.1997057","JANAF, MILITARY CIRCLE",0.108097328016201,0.000435850387748231,"0916",MILITARY CIRCLE MALL,36.852734,-76.20335
"74","51","710","006901","51710006901","69.01",Census Tract,G5020,S,4298518,15042,"+36.8530592","-076.1997057","JANAF, MILITARY CIRCLE",0.108097328016201,0.000435850387748231,"0917",POPLAR HALL & HONAKER,36.849882,-76.201698
"74","51","710","006901","51710006901","69.01",Census Tract,G5020,S,4298518,15042,"+36.8530592","-076.1997057","JANAF, MILITARY CIRCLE",0.108097328016201,0.000435850387748231,"0918",POPLAR HALL & MILITARY,36.848941,-76.208106
"74","51","710","006901","51710006901","69.01",Census Tract,G5020,S,4298518,15042,"+36.8530592","-076.1997057","JANAF, MILITARY CIRCLE",0.108097328016201,0.000435850387748231,"0938",JANAF SHOPPING CENTER,36.85935,-76.206409
"74","51","710","006901","51710006901","69.01",Census Tract,G5020,S,4298518,15042,"+36.8530592","-076.1997057","JANAF, MILITARY CIRCLE",0.108097328016201,0.000435850387748231,"0939",MILITARY & LAKE HERBERT,36.868902,-76.210992
"74","51","710","006901","51710006901","69.01",Census Tract,G5020,S,4298518,15042,"+36.8530592","-076.1997057","JANAF, MILITARY CIRCLE",0.108097328016201,0.000435850387748231,"1040",GLENROCK & VIRGINIA BEACH,36.854531,-76.202827
"74","51","710","006901","51710006901","69.01",Census Tract,G5020,S,4298518,15042,"+36.8530592","-076.1997057","JANAF, MILITARY CIRCLE",0.108097328016201,0.000435850387748231,"1042",VIRGINIA BEACH & KEMPSVILLE,36.855051,-76.194559
"74","51","710","006901","51710006901","69.01",Census Tract,G5020,S,4298518,15042,"+36.8530592","-076.1997057","JANAF, MILITARY CIRCLE",0.108097328016201,0.000435850387748231,"1139",VIRGINIA BEACH & KEMPSVILLE,36.855377,-76.195348
"74","51","710","006901","51710006901","69.01",Census Tract,G5020,S,4298518,15042,"+36.8530592","-076.1997057","JANAF, MILITARY CIRCLE",0.108097328016201,0.000435850387748231,"1140",VIRGINIA BEACH & BURLING,36.855501,-76.199297
"74","51","710","006901","51710006901","69.01",Census Tract,G5020,S,4298518,15042,"+36.8530592","-076.1997057","JANAF, MILITARY CIRCLE",0.108097328016201,0.000435850387748231,"1141",VIRGINIA BEACH & GLENROCK,36.855555,-76.200357
"74","51","710","006901","51710006901","69.01",Census Tract,G5020,S,4298518,15042,"+36.8530592","-076.1997057","JANAF, MILITARY CIRCLE",0.108097328016201,0.000435850387748231,"1142",VIRGINIA BEACH & MILITARY,36.855715,-76.206942
"74","51","710","006901","51710006901","69.01",Census Tract,G5020,S,4298518,15042,"+36.8530592","-076.1997057","JANAF, MILITARY CIRCLE",0.108097328016201,0.000435850387748231,"1202",LOWERY & KEMPSVILLE,36.865899,-76.205238
"74","51","710","006901","51710006901","69.01",Census Tract,G5020,S,4298518,15042,"+36.8530592","-076.1997057","JANAF, MILITARY CIRCLE",0.108097328016201,0.000435850387748231,"1203",LOWERY & MILITARY,36.864327,-76.208145
"74","51","710","006901","51710006901","69.01",Census Tract,G5020,S,4298518,15042,"+36.8530592","-076.1997057","JANAF, MILITARY CIRCLE",0.108097328016201,0.000435850387748231,"1204",LOWERY & WALMART,36.864181,-76.208121
"74","51","710","006901","51710006901","69.01",Census Tract,G5020,S,4298518,15042,"+36.8530592","-076.1997057","JANAF, MILITARY CIRCLE",0.108097328016201,0.000435850387748231,"1205",LOWERY & KEMPSVILLE,36.865813,-76.20518
"74","51","710","006901","51710006901","69.01",Census Tract,G5020,S,4298518,15042,"+36.8530592","-076.1997057","JANAF, MILITARY CIRCLE",0.108097328016201,0.000435850387748231,"1290",KEMPSVILLE & KEMPSVILLE CIRCLE,36.85213,-76.192495
"74","51","710","006901","51710006901","69.01",Census Tract,G5020,S,4298518,15042,"+36.8530592","-076.1997057","JANAF, MILITARY CIRCLE",0.108097328016201,0.000435850387748231,"1301",KEMPSVILLE & KEMPSVILLE CIR,36.849341,-76.19131
"74","51","710","006901","51710006901","69.01",Census Tract,G5020,S,4298518,15042,"+36.8530592","-076.1997057","JANAF, MILITARY CIRCLE",0.108097328016201,0.000435850387748231,"1302",KEMPSVILLE & WELLVILLE,36.853203,-76.192891
"74","51","710","006901","51710006901","69.01",Census Tract,G5020,S,4298518,15042,"+36.8530592","-076.1997057","JANAF, MILITARY CIRCLE",0.108097328016201,0.000435850387748231,"1308",NEWTOWN & ETHAN ALLEN,36.849979,-76.17947
"74","51","710","006901","51710006901","69.01",Census Tract,G5020,S,4298518,15042,"+36.8530592","-076.1997057","JANAF, MILITARY CIRCLE",0.108097328016201,0.000435850387748231,"2138",VIRGINIA BEACH & POPLAR HALL,36.855204,-76.198733
"74","51","710","006901","51710006901","69.01",Census Tract,G5020,S,4298518,15042,"+36.8530592","-076.1997057","JANAF, MILITARY CIRCLE",0.108097328016201,0.000435850387748231,"2753",VIRGINIA BEACH & MILITARY,36.855619,-76.207357
"74","51","710","006901","51710006901","69.01",Census Tract,G5020,S,4298518,15042,"+36.8530592","-076.1997057","JANAF, MILITARY CIRCLE",0.108097328016201,0.000435850387748231,"3128",NORTH CENTER & KEMPSVILLE,36.848034,-76.189555
"74","51","710","006901","51710006901","69.01",Census Tract,G5020,S,4298518,15042,"+36.8530592","-076.1997057","JANAF, MILITARY CIRCLE",0.108097328016201,0.000435850387748231,"3129",NORTH CENTER & CENTER,36.848122,-76.187307
"74","51","710","006901","51710006901","69.01",Census Tract,G5020,S,4298518,15042,"+36.8530592","-076.1997057","JANAF, MILITARY CIRCLE",0.108097328016201,0.000435850387748231,"3219",NORTH CENTER & CENTER,36.847385,-76.185879
"74","51","710","006901","51710006901","69.01",Census Tract,G5020,S,4298518,15042,"+36.8530592","-076.1997057","JANAF, MILITARY CIRCLE",0.108097328016201,0.000435850387748231,"3346",NORTH CENTER & KEMPSVILLE,36.848078,-76.189627
"74","51","710","006901","51710006901","69.01",Census Tract,G5020,S,4298518,15042,"+36.8530592","-076.1997057","JANAF, MILITARY CIRCLE",0.108097328016201,0.000435850387748231,"3352",NEWTOWN & ELAM,36.851587,-76.178684
"74","51","710","006901","51710006901","69.01",Census Tract,G5020,S,4298518,15042,"+36.8530592","-076.1997057","JANAF, MILITARY CIRCLE",0.108097328016201,0.000435850387748231,"3773",KEMPSVILLE & NORTH CENTER,36.8493,-76.191547
"74","51","710","006901","51710006901","69.01",Census Tract,G5020,S,4298518,15042,"+36.8530592","-076.1997057","JANAF, MILITARY CIRCLE",0.108097328016201,0.000435850387748231,"5198",POPLAR HALL & FRIZZELL,36.849095,-76.204345
"74","51","710","006901","51710006901","69.01",Census Tract,G5020,S,4298518,15042,"+36.8530592","-076.1997057","JANAF, MILITARY CIRCLE",0.108097328016201,0.000435850387748231,"5737",MILITARY btwn POPLAR HALL & MALL ENTRANCE,36.850402,-76.20983
"74","51","710","006901","51710006901","69.01",Census Tract,G5020,S,4298518,15042,"+36.8530592","-076.1997057","JANAF, MILITARY CIRCLE",0.108097328016201,0.000435850387748231,"5847",MILITARY & LOWERY,36.863759,-76.210264
"75","51","710","006902","51710006902","69.02",Census Tract,G5020,S,2640737,247056,"+36.8387363","-076.2007261","RIVER FOREST SHORES, EASTON",0.0772683081432273,0.000291729115802675,"1294",KEMPSVILLE & BANGOR,36.843158,-76.18939
"75","51","710","006902","51710006902","69.02",Census Tract,G5020,S,2640737,247056,"+36.8387363","-076.2007261","RIVER FOREST SHORES, EASTON",0.0772683081432273,0.000291729115802675,"1309",NEWTOWN & GREENWICH,36.84343,-76.185579
"75","51","710","006902","51710006902","69.02",Census Tract,G5020,S,2640737,247056,"+36.8387363","-076.2007261","RIVER FOREST SHORES, EASTON",0.0772683081432273,0.000291729115802675,"1310",KEMPSVILLE & BANGOR,36.843437,-76.189331
"75","51","710","006902","51710006902","69.02",Census Tract,G5020,S,2640737,247056,"+36.8387363","-076.2007261","RIVER FOREST SHORES, EASTON",0.0772683081432273,0.000291729115802675,"5741",NEWTOWN RD STATION,36.841462,-76.189499
"75","51","710","006902","51710006902","69.02",Census Tract,G5020,S,2640737,247056,"+36.8387363","-076.2007261","RIVER FOREST SHORES, EASTON",0.0772683081432273,0.000291729115802675,"8011",NEWTOWN ROAD STATION,36.841048,-76.190226
"76","51","710","007001","51710007001","70.01",Census Tract,G5020,S,1636972,66126,"+36.8632021","-076.2177463","CROWN POINT, RABY ROAD",0.0600827519164255,0.000172100044565449,"0913",MILITARY & LOWERY,36.86537,-76.210891
"76","51","710","007001","51710007001","70.01",Census Tract,G5020,S,1636972,66126,"+36.8632021","-076.2177463","CROWN POINT, RABY ROAD",0.0600827519164255,0.000172100044565449,"1143",VIRGINIA BEACH & BRIAR HILL,36.856077,-76.215221
"76","51","710","007001","51710007001","70.01",Census Tract,G5020,S,1636972,66126,"+36.8632021","-076.2177463","CROWN POINT, RABY ROAD",0.0600827519164255,0.000172100044565449,"1144",VIRGINIA BEACH & RABY,36.856325,-76.220082
"76","51","710","007001","51710007001","70.01",Census Tract,G5020,S,1636972,66126,"+36.8632021","-076.2177463","CROWN POINT, RABY ROAD",0.0600827519164255,0.000172100044565449,"5706",MILITARY & LAKE HERBERT,36.86803,-76.21126
"76","51","710","007001","51710007001","70.01",Census Tract,G5020,S,1636972,66126,"+36.8632021","-076.2177463","CROWN POINT, RABY ROAD",0.0600827519164255,0.000172100044565449,"5733",VIRGINIA BEACH & JETT,36.856488,-76.224347
"77","51","710","007002","51710007002","70.02",Census Tract,G5020,S,2768428,561781,"+36.8456892","-076.2184590","POPLAR HALLS, ELIZABETH PARK",0.0772548535016915,0.000336454088452601,"0919",MILITARY & CORPORATE,36.835777,-76.21073
"77","51","710","007002","51710007002","70.02",Census Tract,G5020,S,2768428,561781,"+36.8456892","-076.2184590","POPLAR HALLS, ELIZABETH PARK",0.0772548535016915,0.000336454088452601,"1036",VIRGINIA BEACH & JETT,36.856264,-76.224764
"77","51","710","007002","51710007002","70.02",Census Tract,G5020,S,2768428,561781,"+36.8456892","-076.2184590","POPLAR HALLS, ELIZABETH PARK",0.0772548535016915,0.000336454088452601,"1037",VIRGINIA BEACH & PECAN POINT,36.8561,-76.221527
"77","51","710","007002","51710007002","70.02",Census Tract,G5020,S,2768428,561781,"+36.8456892","-076.2184590","POPLAR HALLS, ELIZABETH PARK",0.0772548535016915,0.000336454088452601,"1038",VIRGINIA BEACH & ROUND BAY,36.855939,-76.217389
"77","51","710","007002","51710007002","70.02",Census Tract,G5020,S,2768428,561781,"+36.8456892","-076.2184590","POPLAR HALLS, ELIZABETH PARK",0.0772548535016915,0.000336454088452601,"1039",VIRGINIA BEACH & BRIAR HILL,36.855856,-76.214256
"77","51","710","007002","51710007002","70.02",Census Tract,G5020,S,2768428,561781,"+36.8456892","-076.2184590","POPLAR HALLS, ELIZABETH PARK",0.0772548535016915,0.000336454088452601,"1913",MILITARY & POPLAR HALL,36.84831,-76.210318
"77","51","710","007002","51710007002","70.02",Census Tract,G5020,S,2768428,561781,"+36.8456892","-076.2184590","POPLAR HALLS, ELIZABETH PARK",0.0772548535016915,0.000336454088452601,"3306",CORPORATE & MILITARY,36.836942,-76.211632
"77","51","710","007002","51710007002","70.02",Census Tract,G5020,S,2768428,561781,"+36.8456892","-076.2184590","POPLAR HALLS, ELIZABETH PARK",0.0772548535016915,0.000336454088452601,"3307",CORPORATE & ORION,36.84028,-76.214037
"77","51","710","007002","51710007002","70.02",Census Tract,G5020,S,2768428,561781,"+36.8456892","-076.2184590","POPLAR HALLS, ELIZABETH PARK",0.0772548535016915,0.000336454088452601,"8010",MILITARY HIGHWAY STATION,36.84146,-76.213126
"77","51","710","007002","51710007002","70.02",Census Tract,G5020,S,2768428,561781,"+36.8456892","-076.2184590","POPLAR HALLS, ELIZABETH PARK",0.0772548535016915,0.000336454088452601,"9558",MILITARY HWY STATION,36.841557,-76.21357
"78","51","710","980100","51710980100","9801",Census Tract,G5020,S,2336841,2575385,"+36.8747178","-076.3241335",LAMBERTS POINT INDUSTRIAL,0.0993027836400206,0.000496480067356733,,,,
"79","51","710","980200","51710980200","9802",Census Tract,G5020,S,2225448,23799,"+36.8584611","-076.2351640","INGLESIDE, POPLAR HALLS",0.0642488502036297,0.000227285212496894,"0639",AZALEA GARDEN & VIRGINIA BEACH,36.857022,-76.232564
"79","51","710","980200","51710980200","9802",Census Tract,G5020,S,2225448,23799,"+36.8584611","-076.2351640","INGLESIDE, POPLAR HALLS",0.0642488502036297,0.000227285212496894,"0640",AZALEA GARDEN & VILLAGE,36.862216,-76.234205
"79","51","710","980200","51710980200","9802",Census Tract,G5020,S,2225448,23799,"+36.8584611","-076.2351640","INGLESIDE, POPLAR HALLS",0.0642488502036297,0.000227285212496894,"0641",AZALEA GARDEN & PRINCESS ANNE,36.866156,-76.235118
"79","51","710","980200","51710980200","9802",Census Tract,G5020,S,2225448,23799,"+36.8584611","-076.2351640","INGLESIDE, POPLAR HALLS",0.0642488502036297,0.000227285212496894,"0685",AZALEA GARDEN & PRINCESS ANNE,36.86627,-76.235243
"79","51","710","980200","51710980200","9802",Census Tract,G5020,S,2225448,23799,"+36.8584611","-076.2351640","INGLESIDE, POPLAR HALLS",0.0642488502036297,0.000227285212496894,"0686",AZALEA GARDEN & VILLAGE,36.86129,-76.233844
"79","51","710","980200","51710980200","9802",Census Tract,G5020,S,2225448,23799,"+36.8584611","-076.2351640","INGLESIDE, POPLAR HALLS",0.0642488502036297,0.000227285212496894,"0688",VIRGINIA BEACH & AZALEA GARDEN,36.855881,-76.233096
"79","51","710","980200","51710980200","9802",Census Tract,G5020,S,2225448,23799,"+36.8584611","-076.2351640","INGLESIDE, POPLAR HALLS",0.0642488502036297,0.000227285212496894,"0689",VIRGINIA BEACH & KINGWOOD,36.855228,-76.236696
"79","51","710","980200","51710980200","9802",Census Tract,G5020,S,2225448,23799,"+36.8584611","-076.2351640","INGLESIDE, POPLAR HALLS",0.0642488502036297,0.000227285212496894,"0690",VIRGINIA BEACH & INGLESIDE,36.854454,-76.24075
"79","51","710","980200","51710980200","9802",Census Tract,G5020,S,2225448,23799,"+36.8584611","-076.2351640","INGLESIDE, POPLAR HALLS",0.0642488502036297,0.000227285212496894,"0993",PRINCESS ANNE & CROMWELL,36.861384,-76.247618
"79","51","710","980200","51710980200","9802",Census Tract,G5020,S,2225448,23799,"+36.8584611","-076.2351640","INGLESIDE, POPLAR HALLS",0.0642488502036297,0.000227285212496894,"0994",PRINCESS ANNE & INGLESIDE,36.862407,-76.245401
"79","51","710","980200","51710980200","9802",Census Tract,G5020,S,2225448,23799,"+36.8584611","-076.2351640","INGLESIDE, POPLAR HALLS",0.0642488502036297,0.000227285212496894,"0995",PRINCESS ANNE & ARKANSAS,36.863345,-76.243372
"79","51","710","980200","51710980200","9802",Census Tract,G5020,S,2225448,23799,"+36.8584611","-076.2351640","INGLESIDE, POPLAR HALLS",0.0642488502036297,0.000227285212496894,"0997",BALLENTINE & HOLLISTER,36.85546,-76.248711
"79","51","710","980200","51710980200","9802",Census Tract,G5020,S,2225448,23799,"+36.8584611","-076.2351640","INGLESIDE, POPLAR HALLS",0.0642488502036297,0.000227285212496894,"1188",PRINCESS ANNE & NEVADA,36.864394,-76.24089
"79","51","710","980200","51710980200","9802",Census Tract,G5020,S,2225448,23799,"+36.8584611","-076.2351640","INGLESIDE, POPLAR HALLS",0.0642488502036297,0.000227285212496894,"1190",PRINCESS ANNE & AZALEA GARDEN,36.866623,-76.235142
"79","51","710","980200","51710980200","9802",Census Tract,G5020,S,2225448,23799,"+36.8584611","-076.2351640","INGLESIDE, POPLAR HALLS",0.0642488502036297,0.000227285212496894,"1192",PRINCESS ANNE & JUNIPER,36.867058,-76.231113
"79","51","710","980200","51710980200","9802",Census Tract,G5020,S,2225448,23799,"+36.8584611","-076.2351640","INGLESIDE, POPLAR HALLS",0.0642488502036297,0.000227285212496894,"2139",BALLENTINE & MAPLETON,36.854279,-76.248393
"79","51","710","980200","51710980200","9802",Census Tract,G5020,S,2225448,23799,"+36.8584611","-076.2351640","INGLESIDE, POPLAR HALLS",0.0642488502036297,0.000227285212496894,"2341",BALLENTINE & PRINCESS ANNE,36.859053,-76.249399
"80","51","710","980300","51710980300","9803",Census Tract,G5020,S,5009638,1072800,"+36.8936204","-076.2010510","AZALEA, AIRPORT",0.123954332990772,0.00061490235184043,"6130",IKEA & RING ROAD,36.874612,-76.200851
