stop_id,stop_name,stop_lat,stop_lon
0003,SAINT PAULS & CHARLOTTE,  36.851840, -76.285520
0006,SAINT PAULS & PLUME,  36.846439, -76.285941
0008,WATERSIDE & COMMERCIAL,  36.844572, -76.289287
0010,MONTICELLO & BRAMBLETON,  36.853162, -76.287918
0011,MONTICELLO & STARKE,  36.854809, -76.287066
0013,MONTICELLO & PRINCESS ANNE,  36.860413, -76.286740
0015,MONTICELLO & 18TH,  36.865303, -76.284726
0017,26TH & ARMISTEAD,  36.870387, -76.281573
0018,MONTICELLO & 29TH,  36.872931, -76.281370
0020,GRANBY & 33RD,  36.877198, -76.281799
0022,GRANBY & 38TH,  36.880360, -76.281989
0023,GRANBY & DELAWARE,  36.882850, -76.281593
0024,GRANBY & 42ND,  36.884642, -76.281300
0027,GRANBY & WILLOW WOOD,  36.891013, -76.278763
0028,GRANBY & SEVERN,  36.894237, -76.278976
0030,GRANBY & KINGSLEY,  36.897633, -76.279555
0031,GRANBY & DUMONT,  36.900284, -76.278722
0032,GRANBY & SIR OLIVER,  36.902341, -76.277820
0033,GRANBY & SEEKEL,  36.905483, -76.276433
0034,GRANBY & FORSYTHE,  36.906911, -76.275806
0036,GRANBY & FIFE,  36.908640, -76.275082
0037,GRANBY & SUBURBAN,  36.912310, -76.273488
0039,WARDS CORNER TRANSFER,  36.917757, -76.272754
0042,GRANBY & BAYVIEW,  36.934688, -76.264051
0044,GRANBY & CHESTER,  36.939587, -76.261315
0046,GRANBY & RANDALL,  36.943404, -76.259692
0048,GRANBY & BATTERSEA,  36.948166, -76.256277
0051,GRANBY & GOVERNMENT,  36.949204, -76.255099
0053,GRANBY & DUFFYS,  36.953547, -76.251738
0054,OCEAN VIEW & HAMMETT,  36.951082, -76.247823
0055,OCEAN VIEW & NORFOLK,  36.949813, -76.245815
0056,OCEAN VIEW & ELNORA,  36.947934, -76.241558
0058,OCEAN VIEW & ATLANS,  36.945964, -76.238820
0060,OCEAN VIEW & BEACH VIEW,  36.944179, -76.235762
0062,OCEAN VIEW & STURGIS,  36.942056, -76.231913
0064,OCEAN VIEW & BEAUMONT,  36.940397, -76.228705
0065,OCEAN VIEW & GROVE,  36.939199, -76.225509
0066,OCEAN VIEW & CAPE VIEW,  36.938352, -76.223038
0068,OCEAN VIEW & 1ST BAY,  36.936328, -76.216953
0070,OCEAN VIEW & 3RD BAY,  36.934911, -76.212704
0071,OCEAN VIEW & 7TH BAY,  36.934100, -76.209530
0072,OCEAN VIEW & 10TH BAY,  36.933115, -76.205746
0074,OCEAN VIEW & 14TH BAY,  36.931915, -76.200956
0075,OCEAN VIEW & 16TH BAY,  36.931381, -76.198895
0077,OCEAN VIEW & 20TH BAY,  36.930475, -76.193606
0079,SHORE & PLEASANT,  36.928098, -76.191202
0080,SHORE & DUNNING,  36.921058, -76.192628
0081,JOINT EXP BASE LITTLE CREEK,  36.918136, -76.191304
0082,SHORE & FLOWERFIELD,  36.915265, -76.191367
0083,SHORE & HEUTTE,  36.912779, -76.190159
0084,SHORE & DIAMOND SPRINGS,  36.905531, -76.177317
0086,SHORE & LAKE SMITH,  36.906566, -76.172752
0087,SHORE & KIMBALL,  36.907107, -76.169631
0088,SHORE & LAKE SHORES,  36.906848, -76.161419
0089,SHORE & JACK FROST,  36.906950, -76.156430
0090,SHORE & GELA,  36.906390, -76.151363
0092,SHORE & WELLINGS,  36.905629, -76.145608
0093,SHORE & PLEASURE HOUSE,  36.904554, -76.137797
0094,PLEASURE HOUSE & VICTORY,  36.902146, -76.136475
0095,PLEASURE HOUSE & FIRST COURT,  36.897965, -76.138151
0096,PLEASURE HOUSE & INDEPENDENCE,  36.894934, -76.141423
0097,INDEPENDENCE & EWELL,  36.884184, -76.134711
0098,INDEPENDENCE & PAUL REVERE,  36.879800, -76.133364
0099,INDEPENDENCE & HAYGOOD,  36.873994, -76.134745
0101,INDEPENDENCE & WITCHDUCK,  36.867947, -76.133047
0102,INDEPENDENCE & PEMBROKE,  36.863528, -76.132314
0103,INDEPENDENCE & JERICHO,  36.856533, -76.134495
0104,INDEPENDENCE & HINSDALE,  36.851946, -76.136708
0105,INDEPENDENCE & JEANNE,  36.848907, -76.136948
0106,PEMBROKE MALL,  36.847027, -76.129864
0107,SHORE & WINDWARD,  36.903950, -76.131280
0108,NIMMO & UPTON,  36.761641, -76.007247
0109,ELSON GREEN & UPTON,  36.756804, -76.008702
0110,INDEPENDENCE & BROAD,  36.846630, -76.136571
0111,INDEPENDENCE & HINSDALE,  36.851923, -76.136206
0112,INDEPENDENCE & CONSTITUTION,  36.855810, -76.134370
0113,INDEPENDENCE & HESSIAN,  36.858119, -76.133360
0114,INDEPENDENCE & PEMBROKE,  36.864020, -76.131875
0115,INDEPENDENCE & WITCHDUCK,  36.868496, -76.132817
0116,INDEPENDENCE & WISHART,  36.873691, -76.134311
0117,INDEPENDENCE & WAKEFIELD,  36.880330, -76.132961
0118,INDEPENDENCE & SEAL,  36.888042, -76.136663
0120,INDEPENDENCE & TULIP,  36.893318, -76.140641
0121,PLEASURE HOUSE & ANDREW JACKSON,  36.894759, -76.141408
0122,SHORE & GELA,  36.906505, -76.150418
0123,SHORE & JACK FROST,  36.907176, -76.156094
0124,SHORE & LAKE SHORES,  36.907068, -76.162755
0125,SHORE & KIMBALL,  36.907344, -76.170417
0126,SHORE & LAKE SMITH,  36.906903, -76.172618
0127,SHORE & DIAMOND SPRINGS,  36.905733, -76.178433
0128,SHORE & FLOWERFIELD,  36.915169, -76.191105
0129,SHORE & DUNNING,  36.920597, -76.192435
0132,OCEAN VIEW & 19TH BAY,  36.930883, -76.194834
0133,OCEAN VIEW & 14TH BAY,  36.931902, -76.200404
0137,OCEAN VIEW & 10TH BAY,  36.933125, -76.205138
0138,OCEAN VIEW & 6TH BAY,  36.934484, -76.210343
0139,OCEAN VIEW & 2ND BAY,  36.935470, -76.214096
0140,OCEAN VIEW & CAPEVIEW,  36.938444, -76.222713
0141,OCEAN VIEW & GROVE,  36.939554, -76.225963
0143,OCEAN VIEW & WILLOW,  36.941504, -76.230474
0144,OCEAN VIEW & STURGIS,  36.942319, -76.232115
0146,OCEAN VIEW & BEACH VIEW,  36.944271, -76.235617
0149,OCEAN VIEW & NORFOLK,  36.949970, -76.245823
0153,FIRST VIEW & MAPLE,  36.949561, -76.260216
0156,FIRST VIEW & GOVERNMENT,  36.952121, -76.257532
0160,GRANBY & GOVERNMENT,  36.950400, -76.254341
0161,GRANBY & OSBORNE,  36.948937, -76.255945
0162,GRANBY & LEICESTER,  36.942684, -76.260240
0164,GRANBY & CHESTER,  36.939594, -76.261672
0165,GRANBY & LANDALE,  36.936227, -76.263575
0166,GRANBY & BAYVIEW,  36.934366, -76.264629
0169,GRANBY & LITTLE CREEK,  36.915456, -76.272758
0170,GRANBY & NORTH SHORE,  36.912501, -76.273809
0171,GRANBY & WARREN,  36.908965, -76.275313
0173,GRANBY & OXFORD,  36.905869, -76.276686
0175,GRANBY & CARLISLE,  36.902626, -76.278048
0177,GRANBY & WHITING,  36.900507, -76.278963
0178,GRANBY & KINGSLEY,  36.897975, -76.279961
0180,GRANBY & SEVERN,  36.894418, -76.279333
0181,GRANBY & WILLOW WOOD,  36.890773, -76.279176
0182,GRANBY & CONNECTICUT,  36.885585, -76.281396
0184,GRANBY & 35TH,  36.878784, -76.282172
0186,MONTICELLO & 29th,  36.872814, -76.281576
0188,MONTICELLO & 25TH,  36.870127, -76.282805
0189,MONTICELLO & 19TH,  36.866030, -76.284652
0191,MONTICELLO & 15TH,  36.862512, -76.286128
0192,MONTICELLO & PRINCESS ANNE,  36.860352, -76.287013
0197,WOODLAKE & OLD GREENBRIAR,  36.790344, -76.235475
0198,OLD GREENBRIAR & JUNIPER,  36.794433, -76.234610
0199,OLD GREENBRIAR & JUNIPER,  36.793992, -76.234450
0203,OLNEY & COLONIAL,  36.859043, -76.296780
0204,OLNEY & STOCKLEY GARDENS,  36.860112, -76.299225
0205,OLNEY & NORFOLK GENERAL,  36.861621, -76.302657
0208,HAMPTON & GRAYDON,  36.865936, -76.301043
0209,HAMPTON & PRINCESS ANNE,  36.866647, -76.300362
0211,HAMPTON & SPOTSWOOD,  36.869021, -76.300657
0214,HAMPTON & 27TH,  36.877004, -76.301890
0216,HAMPTON & 37TH,  36.878321, -76.301975
0218,HAMPTON & 41ST,  36.882399, -76.302209
0219,HAMPTON & 45TH,  36.884223, -76.302219
0221,HAMPTON & 49TH,  36.887224, -76.302407
0222,HAMPTON & BOLLING,  36.891063, -76.303730
0223,HAMPTON & ROCKBRIDGE,  36.894709, -76.303064
0225,HAMPTON & SURRY,  36.896514, -76.302741
0226,HAMPTON & LEXAN,  36.900283, -76.303237
0227,HAMPTON & ESCADRILLE,  36.902286, -76.303851
0228,HAMPTON & HELENA,  36.909809, -76.305531
0230,HAMPTON & LITTLE CREEK,  36.915454, -76.307612
0231,HAMPTON & STAFF COLLEGE,  36.919734, -76.312223
0233,HAMPTON & BAKER,  36.923317, -76.315957
0235,HAMPTON & BEECHWOOD,  36.929456, -76.317648
0239,HAMMOND & ADMIRAL TAUSSIG,  36.943201, -76.312152
0240,HAMPTON & B,  36.936992, -76.318637
0243,HAMPTON & MAPLESHADE,  36.930522, -76.318052
0244,HAMPTON & BEECHWOOD,  36.929452, -76.317979
0245,HAMPTON & GLENDALE,  36.927748, -76.317837
0246,HAMPTON & HELMICK,  36.925313, -76.317393
0248,HAMPTON & BAKER,  36.923785, -76.316641
0250,HAMPTON & STAFF COLLEGE,  36.918838, -76.311732
0252,HAMPTON & LITTLE CREEK,  36.915778, -76.308430
0253,HAMPTON & RUNNYMEDE,  36.914414, -76.307211
0254,HAMPTON & NORTH SHORE,  36.910923, -76.305990
0256,HAMPTON & LEXAN,  36.900529, -76.303656
0258,HAMPTON & SURREY,  36.896117, -76.303021
0259,HAMPTON & ROCKBRIDGE,  36.894748, -76.303373
0261,HAMPTON & BOLLING,  36.890844, -76.303932
0264,HAMPTON & 45TH,  36.884640, -76.302588
0266,HAMPTON & 41ST,  36.881588, -76.302397
0267,HAMPTON & 25TH,  36.875673, -76.301959
0268,HAMPTON & WOODROW,  36.871617, -76.301368
0272,REDGATE & COLLEY,  36.863996, -76.301360
0273,COLLEY & RALEIGH,  36.863123, -76.300238
0275,OLNEY & MOWBRAY ARCH,  36.859415, -76.298056
0276,OLNEY & CHRYSLER MUSEUM,  36.857430, -76.293607
0281,HAMPTON & SPOTSWOOD,  36.868705, -76.300716
0282,ELSON GREEN & UPTON,  36.756659, -76.008745
0283,NIMMO & UPTON,  36.762431, -76.008625
0286,26TH & GAZEL,  36.870330, -76.277747
0289,26TH & WAVERLY,  36.872150, -76.274518
0290,LAFAYETTE & DUPONT,  36.874331, -76.270783
0292,LAFAYETTE & BELLEVUE,  36.877658, -76.267118
0293,LAFAYETTE & LORRAINE,  36.877956, -76.265194
0297,LAFAYETTE & BAPAUME,  36.876813, -76.260329
0300,CHESAPEAKE & CROMWELL,  36.875535, -76.252477
0302,CHESAPEAKE & ROBINHOOD,  36.878538, -76.249560
0303,CHESAPEAKE & CURIE,  36.897507, -76.238578
0304,CHESAPEAKE & BUCKINGHAM,  36.881237, -76.247307
0307,CHESAPEAKE & LENOIR,  36.885075, -76.244738
0309,CHESAPEAKE & NORVIEW,  36.889139, -76.239358
0310,CHESAPEAKE & GREEN,  36.891341, -76.237649
0311,CHESAPEAKE & STRAND,  36.895304, -76.238225
0312,CHESAPEAKE & DUNDALE,  36.900768, -76.239094
0315,CHESAPEAKE & ROSEFIELD,  36.911102, -76.240749
0317,EVELYN BUTTS & AVENUE J,  36.913998, -76.243418
0318,CHESAPEAKE & LITTLE CREEK,  36.915209, -76.241387
0319,CHESAPEAKE & ELK,  36.917801, -76.241780
0322,CHESAPEAKE & SHEPPARD,  36.923773, -76.242736
0323,CHESAPEAKE & FRANK,  36.926413, -76.243141
0324,CHESAPEAKE & FISHERMANS,  36.930525, -76.243771
0326,CHESAPEAKE & BAYVIEW,  36.933312, -76.244167
0328,CHESAPEAKE & DUNE,  36.937292, -76.244794
0330,CHESAPEAKE & CHESTER,  36.939100, -76.245089
0332,CHESAPEAKE & DUDLEY,  36.942810, -76.245677
0336,HAMPTON & RUNNYMEDE,  36.913464, -76.306299
0343,CHESAPEAKE & LEICESTER,  36.941928, -76.245853
0344,CHESAPEAKE & FARRELL,  36.939119, -76.245435
0346,CHESAPEAKE & EARL,  36.935884, -76.244927
0347,CHESAPEAKE & BAYVIEW,  36.934065, -76.244657
0348,CHESAPEAKE & FISHERMANS,  36.929915, -76.243982
0349,CHESAPEAKE & SHEPPARD,  36.923932, -76.243065
0351,CHESAPEAKE & BURKSDALE,  36.919975, -76.242451
0352,CHESAPEAKE & DOVERCOURT,  36.916779, -76.241996
0353,CHESAPEAKE & LITTLE CREEK,  36.914937, -76.241687
0354,EVELYN BUTTS & AVENUE J,  36.913906, -76.243577
0355,CHESAPEAKE & AVE I,  36.912803, -76.241365
0357,CHESAPEAKE & JOHNSTONS,  36.907352, -76.240440
0359,CHESAPEAKE & KITRELL,  36.905114, -76.240119
0360,CHESAPEAKE & DUNDALE,  36.899659, -76.239255
0362,CHESAPEAKE & PICADILLY,  36.897117, -76.238827
0363,CHESAPEAKE & STRAND,  36.893576, -76.238275
0364,CHESAPEAKE & GREEN,  36.891756, -76.237997
0365,CHESAPEAKE & NORVIEW,  36.889606, -76.239130
0367,CHESAPEAKE & CRAVEN,  36.887825, -76.241893
0368,CHESAPEAKE & NANSEMOND,  36.885544, -76.244632
0370,CHESAPEAKE & WAYNE CREEK,  36.884026, -76.245988
0371,CHESAPEAKE & NOTTAWAY,  36.880122, -76.248374
0372,CHESAPEAKE & ROBIN HOOD,  36.878882, -76.249600
0375,LAFAYETTE & MARNE,  36.875598, -76.254833
0376,LAFAYETTE & LENS,  36.875963, -76.256401
0377,LAFAYETTE & BREST,  36.876561, -76.258824
0378,LAFAYETTE & DUNKIRK,  36.877082, -76.260876
0380,LAFAYETTE & TIDEWATER,  36.877853, -76.263999
0382,LAFAYETTE & VERSAILLES,  36.877433, -76.267444
0384,LAFAYETTE & ORLEANS,  36.875135, -76.269593
0387,27TH & LEO,  36.871449, -76.276587
0389,27TH & FAWN,  36.871084, -76.278984
0390,MONTICELLO & 26TH,  36.871024, -76.282198
0404,SAINT PAULS & WOOD,  36.850991, -76.284817
0406,CHURCH & OLNEY,  36.854039, -76.279681
0409,TIDEWATER & PRINCESS ANNE,  36.857035, -76.273096
0411,CHURCH & GOFF,  36.859748, -76.277909
0412,CHURCH & B,  36.863777, -76.278738
0413,20TH & GRANBY,  36.866790, -76.285270
0414,21ST & OMOHUNDRO,  36.868145, -76.287180
0415,21ST & LLEWELLYN,  36.868589, -76.288774
0416,21ST & DEBREE,  36.868835, -76.290337
0417,21ST & MANTEO,  36.870154, -76.294257
0421,38TH & BLUESTONE,  36.879632, -76.305370
0427,COLLEY & 35TH,  36.878046, -76.294852
0428,COLLEY & 26TH,  36.874580, -76.295312
0430,COLLEY & GRAYDON,  36.865245, -76.299498
0432,COLLEY & RALEIGH,  36.861916, -76.299617
0433,COLLEY & GRAYDON,  36.864916, -76.299564
0435,COLLEY & 26TH,  36.874054, -76.295021
0437,COLLEY & 35TH,  36.878106, -76.294728
0441,38TH & BOWDENS FERRY,  36.879565, -76.303470
0443,21ST & COLONIAL,  36.869451, -76.293118
0444,21ST & DEBREE,  36.868597, -76.289971
0445,21ST & LLEWELLYN,  36.868192, -76.287935
0447,20TH & MONTICELLO,  36.866610, -76.285095
0448,CHURCH & 18TH,  36.864160, -76.279059
0452,CHURCH & OLNEY,  36.854019, -76.280023
0453,INDIAN RIVER & WINGFIELD,  36.827234, -76.246408
0454,DNTC,  36.850464, -76.283474
0455,BRAMBLETON & SAINT PAULS,  36.853709, -76.284791
0465,MAIN & BERKLEY,  36.832191, -76.283524
0467,LIBERTY & GRAYSON,  36.829828, -76.281516
0468,LIBERTY & LANCASTER,  36.828807, -76.280525
0469,LIBERTY & SHERMAN,  36.825912, -76.277814
0474,LIBERTY & TRANSYLVANIA,  36.817476, -76.266786
0475,OLD ATLANTIC & JEFFERSON,  36.814931, -76.265510
0476,ATLANTIC & CULPEPPER,  36.812146, -76.264922
0477,ATLANTIC & MYERS,  36.807472, -76.264063
0478,ATLANTIC & STRAWBERRY,  36.804644, -76.263491
0480,CAMPOSTELLA & MARK,  36.792868, -76.259941
0482,CAMPOSTELLA & PORTLOCK,  36.784949, -76.266691
0483,CAMPOSTELLA & CORAL,  36.782563, -76.267881
0485,MILITARY & CAMPOSTELLA,  36.778532, -76.266574
0488,ROBERT HALL & MILITARY,  36.786824, -76.256215
0489,BATTLEFIELD & ROBERT HALL,  36.786491, -76.259424
0490,MILITARY & BATTLEFIELD,  36.780295, -76.264009
0491,MILITARY & CAMPOSTELLA,  36.779002, -76.266311
0492,CAMPOSTELLA & WAKE,  36.780283, -76.268343
0493,CAMPOSTELLA & PORTLOCK,  36.785986, -76.265848
0494,CAMPOSTELLA & DIAMOND HILL,  36.788324, -76.263814
0495,CAMPOSTELLA & MARK,  36.792336, -76.259924
0496,CAMPOSTELLA & BROAD,  36.798439, -76.257514
0499,ATLANTIC & MYERS,  36.807887, -76.263892
0500,ATLANTIC & POCAHONTAS,  36.809509, -76.264186
0501,ATLANTIC & CULPEPPER,  36.811658, -76.264608
0502,OLD ATLANTIC & JEFFERSON,  36.815490, -76.265465
0503,LIBERTY & FITCHETT,  36.817849, -76.267345
0504,LIBERTY & COMMERCE,  36.818869, -76.269807
0507,LIBERTY & SEABOARD,  36.823061, -76.275027
0508,LIBERTY & SHERMAN,  36.825989, -76.277690
0510,LIBERTY & GRAYSON,  36.829883, -76.281389
0511,MAIN & BERKLEY,  36.832156, -76.283396
0521,TIDEWATER & OLNEY,  36.852342, -76.275198
0524,TIDEWATER & GOFF,  36.858028, -76.272647
0527,TIDEWATER & LINDENWOOD,  36.866290, -76.269039
0528,TIDEWATER & HANCOCK,  36.870496, -76.266187
0529,TIDEWATER & SHOOP,  36.871971, -76.265554
0530,TIDEWATER & SAINT DENIS,  36.874658, -76.264607
0533,TIDEWATER & LAFAYETTE,  36.878115, -76.263271
0535,TIDEWATER & COLUMBIA,  36.881444, -76.261975
0536,TIDEWATER & CROMWELL,  36.885622, -76.260391
0537,TIDEWATER & WILLOW WOOD,  36.887951, -76.259597
0538,TIDEWATER & NORVIEW,  36.891005, -76.258320
0539,TIDEWATER & WIDGEON,  36.900328, -76.255939
0540,TIDEWATER & LITTLE CREEK,  36.912741, -76.255056
0541,LITTLE CREEK & HAROLD,  36.915814, -76.252970
0542,LITTLE CREEK & SEWELLS POINT,  36.915163, -76.249850
0543,LITTLE CREEK & MERRITT,  36.914913, -76.246293
0546,LITTLE CREEK & MOOSE,  36.915671, -76.236272
0548,LITTLE CREEK & BISON,  36.916647, -76.231730
0549,LITTLE CREEK & MEADOW CREEK,  36.916789, -76.229419
0551,LITTLE CREEK & WEDGEWOOD,  36.916078, -76.225967
0554,LITTLE CREEK & HALPRIN,  36.915008, -76.219791
0555,LITTLE CREEK & BROOKFIELD,  36.915144, -76.212750
0556,LITTLE CREEK &  TARPON,  36.915761, -76.209206
0557,LITTLE CREEK & NANCY,  36.916415, -76.205761
0559,LITTLE CREEK & REDMON,  36.917638, -76.199114
0560,LITTLE CREEK & WOODALL,  36.917855, -76.197252
0561,LITTLE CREEK & SHORE,  36.917931, -76.195166
0565,LITTLE CREEK & SHORE,  36.918229, -76.193441
0566,LITTLE CREEK & WOODALL,  36.918100, -76.198090
0567,LITTLE CREEK & WALTERS,  36.917221, -76.203253
0568,LITTLE CREEK & NANCY,  36.916597, -76.206553
0569,LITTLE CREEK & TARPON,  36.915979, -76.209632
0570,LITTLE CREEK & AZALEA GARDEN,  36.915441, -76.212397
0571,LITTLE CREEK & MONA,  36.915305, -76.215480
0572,LITTLE CREEK & ROOSEVELT GARDENS,  36.915292, -76.218401
0576,LITTLE CREEK & MEADOW CREEK,  36.916939, -76.228484
0577,LITTLE CREEK & BISON,  36.916907, -76.231874
0579,LITTLE CREEK & MOOSE,  36.915925, -76.236177
0581,LITTLE CREEK & ELTON,  36.915407, -76.249227
0582,LITTLE CREEK RD & OLD OCEAN VIEW,  36.915687, -76.251373
0583,TIDEWATER & LITTLE CREEK,  36.914665, -76.254654
0584,TIDEWATER & BILTMORE,  36.909898, -76.256208
0586,TIDEWATER & WIDGEON,  36.900968, -76.256469
0587,TIDEWATER & WAUKESHA,  36.893907, -76.257447
0589,TIDEWATER & NORVIEW,  36.890835, -76.258680
0590,TIDEWATER & WILLOWWOOD,  36.887734, -76.259880
0591,TIDEWATER & BAPAUME,  36.885469, -76.260650
0593,TIDEWATER & CLARK,  36.880042, -76.262669
0594,TIDEWATER & LAFAYETTE,  36.877158, -76.263876
0595,TIDEWATER & BELLEVUE,  36.875873, -76.264335
0597,TIDEWATER & SHOOP,  36.872274, -76.265649
0598,TIDEWATER & HANCOCK,  36.870509, -76.266423
0600,TIDEWATER & LINDENWOOD,  36.866969, -76.268915
0601,TIDEWATER & GOFF,  36.858298, -76.272910
0602,TIDEWATER & PRINCESS ANNE,  36.856093, -76.273958
0604,TIDEWATER & CHARLOTTE,  36.847372, -76.277687
0605,OCEAN VIEW & 8TH VIEW,  36.965201, -76.272485
0606,OCEAN VIEW & 7TH VIEW,  36.963665, -76.267602
0607,OCEAN VIEW & 6TH VIEW,  36.962663, -76.265735
0608,OCEAN VIEW & 4TH VIEW,  36.959208, -76.260125
0610,OCEAN VIEW & FIRST VIEW,  36.956534, -76.254300
0612,BRAMBLETON & LINCOLN,  36.853475, -76.282015
0613,BRAMBLETON & CHURCH,  36.852670, -76.279497
0615,PARK & PRESIDENTIAL,  36.847050, -76.269877
0616,PARK & BOND,  36.849031, -76.268087
0618,CORPREW & PRESIDENTIAL,  36.850452, -76.261019
0620,CORPREW & MAJESTIC,  36.850469, -76.257229
0621,CORPREW & GATE HOUSE,  36.850587, -76.251315
0622,BALLENTINE & MIDDLE TOWNE,  36.848317, -76.250752
0623,TIDEWATER & TWILLEY,  36.939341, -76.254904
0625,TIDEWATER & BECK,  36.937368, -76.254552
0626,SEWELLS POINT & DENVER,  36.871757, -76.232128
0627,KIMBALL & FORBES,  36.843090, -76.260429
0628,KIMBALL & MAJESTIC,  36.842751, -76.257880
0630,KIMBALL & BALLENTINE,  36.842237, -76.253851
0632,CAMELOT & SIR GALAHAD,  36.781512, -76.352756
0633,CENTER & NEWTOWN,  36.847144, -76.183249
0634,SCOTT & VIRGINIA BEACH,  36.853195, -76.241958
0635,GATLING & TRICI,  36.849899, -76.239941
0636,VIRGINIA BEACH & INGLESIDE,  36.854527, -76.238818
0637,VIRGINIA BEACH & NORFOLK SQUARE,  36.855261, -76.234851
0638,VIRGINIA BEACH & AZALEA GARDEN,  36.855631, -76.232966
0639,AZALEA GARDEN & VIRGINIA BEACH,  36.857022, -76.232564
0640,AZALEA GARDEN & VILLAGE,  36.862216, -76.234205
0641,AZALEA GARDEN & PRINCESS ANNE,  36.866156, -76.235118
0642,AZALEA GARDEN & EARLY,  36.868798, -76.233424
0644,SEWELLS POINT & BRUCE,  36.875154, -76.232694
0645,SEWELLS POINT & LITTLE JOHN,  36.879024, -76.233351
0646,SEWELLS POINT & KENNEBECK,  36.881502, -76.233734
0647,SEWELLS POINT & NORVIEW,  36.888963, -76.238139
0649,SEWELLS POINT & PARTRIDGE,  36.895391, -76.239889
0650,SEWELLS POINT & QUAIL,  36.897209, -76.241295
0651,SEWELLS POINT & MARIETTA,  36.899456, -76.242287
0660,SEWELLS POINT & KITTREL,  36.904331, -76.242818
0662,SEWELLS POINT & AVENUE E,  36.908209, -76.244668
0663,SEWELLS POINT & DENISON,  36.910401, -76.245794
0664,SEWELLS POINT & AVENUE I,  36.913249, -76.247746
0665,SEWELLS POINT & AVENUE I,  36.912953, -76.247619
0666,SEWELLS POINT & DENISON,  36.910339, -76.245908
0667,SEWELLS POINT & AVENUE E,  36.907754, -76.244567
0669,SEWELLS POINT & KITTRELL,  36.904280, -76.242952
0675,SEWELLS POINT & QUAIL,  36.896589, -76.240911
0676,SEWELLS POINT & GREENWOOD,  36.892165, -76.238892
0677,SEWELLS POINT & CHESAPEAKE,  36.888818, -76.238228
0680,SEWELLS POINT & WINDERMERE,  36.883767, -76.234677
0681,SEWELLS POINT & KENNEBECK,  36.881112, -76.233861
0682,SEWELLS POINT & LITTLE JOHN,  36.878850, -76.233497
0683,SEWELLS POINT & WOOLSEY,  36.875194, -76.232889
0684,AZALEA GARDEN & EARLY,  36.868928, -76.233515
0685,AZALEA GARDEN & PRINCESS ANNE,  36.866270, -76.235243
0686,AZALEA GARDEN & VILLAGE,  36.861290, -76.233844
0688,VIRGINIA BEACH & AZALEA GARDEN,  36.855881, -76.233096
0689,VIRGINIA BEACH & KINGWOOD,  36.855228, -76.236696
0690,VIRGINIA BEACH & INGLESIDE,  36.854454, -76.240750
0691,GATLING & WAKEFIELD,  36.849931, -76.237821
0692,BALLENTINE & CONNECTOR,  36.851749, -76.247880
0693,OCEAN VIEW & 11TH VIEW,  36.967222, -76.281794
0695,OCEAN VIEW & RICHVIEW,  36.967223, -76.289028
0696,OCEAN VIEW & 15TH VIEW,  36.967134, -76.293485
0699,KIMBALL & MAJESTIC,  36.842830, -76.257621
0700,KIMBALL & FORBES,  36.843253, -76.260715
0703,CORPREW & BALLENTINE,  36.850199, -76.249316
0704,CORPREW & GATE HOUSE,  36.850656, -76.251627
0705,CORPREW & NORCHESTER,  36.850584, -76.255369
0706,CORPREW & MAJESTIC,  36.850538, -76.257664
0709,CORPREW & COVENANT,  36.850557, -76.264106
0711,PARK & BOND,  36.849592, -76.267850
0712,PARK & OLNEY,  36.847872, -76.269423
0713,BRAMBLETON & MARSHALL,  36.847086, -76.271330
0717,SEWELLS POINT & NORVELLA,  36.886376, -76.236492
0719,OCEAN VIEW & MASON CREEK,  36.958326, -76.256919
0720,COLONIAL & BOISSEVAIN,  36.859553, -76.296093
0721,COLONIAL & GRAYDON,  36.862689, -76.294543
0722,COLONIAL & PRINCESS ANNE,  36.863687, -76.294024
0725,COLONIAL & WASHINGTON,  36.867270, -76.292540
0728,COLONIAL & 29TH,  36.874915, -76.289161
0730,COLONIAL & 31ST,  36.876319, -76.288553
0731,COLONIAL & 35TH,  36.878030, -76.288434
0732,NEWPORT & 37TH,  36.879354, -76.290423
0733,NEWPORT & GEORGIA,  36.880631, -76.290204
0735,NEWPORT & PENNSYLVANIA,  36.883614, -76.289212
0737,NEWPORT & CONNECTICUT,  36.886587, -76.288153
0741,NEWPORT & PENNSYLVANIA,  36.883808, -76.289277
0743,NEWPORT & VIRGINIA,  36.882312, -76.289775
0744,NEWPORT & GEORGIA,  36.880838, -76.290280
0745,NEWPORT & 37TH,  36.879605, -76.290605
0747,NEWPORT & 35TH,  36.878414, -76.290525
0748,35TH & COLONIAL,  36.878109, -76.288690
0750,COLONIAL & 30TH,  36.875375, -76.289076
0751,COLONIAL & 26TH,  36.873028, -76.290161
0753,COLONIAL & 21ST,  36.868651, -76.292062
0754,COLONIAL & SPOTSWOOD,  36.866810, -76.292852
0755,COLONIAL & PRINCESS ANNE,  36.863794, -76.294157
0756,COLONIAL & BOISSEVAIN,  36.859737, -76.296135
0757,COLONIAL & 26TH,  36.872691, -76.290121
0758,INDIAN RIVER & OAKWOOD,  36.831309, -76.259110
0759,SEWELLS POINT & STRAND,  36.894618, -76.239454
0761,INDIAN RIVER & FORD,  36.830126, -76.253709
0762,INDIAN RIVER & SAINT LAWRENCE,  36.824376, -76.239563
0763,INDIAN RIVER & HAZEL,  36.822160, -76.231616
0764,INDIAN RIVER & SPARROW,  36.820343, -76.225123
0765,INDIAN RIVER & LELAND,  36.818172, -76.217792
0766,MILITARY & INDIAN RIVER,  36.816798, -76.214925
0767,AUBURN & MILITARY,  36.808813, -76.217978
0768,AUBURN & COLLEGE PARK,  36.807705, -76.216003
0769,PROVIDENCE & AMHERST,  36.810552, -76.209119
0771,SEWELLS POINT & TEXAS,  36.885672, -76.235777
0773,INDIAN RIVER & THOMPKINS,  36.800996, -76.182338
0774,SEWELLS POINT & GREENWOOD,  36.893354, -76.238941
0776,INDIAN RIVER & KEMPSVILLE,  36.796490, -76.173884
0778,INDIAN LAKES & HALIFAX,  36.792694, -76.163931
0780,LYNNHAVEN & THAMESFORD,  36.785353, -76.156707
0781,LYNNHAVEN & PLEASANT VALLEY,  36.786452, -76.150374
0782,LYNNHAVEN & QUARTER,  36.787370, -76.145825
0783,LYNNHAVEN & ROUNDHILL,  36.788333, -76.136231
0784,LYNNHAVEN & GREY FRIARS CHASE,  36.788980, -76.128429
0785,LYNNHAVEN & PRINCESS ANNE,  36.794054, -76.118064
0786,LYNNHAVEN & WOODBRIDGE,  36.795328, -76.116691
0787,LYNNHAVEN & RIVERSIDE,  36.795386, -76.111022
0788,BUCKNER & RICA,  36.789166, -76.107625
0789,TCC VIRGINIA BEACH,  36.787364, -76.101125
0790,MICHAEL LA BOUVE & FACULTY,  36.787373, -76.097687
0791,FACULTY & MICHAEL LA BOUVE,  36.784971, -76.096334
0792,BUCKNER & RICA,  36.789583, -76.107728
0794,LYNNHAVEN & DAHLIA,  36.795580, -76.116725
0795,LYNNHAVEN & PRINCESS ANNE,  36.792614, -76.119877
0796,LYNNHAVEN & PISSARRO,  36.789223, -76.128637
0797,LYNNHAVEN & ROUNDHILL,  36.788615, -76.135872
0798,LYNNHAVEN & QUARTER,  36.787451, -76.146402
0799,LYNNHAVEN & PLEASANT VALLEY,  36.786545, -76.151556
0800,LYNNHAVEN & BRIDLE CREEK,  36.785561, -76.156833
0801,INDIAN RIVER & WESTHAVEN,  36.788084, -76.162882
0802,INDIAN LAKES & HALIFAX,  36.792955, -76.163672
0804,INDIAN RIVER & THOMPKINS,  36.801182, -76.182095
0806,INDIAN RIVER & GENERAL,  36.802999, -76.185804
0807,INDIAN RIVER & STRICKLAND,  36.805190, -76.190437
0808,INDIAN RIVER & REON,  36.810219, -76.200883
0809,PROVIDENCE & BLAKELY,  36.810653, -76.209408
0810,AUBURN & MILITARY,  36.808941, -76.217895
0811,MILITARY & AUBURN,  36.810077, -76.218443
0812,MILITARY & INDIAN RIVER,  36.814401, -76.215858
0813,INDIAN RIVER & LELAND,  36.818202, -76.216984
0814,INDIAN RIVER & JUSTIS,  36.820623, -76.225182
0815,INDIAN RIVER & HAZEL,  36.822304, -76.230871
0816,INDIAN RIVER & SAINT LAWRENCE,  36.824643, -76.239533
0817,INDIAN RIVER & KEMP,  36.826789, -76.244667
0818,WILSON & CYPRESS,  36.828370, -76.266327
0819,WILSON & MANSON,  36.826327, -76.267744
0820,INDIAN RIVER P&R LOT,  36.810162, -76.198962
0823,CITY CENTER & ROCK LANDING,  37.094808, -76.468829
0825,BRAMBLETON & PARK,  36.846060, -76.269996
0826,CAMPOSTELLA & INDIAN RIVER,  36.831079, -76.261836
0827,MELON & CAMPOSTELLA,  36.827627, -76.262875
0831,STALHAM & FIRESIDE,  36.812093, -76.249394
0835,BATTLEFIELD & LENORE,  36.759727, -76.250169
0836,BATTLEFIELD & GIBSON,  36.756062, -76.248610
0839,BATTLEFIELD & NORTHFIELD,  36.729852, -76.241008
0840,BATTLEFIELD & TILDEN,  36.725499, -76.241347
0841,BATTLEFIELD & LOCKS,  36.722163, -76.240354
0842,BATTLEFIELD & CEDAR,  36.717130, -76.239374
0843,SHEA & CONQUEST,  36.715606, -76.248840
0844,CEDAR & LAS GAVIOTAS,  36.720554, -76.288316
0845,TCC CHESAPEAKE,  36.726177, -76.294865
0846,BATTLEFIELD & CEDAR,  36.717572, -76.239244
0849,BATTLEFIELD & WELCH,  36.730076, -76.240672
0850,BATTLEFIELD & GAINSBOROUGH,  36.740677, -76.242519
0851,BATTLEFIELD & MEDICAL,  36.745779, -76.244437
0852,BATTLEFIELD & OAK GROVE,  36.754430, -76.247527
0853,BATTLEFIELD & LENORE,  36.758428, -76.249368
0854,BATTLEFIELD & THRASHER,  36.762442, -76.250823
0855,STALHAM & FIRESIDE,  36.812086, -76.249532
0856,STALHAM & SHADY,  36.813535, -76.249160
0857,BORDER & BETHEL,  36.815734, -76.259168
0858,BERKLEY & CRYSTAL,  36.824897, -76.266885
0859,BERKLEY & CAMPOSTELLA,  36.822698, -76.261365
0860,CAMPOSTELLA & BERKLEY,  36.823740, -76.260499
0861,CAMPOSTELLA & MELON,  36.828225, -76.260938
0862,CAMPOSTELLA & CANTON,  36.831936, -76.261651
0863,CAMPOSTELLA & ARLINGTON,  36.835301, -76.262950
0866,INDEPENDENCE & LAKESIDE,  36.892569, -76.140202
0867,PLEASURE HOUSE & THOROUGHGOOD SQ,  36.896669, -76.139011
0869,SHORE & PLEASANT,  36.928887, -76.191269
0871,LITTLE CREEK & CORTLANDT,  36.915749, -76.302155
0872,LITTLE CREEK & ENFIELD,  36.916003, -76.297800
0873,LITTLE CREEK & TAPLEY,  36.916020, -76.295806
0874,LITTLE CREEK & DIVEN,  36.916057, -76.293735
0876,LITTLE CREEK & ARMFIELD,  36.916095, -76.290152
0877,LITTLE CREEK & RUTHVEN,  36.916000, -76.285358
0878,LITTLE CREEK & SHERYL,  36.915584, -76.281386
0881,LITTLE CREEK & COLONIAL,  36.914919, -76.274783
0882,TAUSSIG & GRANBY,  36.917803, -76.271258
0883,TAUSSIG & LITTLE CREEK,  36.917326, -76.269463
0884,LITTLE CREEK & FORT WORTH,  36.917755, -76.264653
0885,LITTLE CREEK & GALVESTON,  36.918012, -76.262017
0886,LITTLE CREEK & DALLAS,  36.917419, -76.258884
0887,LITTLE CREEK & VAN PATTEN,  36.916820, -76.256375
0888,JOHNSTONS & AUBURN,  36.907750, -76.238553
0890,JOHNSTONS & MILITARY,  36.908477, -76.234960
0891,MILITARY & JOHNSTONS,  36.906843, -76.232535
0892,MILITARY & SPRINGMEADOW,  36.904021, -76.230478
0893,MILITARY & LONGDALE,  36.900994, -76.228274
0895,MILITARY & CRESCENT,  36.898179, -76.226142
0896,MILITARY & INTERNATIONAL,  36.896219, -76.224779
0898,MILITARY & NORVELLA,  36.892958, -76.222396
0900,AZALEA GARDEN & IOWA,  36.888216, -76.221105
0901,AZALEA GARDEN & WINDERMERE,  36.885557, -76.222801
0903,AZALEA GARDEN & BEAMON,  36.881334, -76.225500
0905,ROBIN HOOD & WALMER,  36.879025, -76.226195
0907,ROBIN HOOD & AYLIFF,  36.879943, -76.221583
0908,ROBIN HOOD & ALMEDA,  36.881514, -76.216691
0911,MILITARY & ELIZABETH,  36.876367, -76.210799
0913,MILITARY & LOWERY,  36.865370, -76.210891
0914,JANAF SHOPPING CENTER,  36.859316, -76.206575
0916,MILITARY CIRCLE MALL,  36.852734, -76.203350
0917,POPLAR HALL & HONAKER,  36.849882, -76.201698
0918,POPLAR HALL & MILITARY,  36.848941, -76.208106
0919,MILITARY & CORPORATE,  36.835777, -76.210730
0920,MILITARY & BROCKMAN,  36.827887, -76.210743
0921,MILITARY & DRIFT TIDE,  36.820977, -76.212492
0922,MILITARY & AUBURN,  36.808793, -76.219751
0923,MILITARY & ENGLE,  36.805654, -76.223553
0924,MILITARY & PARAMONT,  36.802201, -76.228272
0925,MILITARY & SMITH,  36.799776, -76.231564
0927,GRANBY & SLOANE,  36.945606, -76.259316
0928,GRANBY & DELAWARE,  36.882776, -76.281840
0929,ATLANTIC & POCAHONTAS,  36.809438, -76.264448
0930,MILITARY & OLD GREENBRIER,  36.797900, -76.233664
0931,MILITARY & SMITH,  36.800414, -76.230213
0932,MILITARY & PARAMONT,  36.801828, -76.228305
0933,MILITARY & LOCKARD,  36.805738, -76.222926
0934,MILITARY & BULLIS,  36.822851, -76.210968
0935,MILITARY & BROCKMAN,  36.827793, -76.210327
0938,JANAF SHOPPING CENTER,  36.859350, -76.206409
0939,MILITARY & LAKE HERBERT,  36.868902, -76.210992
0942,MILITARY & LAKE WRIGHT,  36.877784, -76.211048
0943,MILITARY & ROBIN HOOD,  36.880089, -76.212614
0944,ROBIN HOOD & ALMEDA,  36.881003, -76.218286
0945,ROBIN HOOD & AYLIFF,  36.880245, -76.220812
0946,ROBIN HOOD & AZALEA GARDEN,  36.879307, -76.226525
0947,AZALEA GARDEN & BEAMON,  36.881909, -76.225018
0949,MILITARY & AZALEA GARDEN,  36.890601, -76.220398
0950,MILITARY & NORVELLA,  36.893301, -76.222358
0951,MILITARY & NORVIEW,  36.895594, -76.224095
0953,MILITARY & MEADOW LAKE,  36.898299, -76.226068
0954,MILITARY & LONGDALE,  36.901013, -76.227992
0956,MILITARY & JOHNSTONS,  36.906872, -76.232212
0957,JOHNSTONS & MILITARY,  36.908798, -76.234733
0959,JOHNSTONS & ROSEMONT,  36.907862, -76.238279
0960,SEWELLS POINT & DENVER,  36.871495, -76.232282
0961,INDIAN RIVER & CAMPOS,  36.830817, -76.259607
0963,LITTLE CREEK & GALVESTON,  36.918263, -76.262190
0964,LITTLE CREEK & WEST GLEN,  36.917760, -76.265298
0965,TAUSSIG & LITTLE CREEK,  36.917607, -76.270024
0966,LITTLE CREEK & VICTORY,  36.915167, -76.275839
0967,LITTLE CREEK & NEWPORT,  36.915622, -76.279867
0969,LITTLE CREEK & RUTHVEN,  36.916166, -76.285737
0970,LITTLE CREEK & GRANTHAM,  36.916265, -76.287891
0971,LITTLE CREEK & MOUNT PLEASANT,  36.916229, -76.292010
0972,LITTLE CREEK & DIVEN,  36.916207, -76.293657
0974,LITTLE CREEK & ENFIELD,  36.916144, -76.298022
0976,LITTLE CREEK & CORTLANDT,  36.915842, -76.302377
0978,LITTLE CREEK & HAMPTON,  36.916111, -76.306706
0980,TIDEWATER & BAYVIEW,  36.933637, -76.253713
0981,TIDEWATER & BECK,  36.937061, -76.254243
0982,TIDEWATER & CHESTER,  36.939187, -76.254592
0983,TIDEWATER & RANDALL,  36.942675, -76.256688
0988,BALLENTINE & PETERSON,  36.871430, -76.252560
0990,BALLENTINE & TAIT,  36.867802, -76.251711
0992,BALLENTINE & TARRANT,  36.863104, -76.250534
0993,PRINCESS ANNE & CROMWELL,  36.861384, -76.247618
0994,PRINCESS ANNE & INGLESIDE,  36.862407, -76.245401
0995,PRINCESS ANNE & ARKANSAS,  36.863345, -76.243372
0997,BALLENTINE & HOLLISTER,  36.855460, -76.248711
1000,BALLENTINE & TARRANT,  36.862514, -76.250240
1001,BALLENTINE & TAIT,  36.867624, -76.251508
1003,BALLENTINE & PETERSON,  36.871243, -76.252409
1004,BALLENTINE & HANBURY,  36.873124, -76.252905
1007,OCEAN VIEW & 5TH VIEW,  36.961387, -76.263407
1008,OCEAN VIEW & 6TH VIEW,  36.962990, -76.265889
1009,OCEAN VIEW & 7TH VIEW,  36.964151, -76.268488
1010,OCEAN VIEW & SALEM,  36.966635, -76.276475
1012,ORCUTT & MERCURY,  37.024731, -76.435976
1014,OCEAN VIEW & 15TH VIEW,  36.966952, -76.294315
1015,OCEAN VIEW & 14th VIEW,  36.967042, -76.290922
1016,OCEAN VIEW & LE CLAIR,  36.967098, -76.286382
1017,OCEAN VIEW & HANSFORD,  36.967068, -76.283866
1018,OCEAN VIEW & 10TH VIEW,  36.966800, -76.278106
1019,OCEAN VIEW & 9TH VIEW,  36.966134, -76.275429
1021,VIRGINIA BEACH & SALTER,  36.857682, -76.284401
1023,VIRGINIA BEACH & CHAPEL,  36.854980, -76.276275
1025,VIRGINIA BEACH & MARSHALL,  36.852230, -76.267586
1026,VIRGINIA BEACH & COVENANT,  36.851866, -76.264053
1028,VIRGINIA BEACH & OAKLAWN,  36.852061, -76.259239
1030,VIRGINIA BEACH & NORCHESTER,  36.852202, -76.255290
1031,VIRGINIA BEACH & MERRIMAC,  36.852261, -76.253039
1032,VIRGINIA BEACH & BELLMORE,  36.852564, -76.250035
1033,VIRGINIA BEACH & BALLENTINE,  36.852798, -76.248429
1034,VIRGINIA BEACH & FAIR MEADOWS,  36.853398, -76.175926
1036,VIRGINIA BEACH & JETT,  36.856264, -76.224764
1037,VIRGINIA BEACH & PECAN POINT,  36.856100, -76.221527
1038,VIRGINIA BEACH & ROUND BAY,  36.855939, -76.217389
1039,VIRGINIA BEACH & BRIAR HILL,  36.855856, -76.214256
1040,GLENROCK & VIRGINIA BEACH,  36.854531, -76.202827
1042,VIRGINIA BEACH & KEMPSVILLE,  36.855051, -76.194559
1048,VIRGINIA BEACH & DAVIS,  36.851974, -76.172456
1049,VIRGINIA BEACH & TOY,  36.850446, -76.168620
1050,VIRGINIA BEACH & CLEARFIELD,  36.848857, -76.164765
1052,VIRGINIA BEACH & NORTHRIDGE,  36.847110, -76.160489
1053,VIRGINIA BEACH & WITCHDUCK,  36.846127, -76.158123
1055,VIRGINIA BEACH & OPAL,  36.843580, -76.150166
1056,VIRGINIA BEACH & ARAGONA,  36.843536, -76.146669
1057,VIRGINIA BEACH & HORACE,  36.843489, -76.143308
1058,VIRGINIA BEACH & FIRST,  36.843430, -76.140587
1059,VIRGINIA BEACH & BEASLEY,  36.843283, -76.128282
1060,VOLVO & BRAY,  36.765084, -76.247031
1061,VIRGINIA BEACH & THALIA,  36.843190, -76.121293
1063,VIRGINIA BEACH & THALIA STATION,  36.842055, -76.115335
1064,VIRGINIA BEACH & KENTUCKY,  36.840439, -76.110719
1065,VIRGINIA BEACH & LYNN SHORES,  36.839835, -76.108137
1067,VIRGINIA BEACH & STRIP MALL,  36.839739, -76.103101
1068,VIRGINIA BEACH & ROSEMONT,  36.840463, -76.096562
1070,VIRGINIA BEACH & PLAZA TRAIL,  36.841416, -76.089839
1071,VIRGINIA BEACH & KING RICHARD,  36.841746, -76.087578
1072,VIRGINIA BEACH & GROVELAND,  36.842338, -76.083541
1073,VIRGINIA BEACH & KINGS GRANT,  36.843263, -76.077173
1074,VIRGINIA BEACH & LYNNHAVEN,  36.843970, -76.072013
1075,VIRGINIA BEACH & YORKTOWN,  36.843920, -76.070300
1076,VIRGINIA BEACH & FOUNDRY,  36.843036, -76.067430
1077,VIRGINIA BEACH & EUREKA,  36.840939, -76.061862
1078,VIRGINIA BEACH & HUTTON,  36.841099, -76.056694
1079,VIRGINIA BEACH & BYRD,  36.841624, -76.053437
1080,VIRGINIA BEACH & GREAT NECK,  36.841660, -76.051036
1082,LASKIN & REGENCY,  36.848250, -76.033084
1083,LASKIN & VILLAGE,  36.849246, -76.028711
1085,FIRST COLONIAL & LASKIN,  36.849640, -76.022039
1086,FIRST COLONIAL & DONNA,  36.847005, -76.021319
1087,VIRGINIA BEACH & OCEANA,  36.842717, -76.012294
1088,VIRGINIA BEACH & BIRCH LAKE,  36.841959, -75.992920
1090,VIRGINIA BEACH & COLONY,  36.842723, -75.988801
1091,VIRGINIA BEACH & PARKS,  36.843445, -75.984965
1092,VIRGINIA BEACH & CYPRESS,  36.843730, -75.983150
1096,ARCTIC & VIRGINIA BEACH,  36.845356, -75.977630
1098,VIRGINIA BEACH & JEFFERSON,  36.842854, -75.989170
1100,VIRGINIA BEACH & BIRCH LAKE,  36.841866, -75.994726
1102,VIRGINIA BEACH & DOZIER,  36.842752, -76.006666
1103,VIRGINIA BEACH & GARCIA,  36.842800, -76.010702
1105,FIRST COLONIAL & DONNA,  36.848192, -76.021369
1106,LASKIN & HILLTOP,  36.850485, -76.024715
1107,LASKIN & VICTOR,  36.849770, -76.028310
1108,LASKIN & REGENCY,  36.848185, -76.034080
1110,VOLVO & CROSSWAYS,  36.767420, -76.240213
1111,VIRGINIA BEACH & GREAT NECK,  36.842025, -76.050959
1112,VIRGINIA BEACH & CRIPPLE CREEK,  36.841223, -76.058426
1114,VIRGINIA BEACH & MUSTANG,  36.842928, -76.066111
1115,VIRGINIA BEACH & YORKTOWN,  36.844211, -76.069864
1116,VIRGINIA BEACH & CRANSTON,  36.842837, -76.082527
1118,VIRGINIA BEACH & KING RICHARD,  36.842014, -76.088239
1119,VIRGINIA BEACH & LITTLE NECK,  36.841375, -76.092570
1120,VIRGINIA BEACH & LYNN SHORES,  36.840172, -76.108250
1122,VIRGINIA BEACH & KENTUCKY,  36.841741, -76.113364
1123,VIRGINIA BEACH & STEPNEY,  36.843227, -76.117474
1124,VIRGINIA BEACH & THALIA,  36.843539, -76.121585
1125,VIRGINIA BEACH & CONSTITUTION,  36.843645, -76.129002
1126,VIRGINIA BEACH & SECOND,  36.843764, -76.138234
1127,VIRGINIA BEACH & KELLAM,  36.843850, -76.141490
1128,VIRGINIA BEACH & ARAGONA,  36.843893, -76.146385
1129,VIRGINIA BEACH & DORSET,  36.844005, -76.151074
1130,VIRGINIA BEACH & SOUTHGATE,  36.845270, -76.154899
1132,VIRGINIA BEACH & WITCHDUCK,  36.846154, -76.157065
1133,VIRGINIA BEACH & CLEARFIELD,  36.849268, -76.164761
1134,VIRGINIA BEACH & WEXFORD,  36.850697, -76.168250
1135,VIRGINIA BEACH & DAVIS,  36.852585, -76.172959
1139,VIRGINIA BEACH & KEMPSVILLE,  36.855377, -76.195348
1140,VIRGINIA BEACH & BURLING,  36.855501, -76.199297
1141,VIRGINIA BEACH & GLENROCK,  36.855555, -76.200357
1142,VIRGINIA BEACH & MILITARY,  36.855715, -76.206942
1143,VIRGINIA BEACH & BRIAR HILL,  36.856077, -76.215221
1144,VIRGINIA BEACH & RABY,  36.856325, -76.220082
1147,VIRGINIA BEACH & GODFREY,  36.852756, -76.249892
1148,VIRGINIA BEACH & MERRIMAC,  36.852445, -76.252759
1149,VIRGINIA BEACH & NORCHESTER,  36.852348, -76.255476
1151,VIRGINIA BEACH & OAKLAWN,  36.852202, -76.258933
1153,VIRGINIA BEACH & COVENANT,  36.852107, -76.263654
1154,VIRGINIA BEACH & MARSHALL,  36.852451, -76.267508
1155,VIRGINIA BEACH & TIDEWATER,  36.854429, -76.273814
1156,VIRGINIA BEACH & CHAPEL,  36.855370, -76.276692
1159,VIRGINIA BEACH & SALTER,  36.857906, -76.284319
1160,VIRGINIA BEACH & CENTRAL PARK,  36.843340, -76.135377
1161,VIRGINIA BEACH & FIRST COLONIAL,  36.842314, -76.020376
1162,VIRGINIA BEACH & BIRCHWOOD MALL,  36.840084, -76.101980
1163,VIRGINIA BEACH & ROSEMONT,  36.840348, -76.099601
1166,PRINCESS ANNE & MANTEO,  36.864906, -76.297286
1167,PRINCESS ANNE & COLONIAL,  36.863741, -76.294633
1168,PRINCESS ANNE & BOTETOURT,  36.862473, -76.292213
1171,PRINCESS ANNE & ARMISTEAD,  36.860110, -76.285268
1173,PRINCESS ANNE & CHURCH,  36.858214, -76.278704
1175,PRINCESS ANNE & CHAPEL,  36.857055, -76.275217
1176,PRINCESS ANNE & TIDEWATER,  36.856217, -76.272609
1177,PRINCESS ANNE & HANSON,  36.854900, -76.268538
1179,PRINCESS ANNE & PARK,  36.853868, -76.263934
1180,PRINCESS ANNE & RAINEY,  36.854397, -76.260958
1183,PRINCESS ANNE & MAJESTIC,  36.855045, -76.257796
1185,PRINCESS ANNE & MERRIMAC,  36.857307, -76.253686
1186,PRINCESS ANNE & BALLENTINE,  36.859496, -76.250324
1188,PRINCESS ANNE & NEVADA,  36.864394, -76.240890
1190,PRINCESS ANNE & AZALEA GARDEN,  36.866623, -76.235142
1192,PRINCESS ANNE & JUNIPER,  36.867058, -76.231113
1194,PRINCESS ANNE & NORCOVA,  36.868888, -76.227168
1195,PRINCESS ANNE & MCNEAL,  36.870733, -76.223807
1197,PRINCESS ANNE & DARDEN,  36.872684, -76.220199
1198,PRINCESS ANNE & GABRIEL,  36.874199, -76.217385
1200,VOLVO & SUMMIT POINTE,  36.767623, -76.238822
1201,PRINCESS ANNE & MILITARY,  36.874334, -76.208788
1202,LOWERY & KEMPSVILLE,  36.865899, -76.205238
1203,LOWERY & MILITARY,  36.864327, -76.208145
1204,LOWERY & WALMART,  36.864181, -76.208121
1205,LOWERY & KEMPSVILLE,  36.865813, -76.205180
1206,KEMPSVILLE & TITANS,  36.870509, -76.204154
1207,PRINCESS ANNE & COWAND,  36.875073, -76.212508
1208,PRINCESS ANNE & GABRIEL,  36.874278, -76.217718
1209,PRINCESS ANNE & BEEKMAN,  36.871576, -76.222706
1211,PRINCESS ANNE & HALSTEAD,  36.870128, -76.225379
1212,PRINCESS ANNE & NORCOVA,  36.868949, -76.227619
1214,PRINCESS ANNE & EARLY,  36.867186, -76.231510
1216,PRINCESS ANNE & FAIRBANKS,  36.865882, -76.238234
1217,PRINCESS ANNE & MINNESOTA,  36.864819, -76.240530
1219,PRINCESS ANNE & GRANDY,  36.860573, -76.249082
1221,PRINCESS ANNE & MERRIMAC,  36.857275, -76.254011
1222,PRINCESS ANNE & GRAND BASSA,  36.855610, -76.256915
1223,PRINCESS ANNE & RAINEY,  36.854476, -76.261300
1224,PRINCESS ANNE & PARK,  36.854016, -76.264021
1225,PRINCESS ANNE & MARSHALL,  36.854358, -76.266224
1226,PRINCESS ANNE & MALTBY,  36.854951, -76.268081
1228,PRINCESS ANNE & TIDEWATER,  36.856341, -76.272560
1229,PRINCESS ANNE & CHAPEL,  36.857321, -76.275454
1231,PRINCESS ANNE & CHURCH,  36.858481, -76.278962
1232,PRINCESS ANNE & ARMISTEAD,  36.860267, -76.285245
1235,PRINCESS ANNE & PENDER,  36.861992, -76.291032
1236,PRINCESS ANNE & COLONIAL,  36.863473, -76.293810
1237,PRINCESS ANNE & MANTEO,  36.864866, -76.296936
1243,COLUMBUS & CENTRAL PARK,  36.840971, -76.133828
1248,CAMPOSTELLA & ARBOR GLEN,  36.806653, -76.255773
1249,ATLANTIC & NARROW,  36.802562, -76.263073
1250,PACIFIC & WINSTON SALEM,  36.833637, -75.972374
1252,ATLANTIC & 42ND,  36.871167, -75.982442
1254,ATLANTIC & 45TH,  36.872717, -75.982917
1255,ATLANTIC & 52ND,  36.878814, -75.984821
1256,ATLANTIC & 56TH,  36.882452, -75.985944
1257,ATLANTIC & 58TH,  36.884138, -75.986462
1259,ATLANTIC & 64TH,  36.889247, -75.988054
1264,ATLANTIC & 82ND,  36.906874, -75.993025
1268,ATLANTIC & 68TH,  36.892826, -75.989318
1270,ATLANTIC & 61ST,  36.886526, -75.987340
1271,ATLANTIC & 57TH,  36.883169, -75.986297
1272,ATLANTIC & 51ST,  36.878622, -75.984885
1273,ATLANTIC & 46TH,  36.874085, -75.983466
1275,ATLANTIC & 43RD,  36.871528, -75.982823
1278,PACIFIC & 38TH,  36.866069, -75.981277
1279,PACIFIC & 36TH,  36.864084, -75.980735
1280,PACIFIC & 33RD,  36.861361, -75.979960
1282,PACIFIC & 26TH,  36.854385, -75.978086
1285,PACIFIC & 6TH,  36.834809, -75.972568
1286,PACIFIC & 11TH,  36.839186, -75.973786
1287,PACIFIC & 16TH,  36.844028, -75.975143
1288,ATLANTIC & NARROW,  36.803415, -76.263009
1290,KEMPSVILLE & KEMPSVILLE CIRCLE,  36.852130, -76.192495
1291,LIBERTY & GREER,  36.816212, -76.263501
1292,LIBERTY & JEFFERSON,  36.816356, -76.264153
1294,KEMPSVILLE & BANGOR,  36.843158, -76.189390
1295,NEWTOWN & KEMPSVILLE,  36.842331, -76.186697
1296,NEWTOWN & GREENWICH,  36.843620, -76.185036
1301,KEMPSVILLE & KEMPSVILLE CIR,  36.849341, -76.191310
1302,KEMPSVILLE & WELLVILLE,  36.853203, -76.192891
1303,GREAT NECK & WILLOW OAK,  36.910138, -76.067577
1304,GREAT NECK & WILLOW OAK,  36.910208, -76.067955
1307,NEWTOWN & ELAM,  36.851329, -76.178571
1308,NEWTOWN & ETHAN ALLEN,  36.849979, -76.179470
1309,NEWTOWN & GREENWICH,  36.843430, -76.185579
1310,KEMPSVILLE & BANGOR,  36.843437, -76.189331
1313,VIRGINIA BEACH & DOZIER,  36.842632, -76.006384
1316,BAKER & NEWTOWN,  36.860734, -76.176073
1317,BAKER & HAMPSHIRE,  36.862693, -76.177516
1318,BAKER & WEBLIN,  36.863999, -76.178370
1319,WESLEYAN & COLLEGE,  36.873403, -76.186929
1320,NORTHAMPTON & WESLEYAN,  36.877927, -76.191782
1321,NORTHAMPTON & BURTON STATION,  36.880768, -76.187091
1322,NORTHAMPTON & BAKER,  36.883967, -76.182192
1323,NORTHAMPTON & BAYSIDE,  36.891610, -76.171072
1324,NORTHAMPTON & SHELL,  36.895452, -76.154894
1325,NORTHAMPTON & JACK FROST,  36.894946, -76.157350
1326,NORTHAMPTON & BAYSIDE,  36.892329, -76.168907
1327,NORTHAMPTON & DIAMOND SPRINGS,  36.886371, -76.179951
1328,NORTHAMPTON & ADAMS,  36.884777, -76.181595
1329,NORTHAMPTON & BAKER,  36.883219, -76.184007
1330,NORTHAMPTON & BURTON STATION,  36.880963, -76.187476
1332,WESLEYAN & COLLEGE,  36.872209, -76.185342
1333,BAKER & CAMPUS,  36.869919, -76.181146
1334,BAKER & LAKE EDWARD,  36.864389, -76.178841
1335,BAKER & HAMPSHIRE,  36.862247, -76.177471
1336,BAKER & HAMPSHIRE,  36.861133, -76.176600
1337,NEWTOWN & LAKE EDWARD,  36.857974, -76.176547
1339,VIRGINIA BEACH & LINCOLN,  36.856821, -76.279903
1340,INDEPENDENCE & COLUMBUS,  36.840211, -76.137112
1341,GREAT BRIDGE & MAINS CREEK,  36.755803, -76.272436
1342,INDEPENDENCE & EDWIN,  36.827363, -76.132992
1344,HOLLAND & COMMUTER,  36.821282, -76.123299
1345,HOLLAND & S. PLAZA,  36.820065, -76.121409
1346,OCEAN VIEW & FIRST VIEW,  36.955870, -76.253034
1354,ROSEMONT & HOLLAND,  36.812345, -76.098272
1355,GREAT BRIDGE & FERNWOOD FARMS,  36.751948, -76.270836
1356,ROSEMONT & NORTHWOOD,  36.802538, -76.099994
1357,ROSEMONT & DAHLIA,  36.798341, -76.098917
1358,ROSEMONT & LYNNHAVEN,  36.794010, -76.099072
1359,ROSEMONT & BUCKNER,  36.789420, -76.097680
1360,ROSEMONT & BUCKNER,  36.788017, -76.095849
1361,ROSEMONT & PRIMROSE,  36.793963, -76.098781
1362,LYNNHAVEN & PRIMROSE,  36.794837, -76.094019
1363,LYNNHAVEN & CRIMSON HOLLY,  36.796648, -76.087856
1364,GREAT BRIDGE & ESTATES WAY,  36.748932, -76.268841
1365,LYNNHAVEN & RIVERBEND,  36.803732, -76.082918
1366,LYNNHAVEN & CHERIE,  36.810097, -76.072711
1370,LYNNHAVEN & SOUTHERN,  36.840386, -76.063610
1371,FIRST COLONIAL & CAMELOT,  36.867082, -76.029612
1373,GREAT BRIDGE & WICKFORD,  36.752010, -76.270738
1374,GREAT NECK & GODFREY,  36.884344, -76.047120
1375,GREAT NECK & GREEN HILL,  36.895154, -76.059882
1376,SHORE & GREAT NECK,  36.912085, -76.069616
1377,SHORE & EBB TIDE,  36.911123, -76.072969
1378,SHORE & DUPONT,  36.908001, -76.097640
1379,SHORE & SHADY OAKS,  36.907507, -76.108396
1380,SHORE & BAYVILLE,  36.907243, -76.112036
1381,SHORE & TREASURE ISLAND,  36.905834, -76.119644
1382,SHORE & VANTAGE,  36.905063, -76.123168
1383,SHORE & GREENWELL,  36.904407, -76.126462
1384,SHORE & GREENWELL,  36.904257, -76.125773
1385,SHORE & TREASURE ISLAND,  36.905452, -76.120046
1387,SHORE & STRAFFORD,  36.907762, -76.101926
1389,SHORE & DUPONT,  36.907867, -76.100018
1390,SHORE & STARFISH,  36.910140, -76.077907
1391,SHORE & SEA SHELL,  36.910651, -76.074571
1392,SHORE & EBB TIDE,  36.910921, -76.072693
1393,GREAT BRIDGE & MAINS CREEK,  36.755733, -76.272136
1395,GREAT NECK & WIMBLEDON POINT,  36.894836, -76.059919
1396,GREAT NECK & RIVER,  36.891777, -76.055393
1397,GREAT NECK & FALCON,  36.889089, -76.051404
1398,GREAT NECK & SHOREHAVEN,  36.886300, -76.049124
1399,GREAT NECK & MILLWOOD,  36.880905, -76.044401
1401,VOLVO & SUMMIT POINTE,  36.767891, -76.239113
1404,FIRST COLONIAL & HAVEN HOME,  36.866657, -76.029714
1406,LYNNHAVEN & SOUTHERN,  36.838421, -76.065084
1407,LYNNHAVEN & VIKING,  36.828689, -76.067364
1408,LYNNHAVEN & SOUTH LYNNHAVEN,  36.810233, -76.073044
1410,LYNNHAVEN & LAMPLIGHT,  36.806117, -76.079751
1411,LYNNHAVEN & HOLLAND,  36.801877, -76.084773
1412,LYNNHAVEN & CRIMSON HOLLY,  36.796162, -76.088947
1413,ROSEMONT & MOUNTAIN,  36.797052, -76.098430
1414,ROSEMONT & SHAWN,  36.799397, -76.098876
1415,ROSEMONT & STONESHORE,  36.806015, -76.100298
1416,ROSEMONT & WILLOW LAKE,  36.809070, -76.099376
1417,ROSEMONT & HOLLAND,  36.812102, -76.098083
1418,FIRST COLONIAL & WILL O WISP,  36.863696, -76.028054
1423,VIRGINIA BEACH & HUTTON,  36.841579, -76.056243
1424,SHORE & STARFISH,  36.910424, -76.078009
1425,ROSEMONT & BUNYAN,  36.809720, -76.099283
1428,HOLLAND & COMMUTER,  36.821733, -76.123633
1429,INDEPENDENCE & EDWIN,  36.827087, -76.131929
1430,INDEPENDENCE & WICKLOW,  36.829388, -76.135528
1431,EXECUTIVE & DEVRY,  36.770360, -76.237562
1432,FIRST COLONIAL & SOUTHHALL,  36.856832, -76.025701
1433,LYNNHAVEN & PRIMROSE,  36.795015, -76.093859
1434,INDEPENDENCE & BONNEY,  36.839416, -76.136671
1435,HOLLAND & S. PLAZA,  36.820083, -76.120997
1441,HOLLAND & WATERS,  36.817484, -76.117326
1442,HOLLAND & CHASEWAY,  36.815072, -76.104828
1443,HOLLAND & CHIMNEY HILL,  36.813969, -76.100894
1444,HOLLAND & GARFIELD,  36.812343, -76.096376
1446,HOLLAND & NORTHWOOD,  36.809036, -76.092901
1447,HOLLAND & STONESHORE,  36.805508, -76.090216
1448,HOLLAND & GREEN RUN,  36.802645, -76.088002
1449,HOLLAND & GREEN RUN,  36.801964, -76.087192
1450,HOLLAND & DIANA LEE,  36.809122, -76.092702
1452,HOLLAND & CHANTRY,  36.812229, -76.095748
1453,HOLLAND & CHIMNEY HILL,  36.814223, -76.101008
1454,HOLLAND & GOVERNORS,  36.816209, -76.108324
1455,HOLLAND & WINDSOR OAKS,  36.816260, -76.112867
1456,GENERAL BOOTH & CULVER,  36.774325, -76.007302
1457,GENERAL BOOTH & HUBBELL,  36.781184, -76.001694
1458,GENERAL BOOTH & EDISON,  36.778151, -76.003711
1459,HOLLAND & WINDSOR OAKS,  36.816165, -76.110595
1466,GENERAL BOOTH & DAM NECK,  36.787422, -75.998335
1480,KOA,  36.796340, -75.991989
1481,GENERAL BOOTH & BIRDNECK,  36.809654, -75.989975
1483,GENERAL BOOTH & RUDEE POINT,  36.828797, -75.973677
1486,PACIFIC & 28TH,  36.856109, -75.978360
1487,PACIFIC & 34TH,  36.861983, -75.980006
1488,PACIFIC & 36TH,  36.864224, -75.980579
1489,GENERAL BOOTH & HARBOUR,  36.828802, -75.973990
1490,GENERAL BOOTH & VA AQUARIUM,  36.820606, -75.982906
1492,GENERAL BOOTH & BIRDNECK,  36.809954, -75.990292
1493,GENERAL BOOTH & OCEANA,  36.795367, -75.995096
1500,PRINCESS ANNE & CHEYENNE,  36.839991, -76.182910
1501,PRINCESS ANNE & HILL PRINCE,  36.834677, -76.178320
1502,PRINCESS ANNE & KEMPSHIRE,  36.824921, -76.157210
1503,PRINCESS ANNE & BAXTER,  36.823346, -76.152529
1504,PRINCESS ANNE & EDWIN,  36.815334, -76.145009
1505,PRINCESS ANNE & TIMBERLAKE,  36.810607, -76.138386
1506,PRINCESS ANNE & PROVIDENCE,  36.802844, -76.132428
1507,PRINCESS ANNE & PARLIAMENT,  36.828346, -76.167765
1508,PRINCESS ANNE & OVERLAND,  36.825929, -76.163452
1509,CROSSWAYS & EDEN WAY,  36.770473, -76.244477
1510,PRINCESS ANNE & DAM NECK,  36.773805, -76.088886
1511,INDEPENDENCE & CULLEN,  36.888627, -76.137461
1512,PRINCESS ANNE & DEGRASSE,  36.753155, -76.056479
1514,PRINCESS ANNE & GENERAL BOOTH,  36.759657, -76.020209
1515,PRINCESS ANNE & PARLIAMENT,  36.828505, -76.167516
1516,PRINCESS ANNE & CAPOT,  36.830503, -76.173334
1518,BORDER & DRAYTON,  36.816629, -76.257225
1523,PRINCESS ANNE & GENERAL BOOTH,  36.760193, -76.019763
1525,VIRGINIA BEACH & CYPRESS,  36.843796, -75.983513
1526,UPTON & NIMMO,  36.759073, -76.005689
1527,PRINCESS ANNE & DEGRASSE,  36.753222, -76.056188
1529,PRINCESS ANNE & DAM NECK,  36.774520, -76.089239
1530,UNIVERSITY & FACULTY,  36.784456, -76.096803
1537,PRINCESS ANNE & BRANTINGHAM,  36.800788, -76.130504
1538,PRINCESS ANNE & CAMBELTON,  36.808224, -76.135135
1539,PRINCESS ANNE & TIMBERLAKE,  36.810789, -76.138269
1540,PRINCESS ANNE & EDWIN,  36.815207, -76.144456
1541,PRINCESS ANNE & HARTSDALE,  36.825026, -76.156198
1543,PORTSMOUTH & CHESTNUT,  36.818788, -76.307769
1544,PORTSMOUTH & FREDERICK,  36.817255, -76.324326
1546,PORTSMOUTH & ELM,  36.819337, -76.311721
1548,PORTSMOUTH & ACORN,  36.819357, -76.314678
1549,PORTSMOUTH & LANSING,  36.818804, -76.317424
1550,COUNTY & COURT,  36.833900, -76.299099
1551,PORT CENTRE & BART,  36.831280, -76.300825
1553,MADISON & 7TH,  36.820672, -76.301854
1554,GEORGE WASHINGTON & WIRT,  36.813664, -76.313207
1555,GEORGE WASHINGTON & FREDERICK,  36.811505, -76.315799
1556,GEORGE WASHINGTON & GREENWOOD,  36.807483, -76.319250
1557,GEORGE WASHINGTON & HANBURY,  36.804744, -76.321483
1558,AFTON & GEORGE WASHINGTON,  36.802792, -76.321800
1559,AFTON & BURTIS,  36.802477, -76.320363
1560,GEORGE WASHINGTON & CHANNING,  36.801922, -76.323223
1561,GEORGE WASHINGTON & GARRETT,  36.798936, -76.325141
1563,GEORGE WASHINGTON & RODGERS,  36.796400, -76.326688
1564,VICTORY & GEORGE WASHINGTON,  36.795474, -76.329112
1565,VICTORY & VICTORY VILLAGE APTS,  36.796012, -76.332402
1566,GREENWOOD & CLAY,  36.799840, -76.364555
1569,VICTORY & FREEDOM,  36.805140, -76.354306
1570,MCLEAN & BELMONT,  36.811638, -76.352758
1575,VICTORY & DEEP CREEK,  36.795967, -76.335410
1576,VICTORY & SEBAGO,  36.795688, -76.331923
1577,VICTORY & HURON,  36.795200, -76.329061
1578,GEORGE WASHINGTON & RODGERS,  36.796295, -76.326515
1579,GEORGE WASHINGTON & WOODLAND,  36.797546, -76.325771
1580,GEORGE WASHINGTON & GARRETT,  36.798527, -76.325118
1582,GEORGE WASHINGTON & GREENWOOD,  36.807131, -76.319319
1584,GEORGE WASHINGTON & ELM,  36.814619, -76.311355
1586,PORTSMOUTH & GREEN,  36.819028, -76.303338
1587,HIGH & CRAWFORD,  36.835306, -76.299245
1588,CAVALIER & MCLEAN,  36.809905, -76.351453
1590,FLORIDA & HIGH,  36.835030, -76.336932
1591,HIGH & WATSON,  36.834494, -76.334566
1593,CUTHERELL & MCKINLEY,  36.833073, -76.331683
1594,ROMANESQUE & MARKHAM,  36.831474, -76.331638
1595,TURNPIKE & HOWARD,  36.828028, -76.334273
1596,TURNPIKE & FREDERICK,  36.826382, -76.337072
1597,TURNPIKE & RODMAN,  36.820645, -76.346423
1598,TURNPIKE & UTAH,  36.819237, -76.348762
1599,TURNPIKE & KINGS,  36.816979, -76.352499
1600,MCLEAN & AIRLINE,  36.814394, -76.355536
1601,PORTSMOUTH & MOHAWK,  36.816255, -76.362055
1602,PORTSMOUTH & CATAWBA,  36.817170, -76.365793
1603,PORTSMOUTH & BYERS,  36.818257, -76.371914
1604,PORTSMOUTH & JEWELL,  36.818923, -76.375568
1605,PORTSMOUTH & ELMHURST,  36.819577, -76.379488
1606,PORTSMOUTH & ROBIN,  36.820914, -76.386885
1607,PORTSMOUTH & BOB WHITE,  36.821478, -76.390090
1608,PORTSMOUTH & TAYLOR,  36.824074, -76.411278
1609,PORTSMOUTH & WEST CAPRI CIRCLE,  36.821869, -76.421559
1610,PORTSMOUTH & CAPRI,  36.821331, -76.422381
1611,PORTSMOUTH & ROBIN,  36.820734, -76.386894
1612,PORTSMOUTH & HAYSOM,  36.819397, -76.379497
1613,PORTSMOUTH & STANLEY,  36.818584, -76.374827
1614,PORTSMOUTH & BYERS,  36.818145, -76.372267
1615,MCLEAN & COURT,  36.814112, -76.354969
1617,TURNPIKE & UTAH,  36.819451, -76.347997
1618,TURNPIKE & LENORA,  36.823917, -76.340635
1619,TURNPIKE & FREDERICK,  36.826327, -76.336677
1620,TURNPIKE & PRESTON,  36.828370, -76.333271
1622,ROMANESQUE & MARKHAM,  36.831314, -76.331333
1623,CUTHERELL & MCKINLEY,  36.833123, -76.331488
1625,HIGH & WATSON,  36.834648, -76.334089
1634,EFFINGHAM & SOUTH,  36.832726, -76.306891
1636,EFFINGHAM & COUNTY,  36.833168, -76.306665
1637,EFFINGHAM & BRIGHTON,  36.826210, -76.306505
1639,EFFINGHAM & HENRY,  36.826841, -76.306365
1640,EFFINGHAM & LINCOLN,  36.824432, -76.306524
1641,EFFINGHAM & LINCOLN,  36.824355, -76.306209
1642,EFFINGHAM & FAYETTE,  36.821459, -76.306384
1644,EFFINGHAM & GARFIELD,  36.820220, -76.306254
1645,EFFINGHAM & JEFFERSON,  36.821901, -76.306117
1646,EFFINGHAM & ARGYLE,  36.819501, -76.306223
1647,EFFINGHAM & PORTSMOUTH,  36.819324, -76.305990
1650,GEORGE WASHINGTON & CHANNING,  36.801719, -76.323167
1685,HIGH & WASHINGTON,  36.835194, -76.303472
1686,HIGH & TWINE,  36.835058, -76.316908
1687,HIGH & EFFINGHAM,  36.835267, -76.307333
1690,HIGH & CHESTNUT,  36.835087, -76.308031
1691,HIGH & ELM,  36.834978, -76.312020
1692,HIGH & DINWIDDIE,  36.835221, -76.302038
1693,HIGH & RUTH BROWN,  36.834987, -76.320140
1694,HIGH & JAMESTOWN,  36.834855, -76.325215
1695,HIGH & POTOMAC,  36.834528, -76.340345
1696,HIGH & CUMBERLAND,  36.834434, -76.343688
1697,HIGH & RODMAN,  36.835896, -76.347598
1698,HIGH & WILLETT,  36.837500, -76.350135
1699,HIGH & GRAYSON,  36.840180, -76.355363
1700,HIGH & SEAGROVE,  36.845562, -76.369111
1701,HIGH & SHIRLEY,  36.846688, -76.371240
1702,HIGH & GRAYSON,  36.840372, -76.356266
1703,HIGH & DOGWOOD,  36.857844, -76.387220
1704,HIGH & BON SECOURS,  36.859365, -76.389716
1705,HIGH & SHIRLEY,  36.846628, -76.371511
1706,HIGH & BON SECOURS,  36.859737, -76.389792
1707,HIGH & REESE,  36.853965, -76.382166
1709,HIGH & CEDAR,  36.852348, -76.379700
1710,HIGH & STERLING POINT,  36.851456, -76.378698
1711,HIGH & ORANGE,  36.839005, -76.353181
1712,HIGH & WILLIAMSBURG,  36.834795, -76.320576
1713,HIGH & LOUDOUN,  36.834262, -76.343770
1714,HIGH & JAMESTOWN,  36.834725, -76.324216
1715,HIGH & COURT,  36.835444, -76.301227
1716,HIGH & WASHINGTON,  36.835373, -76.304342
1725,ELM & SOUTH,  36.831014, -76.312806
1726,ELM & DUKE,  36.827545, -76.312622
1727,LINCOLN & CAMDEN,  36.824475, -76.313631
1729,LINCOLN & CHARLESTON,  36.824401, -76.316785
1733,LINCOLN & EVERGREEN,  36.824202, -76.322789
1735,COLUMBUS & LINCOLN,  36.823719, -76.325083
1737,COLUMBUS & DALE,  36.821205, -76.324972
1738,DEEP CREEK & GRAHAM,  36.818396, -76.325733
1739,DEEP CREEK & PORTSMOUTH,  36.816062, -76.329052
1741,DEEP CREEK & CHARLES,  36.811272, -76.327673
1742,DEEP CREEK & BENTON,  36.809601, -76.328873
1743,GREENWOOD & MAUPIN,  36.806516, -76.331457
1744,GREENWOOD & PARADISE,  36.805837, -76.343694
1752,MCLEAN & COLLEGE,  36.807231, -76.348240
1753,MCLEAN & GREENWOOD,  36.805212, -76.345981
1754,GREENWOOD & PARADISE,  36.805448, -76.344280
1755,GREENWOOD & INDEPENDENCE,  36.806154, -76.335686
1756,GREENWOOD & MAUPIN,  36.806398, -76.331919
1758,DEEP CREEK & DEKALB,  36.808889, -76.329037
1759,DEEP CREEK & EDISON,  36.812790, -76.328176
1760,DEEP CREEK & PENNOCK,  36.815050, -76.329357
1761,DEEP CREEK & FREDERICK,  36.817610, -76.326922
1762,COLUMBUS & LEXINGTON,  36.819991, -76.324333
1763,COLUMBUS & JEFFERSON,  36.821561, -76.324920
1765,COLUMBUS & LINCOLN,  36.823842, -76.325015
1768,LINCOLN & DEEP CREEK,  36.824155, -76.321500
1770,LINCOLN & PIEDMONT,  36.824152, -76.319381
1771,LINCOLN & LANSING,  36.824205, -76.317592
1773,LINCOLN & CAMDEN,  36.824354, -76.313023
1774,ELM & RANDOLPH,  36.825813, -76.312423
1775,ELM & SOUTH,  36.830597, -76.312632
1780,GEORGE WASHINGTON & VICTORY,  36.793879, -76.328284
1781,GEORGE WASHINGTON & WINTERGREEN,  36.790753, -76.330514
1784,CAMELOT & GEORGE WASHINGTON,  36.779892, -76.337654
1791,GUENEVERE & SIR MELIOT,  36.779447, -76.350652
1792,GUENEVERE & SIR GAWAINE,  36.778918, -76.347966
1793,KING ARTHUR & ERIC,  36.780150, -76.347116
1794,CAMELOT & CASTLE,  36.781393, -76.345188
1795,CANAL & BROADMOOR,  36.774435, -76.324761
1797,LIBERTYVILLE & MULLEN,  36.757060, -76.276813
1798,MILITARY & CANADIAN,  36.776832, -76.269660
1800,MILITARY & CANADIAN,  36.776719, -76.270307
1801,CANAL & MILITARY,  36.773962, -76.324509
1802,GILMERTON & ALBERT,  36.779834, -76.331391
1804,PORTSMOUTH & RODMAN,  36.815692, -76.341474
1805,GEORGE WASHINGTON & DELWOOD,  36.787755, -76.332346
1806,GEORGE WASHINGTON & WINTERGREEN,  36.790216, -76.330623
1807,PORTSMOUTH & ROANOKE,  36.817980, -76.321450
1808,PORTSMOUTH & COLUMBUS,  36.817489, -76.323785
1809,PORTSMOUTH & DAHLIA,  36.816228, -76.331734
1811,PORTSMOUTH & MAGNOLIA,  36.815952, -76.335980
1813,PORTSMOUTH & TRUXTON,  36.815768, -76.339578
1815,PORTSMOUTH & DEEP CREEK,  36.816449, -76.328124
1816,PORTSMOUTH & TRUXTON,  36.815642, -76.339523
1819,CHURCHLAND & TYRE NECK,  36.862296, -76.393309
1820,TOWNE POINT & DUNKIRK,  36.867189, -76.400033
1823,TOWNE POINT & MAGNOLIA,  36.873774, -76.409320
1824,TOWNE POINT & PINEBARK,  36.874054, -76.405578
1825,TOWNE POINT & PEPPERWOOD,  36.872972, -76.402268
1826,TOWNE POINT & DUNKIRK,  36.866967, -76.400273
1827,CHURCHLAND & TOWNPOINT,  36.865326, -76.398920
1830,POINDEXTER & B,  36.818771, -76.272952
1832,POINDEXTER & RODGERS,  36.817887, -76.274672
1833,POINDEXTER & STEWART,  36.816373, -76.277522
1835,BAINBRIDGE & JEFFERSON,  36.813283, -76.278340
1836,BAINBRIDGE & HOLLY,  36.810353, -76.277742
1838,BAINBRIDGE & LESTER,  36.807737, -76.277132
1839,BAINBRIDGE & HUGHES,  36.806186, -76.276723
1840,BAINBRIDGE & BEECH,  36.804446, -76.276223
1841,BAINBRIDGE & HARVARD,  36.797005, -76.277470
1842,BAINBRIDGE & ROWLAND,  36.795494, -76.278085
1843,BAINBRIDGE & HILL,  36.791339, -76.279804
1844,BAINBRIDGE & ROSEMONT,  36.789726, -76.280470
1845,BAINBRIDGE & GODWIN,  36.788134, -76.281117
1846,BAINBRIDGE & BURROW,  36.785916, -76.281999
1847,BAINBRIDGE & REUNION,  36.780232, -76.284282
1861,BAINBRIDGE & OUTLAW,  36.763946, -76.288763
1862,BAINBRIDGE & GREAT BRIDGE,  36.769900, -76.288212
1863,BAINBRIDGE & SMITH DOUGLAS,  36.772792, -76.287013
1864,BAINBRIDGE & REUNION,  36.780149, -76.284106
1865,BAINBRIDGE & BURROW,  36.785981, -76.281819
1866,BAINBRIDGE & ROSEMONT,  36.790065, -76.280178
1867,BAINBRIDGE & FRANKLIN,  36.792600, -76.279142
1869,BAINBRIDGE & CHESAPEAKE,  36.804849, -76.276209
1870,BAINBRIDGE & HUGHES,  36.806284, -76.276610
1871,BAINBRIDGE & BYRD,  36.808693, -76.277272
1872,BAINBRIDGE & JEFFERSON,  36.814077, -76.278375
1874,POINDEXTER & STEWART,  36.816993, -76.276467
1875,POINDEXTER & JACKSON,  36.818145, -76.273925
1877,PORTSMOUTH & ROYAL,  36.815830, -76.336476
1882,PORTSMOUTH & DES MOINES,  36.818477, -76.318352
1883,PORTSMOUTH & BEECH,  36.819015, -76.315703
1885,PORTSMOUTH & ELM,  36.819094, -76.310750
1886,PORTSMOUTH & PEACH,  36.818766, -76.308704
1904,AIRLINE & QUAILSHIRE,  36.793775, -76.401154
1905,AIRLINE & MAPLEFIELD,  36.797367, -76.396419
1911,HAMPTON & 37TH,  36.878835, -76.302135
1912,PRINCESS ANNE & VINCENT,  36.859340, -76.250805
1913,MILITARY & POPLAR HALL,  36.848310, -76.210318
1914,MCLEAN & BELMONT,  36.811508, -76.352602
1915,AIRLINE & CHOWAN,  36.810803, -76.364512
1916,AIRLINE & CITY PARK,  36.809467, -76.368194
1917,AIRLINE & KINGS GATE,  36.808392, -76.371253
1918,AIRLINE & LANCER,  36.806574, -76.377339
1919,AIRLINE & ELMHURST,  36.805063, -76.382437
1920,AIRLINE & AHOY,  36.799902, -76.392459
1921,AIRLINE & HOLLEY COVE,  36.797345, -76.396784
1922,SUNKIST & AIRLINE,  36.792901, -76.402022
1923,AIRLINE & BROOKESHIRE,  36.796631, -76.397723
1924,AIRLINE & AHOY,  36.799544, -76.392762
1925,AIRLINE & ELMHURST,  36.805614, -76.380108
1926,AIRLINE & LANCER,  36.806492, -76.377244
1927,AIRLINE & CITY PARK,  36.808267, -76.371127
2000,NEWPORT NEWS TRANSFER CENTER,  36.983572, -76.435057
2001,WASHINGTON & 29TH,  36.980415, -76.432096
2002,WASHINGTON & 26TH,  36.978567, -76.430913
2003,25TH & HUNTINGTON,  36.978036, -76.429436
2004,25TH & JEFFERSON,  36.981621, -76.420509
2006,25TH & MARSHALL,  36.983456, -76.415863
2007,25TH & WICKHAM,  36.984527, -76.413211
2009,25TH & ROANOKE,  36.986342, -76.408641
2010,25TH & OAK,  36.988268, -76.403788
2011,25TH & PARISH,  36.989338, -76.401060
2012,25TH & BUXTON,  36.990674, -76.397630
2015,25TH & HICKORY,  36.993325, -76.394564
2016,KECOUGHTAN & PEAR,  36.994473, -76.393195
2018,KECOUGHTAN & HOLLYWOOD,  36.997897, -76.389161
2020,KECOUGHTAN & ROBINSON,  37.000835, -76.381785
2021,KECOUGHTAN & CHESTERFIELD,  37.002584, -76.378647
2024,KECOUGHTAN & POCHIN,  37.004392, -76.375236
2025,KECOUGHTAN & RALEIGH,  37.005697, -76.372742
2026,KECOUGHTAN & HAMPTON ROADS,  37.007084, -76.370105
2028,KECOUGHTAN & ALGONQUIN,  37.007820, -76.364285
2030,KECOUGHTAN & LASALLE,  37.008302, -76.359088
2032,KECOUGHTAN & ARMSTRONG,  37.009437, -76.355310
2033,KECOUGHTAN & CLYDE,  37.010608, -76.353175
2034,KECOUGHTAN & IVY HOME,  37.012846, -76.352932
2036,KECOUGHTAN & SUNSET,  37.016217, -76.352850
2038,KECOUGHTAN & VICTORIA,  37.020514, -76.352496
2040,KECOUGHTAN & CHAPEL,  37.023521, -76.352259
2041,LAFAYETTE & LENS,  36.875944, -76.256755
2042,PEMBROKE & CYPRESS,  37.033138, -76.330026
2045,EATON & MILL POINT,  37.027312, -76.341819
2046,KING & PEMBROKE,  37.029243, -76.345087
2047,HAMPTON TRANSIT CENTER,  37.030744, -76.346812
2048,KING & HUFFMAN,  37.035865, -76.347167
2050,KING & RIP RAP,  37.039454, -76.348137
2051,KING & PLAZA,  37.041647, -76.348306
2056,ARMISTEAD & LAKE HAMPTON,  37.036341, -76.366793
2057,ARMISTEAD & WESTMINSTER,  37.039362, -76.372843
2059,PINE CHAPEL & BARRACK,  37.040047, -76.378168
2061,SAVILLE & WALMART,  37.039967, -76.382672
2062,1ST VIEW & A VIEW,  36.955034, -76.254782
2064,CUNNINGHAM & COLISEUM,  37.046799, -76.392900
2065,1ST VIEW & SAINT GEORGE,  36.947834, -76.264377
2066,1ST VIEW & BAY,  36.945197, -76.270407
2067,CUNNINGHAM & SLOOP,  37.041945, -76.402477
2068,TODDS & MERCURY,  37.039790, -76.403026
2069,POWER PLANT & MERCURY,  37.037791, -76.400341
2070,QUEEN & WEAVER,  37.035939, -76.398430
2071,WEAVER & ROXBURY,  37.033968, -76.400537
2072,WEAVER & ABERDEEN,  37.032144, -76.404352
2081,79TH & CHESTNUT,  37.022893, -76.427774
2082,79TH & ROANOKE,  37.021371, -76.431603
2083,79TH & ORCUTT,  37.020786, -76.433087
2084,1ST VIEW & BAY,  36.945088, -76.270410
2085,1ST VIEW & SAINT GEORGE,  36.948133, -76.263472
2086,1ST VIEW & PORTVIEW,  36.955179, -76.254483
2087,OCEAN VIEW & INLET,  36.937350, -76.219408
2088,MERCURY & NEWMARKET NORTH,  37.021075, -76.441361
2089,WARWICK & 75TH,  37.014571, -76.448626
2090,73RD & WARWICK,  37.012459, -76.447860
2091,EATON & MILL POINT,  37.027208, -76.342093
2092,PARISH & 26TH,  36.989706, -76.401035
2100,73RD & BELVEDERE,  37.011862, -76.449487
2101,75TH & RIVER,  37.013167, -76.451403
2102,75TH & WARWICK,  37.014148, -76.448920
2103,WARWICK & REBEL,  37.015548, -76.448842
2106,MARSHALL & 79TH,  37.019152, -76.437770
2107,79TH & ORCUTT,  37.020515, -76.433422
2109,79TH & CHESTNUT,  37.022832, -76.427545
2110,79TH & MERRIMAC,  37.023539, -76.425820
2120,CORPREW & JOSEPH,  36.850522, -76.265292
2121,POWER PLANT & MERCURY,  37.037914, -76.399873
2122,TODDS & MERCURY,  37.040009, -76.403028
2123,CUNNINGHAM & SLOOP,  37.041754, -76.402415
2125,CUNNINGHAM & COLISEUM,  37.046658, -76.392760
2126,COLISEUM & MERCHANT,  37.044925, -76.390115
2128,PRINCESS ANNE & AZALEA GARDEN,  36.867053, -76.233633
2129,PINE CHAPEL & FREEMAN,  37.039291, -76.379100
2130,PINE CHAPEL & ARMISTEAD,  37.040630, -76.377072
2131,ARMISTEAD & FINDLEY,  37.039113, -76.372977
2132,ARMISTEAD & LAKE HAMPTON,  37.035961, -76.366644
2134,KING & LANGLEY,  37.041554, -76.348484
2135,KING & RIP RAP,  37.039481, -76.348292
2136,KING & KEMPTON,  37.035978, -76.347292
2137,KING & PEMBROKE,  37.028837, -76.345161
2138,VIRGINIA BEACH & POPLAR HALL,  36.855204, -76.198733
2139,BALLENTINE & MAPLETON,  36.854279, -76.248393
2141,KECOUGHTAN & LEE,  37.022327, -76.352548
2142,KECOUGHTAN & VICTORIA,  37.020531, -76.352691
2144,KECOUGHTAN & SUNSET,  37.016462, -76.352988
2146,KECOUGHTAN & IVY HOME,  37.013220, -76.353075
2147,KECOUGHTAN & CLYDE,  37.010530, -76.353430
2149,KECOUGHTAN & REGENT,  37.009112, -76.356953
2151,KECOUGHTAN & EAST,  37.008139, -76.361464
2153,KECOUGHTAN & ALGONQUIN,  37.007870, -76.365497
2155,KECOUGHTAN & HAMPTON ROADS,  37.007456, -76.369697
2157,KECOUGHTAN & RALEIGH,  37.005772, -76.372891
2158,KECOUGHTAN & POWHATAN,  37.003816, -76.376519
2159,KECOUGHTAN & WYTHE,  37.002418, -76.379337
2160,KECOUGHTAN & ROBINSON,  37.000843, -76.382016
2161,KECOUGHTAN & CLIFTON,  36.999510, -76.385004
2162,KECOUGHTAN & HOLLYWOOD,  36.997912, -76.389292
2164,KECOUGHTAN & PEAR,  36.994605, -76.393259
2166,25TH & MAPLE,  36.992389, -76.395879
2167,25TH & BUXTON,  36.990849, -76.397693
2168,26TH & OAK,  36.988906, -76.404429
2169,26TH & CHESTNUT,  36.988100, -76.406498
2170,26TH & ROANOKE,  36.986974, -76.409334
2172,26TH & WICKHAM,  36.985205, -76.413768
2173,26TH & MARSHALL,  36.984335, -76.415934
2175,26TH & JEFFERSON,  36.982210, -76.421307
2176,26TH & WASHINGTON,  36.978482, -76.430598
2177,WASHINGTON & 29TH,  36.980010, -76.431684
2178,WASHINGTON & 32ND,  36.982067, -76.432942
2179,WASHINGTON & 34TH,  36.983824, -76.434184
2181,KECOUGHTAN & PIEDMONT,  36.999518, -76.384624
2183,MALLORY & AL,  37.037246, -76.298713
2200,POWER PLANT & QUEEN,  37.036187, -76.396148
2203,QUEEN & INDEPENDENCE,  37.025981, -76.383789
2204,QUEEN & INLANDVIEW,  37.025176, -76.380718
2205,QUEEN & SALTERS CREEK,  37.023858, -76.376043
2206,QUEEN & ADRIAN,  37.023872, -76.374110
2207,QUEEN & MCDONALD,  37.025693, -76.370196
2208,QUEEN & MICHIGAN,  37.026038, -76.367820
2209,MICHIGAN & QUEEN,  37.026901, -76.366904
2210,MICHIGAN & QUEEN 2,  37.028794, -76.366922
2211,LASALLE & GEORGIA,  37.028560, -76.363036
2212,QUEEN & PATTERSON,  37.026034, -76.361436
2214,QUEEN & MAPLEWOOD,  37.026005, -76.358335
2216,QUEEN & STEWART,  37.025754, -76.353449
2217,PEMBROKE & WINE,  37.030293, -76.344602
2219,PEMBROKE & CENTER,  37.030859, -76.341367
2221,PEMBROKE & HOLLY,  37.032938, -76.333819
2223,PEMBROKE & CYPRESS,  37.033021, -76.329886
2224,MERCURY & OLD POINT,  37.031448, -76.324917
2226,MERCURY & WOODLAND,  37.027926, -76.323764
2227,WOODLAND & OLD BUCKROE,  37.025601, -76.324984
2228,PEMBROKE & HOLLY,  37.033053, -76.333545
2230,MALLORY & MERCURY,  37.020998, -76.318786
2231,BLACK & MCCLELLAN,  37.016046, -76.333339
2234,ROOSEVELT & STRATFORD,  36.792942, -76.355950
2235,MCCLELLAN & HARRIS,  37.017720, -76.332320
2237,VICTORY & DEEP CREEK,  36.796220, -76.334459
2238,PEMBROKE & OAKCREST,  37.036353, -76.317087
2239,TODDS & LYNNHAVEN,  37.040487, -76.406932
2240,COUNTY & FRISSELL,  37.021919, -76.325338
2247,MALLORY & SEWELL,  37.020686, -76.319073
2248,PEMBROKE & MERCURY,  37.033161, -76.324049
2249,COUNTY & MALLORY,  37.019729, -76.322078
2251,MERCURY & WOODLAND,  37.027945, -76.323499
2253,MERCURY & OLD POINT,  37.031458, -76.324713
2254,ELM & DUKE,  36.827725, -76.312498
2255,PEMBROKE & CALHOUN,  37.033219, -76.327108
2259,ARMISTEAD & QUEEN,  37.026620, -76.349548
2261,QUEEN & STEWART,  37.025874, -76.353586
2262,QUEEN & BACKRIVER,  37.026071, -76.356011
2265,QUEEN & PATTERSON,  37.026142, -76.360774
2267,MICHIGAN & QUEEN 2,  37.028783, -76.366997
2268,MICHIGAN & QUEEN,  37.027051, -76.366916
2269,QUEEN & MICHIGAN,  37.026252, -76.367941
2271,QUEEN & RED ROBIN,  37.025004, -76.372259
2272,QUEEN & ADRIAN,  37.023871, -76.375275
2274,QUEEN & INLANDVIEW,  37.025536, -76.381135
2275,QUEEN & BUCKINGHAM,  37.026075, -76.385046
2277,POWER PLANT & PINE CHAPEL,  37.035047, -76.392932
2278,AIRLINE & WESTGATE PLAZA,  36.809782, -76.366765
2279,EXECUTIVE & CUNNINGHAM,  37.046747, -76.396399
2281,EXECUTIVE & MARCELLA,  37.049236, -76.397306
2282,MARCELLA & HARTFORD,  37.050080, -76.396012
2283,COLISEUM & MARCELLA,  37.049569, -76.391725
2284,AIRLINE & CHOWAN,  36.810765, -76.364017
2285,BOUNDARY & ARMISTEAD,  37.276355, -76.708169
2286,COLONIAL & 22ND,  36.870246, -76.291404
2287,COLONIAL & 22ND,  36.870173, -76.291275
2288,BALLENTINE & PRINCESS ANNE,  36.859041, -76.249545
2289,WOODLAND & OLD BUCKROE,  37.024722, -76.325556
2290,MALLORY & KELLY,  37.022482, -76.316344
2292,MALLORY & SHERWOOD,  37.025352, -76.313973
2294,MALLORY & PRIMROSE,  37.029062, -76.311072
2295,MALLORY & BERKLEY,  37.030510, -76.308972
2297,MALLORY & SARGEANT,  37.032672, -76.305704
2298,MALLORY & DARBY,  37.034578, -76.302815
2299,MALLORY & RUST,  37.035945, -76.300718
2300,28TH & HUNTINGTON,  36.980258, -76.429965
2301,JEFFERSON & 28TH,  36.983804, -76.422458
2303,JEFFERSON & 32ND,  36.986167, -76.423926
2304,JEFFERSON & 35TH,  36.987585, -76.424800
2305,35TH & MADISON,  36.988755, -76.422609
2306,35TH & MARSHALL,  36.989601, -76.420486
2307,35TH & WICKHAM,  36.990933, -76.417117
2309,35TH & ROANOKE,  36.992689, -76.412729
2310,35TH & CHESTNUT,  36.993575, -76.410498
2312,35TH & ACORN,  36.995969, -76.407697
2313,SHELL & PARRISH,  36.997932, -76.405546
2315,PEMBROKE & ABERDEEN,  37.001698, -76.402079
2317,PEMBROKE & CHILDS,  37.004821, -76.397310
2318,PEMBROKE & GREENBRIAR,  37.006370, -76.394977
2319,G & PEMBROKE,  37.008061, -76.391420
2321,G & SHELL,  37.004189, -76.389572
2323,SHELL & ROBINSON,  37.005004, -76.385695
2325,SHELL & CHESTERFIELD,  37.007202, -76.382217
2326,SHELL & POWHATAN,  37.008205, -76.380630
2327,SHELL & WINONA,  37.009419, -76.378662
2330,SHELL & RALEIGH,  37.012065, -76.374446
2332,VICTORIA & ALLEGHANY,  37.012316, -76.368372
2333,VICTORIA & ALGONQUIN,  37.013444, -76.366130
2334,VICTORIA & HOMESTEAD,  37.014299, -76.364559
2335,LASALLE & ERVIN,  37.017175, -76.361447
2341,BALLENTINE & PRINCESS ANNE,  36.859053, -76.249399
2345,LASALLE & MOORE,  37.017771, -76.362212
2346,VICTORIA & HOMESTEAD,  37.014860, -76.364059
2347,VICTORIA & ALGONQUIN,  37.013565, -76.366430
2348,VICTORIA & COLONIAL,  37.011921, -76.369355
2349,HAMPTON ROADS & SHELL,  37.013974, -76.370917
2351,SHELL & GARY,  37.012030, -76.374687
2353,SHELL & WINONA,  37.009645, -76.378513
2354,SHELL & POWHATAN,  37.008555, -76.380264
2356,SHELL & MARYLAND,  37.006177, -76.383959
2358,SHELL & PENNSYLVANIA,  37.004329, -76.387895
2359,G & MIMOSA,  37.005002, -76.389700
2361,G & PEMBROKE,  37.008323, -76.391515
2362,PEMBROKE & PLUM,  37.006544, -76.395037
2363,PEMBROKE & CHILDS,  37.004932, -76.397456
2364,PEMBROKE & ABERDEEN,  37.001831, -76.402245
2367,SHELL & PARRISH,  36.997546, -76.406086
2368,35TH & ACORN,  36.996191, -76.407567
2370,35TH & CHESTNUT,  36.993521, -76.410940
2371,35TH & ROANOKE,  36.992749, -76.412855
2373,35TH & WICKHAM,  36.991154, -76.416817
2374,35TH & MARSHALL,  36.990108, -76.419481
2375,36TH & MADISON,  36.989682, -76.422550
2376,36TH & JEFFERSON,  36.988613, -76.425288
2378,JEFFERSON & 32ND,  36.986053, -76.424029
2380,JEFFERSON & 29TH,  36.983578, -76.422495
2381,POWER PLANT & PINE CHAPEL,  37.034843, -76.393077
2382,POWER PLANT & QUEEN,  37.036808, -76.397897
2400,WICKHAM & 26TH,  36.985181, -76.413254
2401,WICKHAM & 28TH,  36.986938, -76.414303
2403,30TH & ORCUTT,  36.988334, -76.413527
2404,30TH & ROANOKE,  36.989303, -76.411179
2407,CHESTNUT & 33RD,  36.992285, -76.409356
2408,ROANOKE & 37TH,  36.993856, -76.413704
2409,ROANOKE & 41ST,  36.996363, -76.415258
2410,ROANOKE & 43RD,  36.997626, -76.415988
2411,44TH & ORCUTT,  36.997557, -76.418849
2413,41ST & NEWSOME,  36.994750, -76.419486
2414,41ST & MARSHALL,  36.994006, -76.421770
2415,MARSHALL & 44TH,  36.996346, -76.423499
2416,MARSHALL & 48TH,  36.998757, -76.425009
2417,MARSHALL & TIMBER,  37.000532, -76.426113
2419,MARSHALL & GLOUCESTER,  37.003357, -76.427793
2421,MARSHALL & RICHARDS,  37.006888, -76.429917
2423,MARSHALL & HILTON,  37.010877, -76.432511
2424,MARSHALL & 72ND,  37.013643, -76.434169
2425,MARSHALL & 74TH,  37.015274, -76.435252
2430,76TH & CHESTNUT,  37.020534, -76.426360
2431,LASSITER & MARTHA LEE,  37.021751, -76.422278
2433,GUST & MARCY,  36.795375, -76.347665
2434,JEFFERSON & MERCURY,  37.018490, -76.443808
2436,76TH & MARTHA LEE,  37.021810, -76.422428
2437,76TH & CHESTNUT,  37.020611, -76.426495
2438,ROANOKE & 75TH,  37.018731, -76.429441
2439,74TH & ORCUTT,  37.017202, -76.430963
2441,MARSHALL & 72ND,  37.013744, -76.434381
2442,MARSHALL & HILTON,  37.011033, -76.432726
2444,MARSHALL & RICHARD,  37.006819, -76.430120
2445,GUST & MARCY,  36.795186, -76.347214
2448,MARSHALL & GLOUCESTER,  37.003617, -76.428133
2449,MARSHALL & NANSEMOND,  37.002184, -76.427238
2450,MARSHALL & 48TH,  36.998412, -76.424960
2451,MARSHALL & 44TH,  36.996268, -76.423624
2452,41ST & MARSHALL,  36.993936, -76.421572
2453,41ST & NEWSOME,  36.994977, -76.419280
2455,ORCUTT & 43RD,  36.996685, -76.418437
2456,ROANOKE & 41ST,  36.996493, -76.415540
2458,ROANOKE & 37TH,  36.994001, -76.413934
2459,CHESTNUT & 32ND,  36.992159, -76.409417
2460,30TH & CHESTNUT,  36.990327, -76.408481
2461,28TH & CHESTNUT,  36.989131, -76.407886
2462,28TH & ROANOKE,  36.988266, -76.410076
2463,28TH & ORCUTT,  36.987076, -76.413053
2476,GUST & BUNCHE,  36.797242, -76.350097
2477,ABERDEEN & DAVIS,  37.028805, -76.405437
2479,ABERDEEN & GRANGER,  37.025444, -76.404896
2480,ABERDEEN & WINGFIELD,  37.021253, -76.404324
2482,BRIARFIELD & ABERDEEN,  37.018660, -76.405575
2484,BRIARFIELD & BIG BETHEL,  37.017342, -76.411288
2486,BRIARFIELD & BRIARWOOD,  37.014538, -76.414710
2488,BRIARFIELD & OLD CHESTNUT,  37.012541, -76.419678
2489,BRIARFIELD & CHESTNUT,  37.011383, -76.422120
2490,BRIARFIELD & ROANOKE,  37.010660, -76.423892
2491,BRIARFIELD & WICKHAM,  37.009076, -76.427876
2493,GUST & BUNCHE,  36.797060, -76.349753
2495,MADISON & 46TH,  36.995633, -76.426558
2497,MADISON & 42ND,  36.993520, -76.425215
2498,MADISON & 40TH,  36.992222, -76.424440
2500,WASHINGTON & 37TH,  36.985595, -76.435305
2502,JEFFERSON & 25TH,  36.980856, -76.420829
2504,HAMPTON & JEFFERSON,  36.979115, -76.418668
2505,HAMPTON & MADISON,  36.979812, -76.416942
2506,HAMPTON & MARSHALL,  36.980876, -76.414248
2507,HAMPTON & WICKHAM,  36.981971, -76.411511
2509,WICKHAM & 18TH,  36.979611, -76.409919
2510,WICKHAM & 16TH,  36.978333, -76.409114
2512,ROANOKE & 15TH,  36.979021, -76.404722
2514,ROANOKE & GARDEN,  36.977710, -76.402626
2515,GARDEN & ROANOKE,  36.979608, -76.400833
2516,GARDEN & 16TH,  36.981417, -76.400520
2517,16TH & CHESTNUT,  36.980933, -76.402235
2518,16TH & ROANOKE,  36.979866, -76.404980
2520,ROANOKE & 20TH,  36.982221, -76.406542
2522,HAMPTON & CHESTNUT,  36.984618, -76.404890
2523,HAMPTON & OAK,  36.985672, -76.402210
2524,HAMPTON & 19TH,  36.985013, -76.398401
2525,BLAIR & MULBERRY,  36.984262, -76.395702
2527,BLAIR & BUXTON,  36.986316, -76.393251
2528,MAPLE & BLAIR,  36.988696, -76.391149
2530,MAPLE & 25TH,  36.992197, -76.395782
2531,MAPLE & 27TH,  36.993425, -76.397249
2532,HAMPTON & WOODROW,  36.872270, -76.301352
2535,MAPLE & 19TH,  36.989806, -76.392756
2536,MAPLE & BLAIR,  36.988465, -76.391004
2537,BLAIR & CEDAR,  36.986092, -76.393630
2540,HAMPTON & 19TH,  36.985126, -76.398512
2542,HAMPTON & OAK,  36.985901, -76.401959
2543,HAMPTON & CHESTNUT,  36.984837, -76.404596
2545,ROANOKE & 20TH,  36.982448, -76.406791
2548,16TH & WICKHAM,  36.978323, -76.408866
2549,WICKHAM & 18TH,  36.979426, -76.409691
2551,WICKHAM & HAMPTON,  36.981859, -76.411196
2552,HAMPTON & MARSHALL,  36.981117, -76.413924
2553,HAMPTON & MADISON,  36.980048, -76.416617
2554,HAMPTON & JEFFERSON,  36.979038, -76.419163
2556,JEFFERSON & 25TH,  36.981108, -76.420771
2558,WASHINGTON & 37TH,  36.985368, -76.434982
2559,PORT CENTRE & LINCOLN,  36.826416, -76.299617
2560,MADISON & 42ND,  36.993350, -76.425026
2562,MADISON & 46TH,  36.995814, -76.426557
2565,BRIARFIELD & ORCUTT,  37.009466, -76.426639
2566,BRIARFIELD & ROANOKE,  37.010371, -76.424321
2567,BRIARFIELD & CHESTNUT,  37.011468, -76.421707
2568,BRIARFIELD & OLD CHESTNUT,  37.012389, -76.419861
2570,BRIARFIELD & WARREN,  37.014315, -76.414802
2572,BRIARFIELD & E,  37.017041, -76.411427
2574,BRIARFIELD & ABERDEEN,  37.018455, -76.406242
2575,ABERDEEN & BRIARFIELD,  37.019725, -76.403847
2576,ABERDEEN & WINGFIELD,  37.022143, -76.404273
2578,ABERDEEN & RUSSELL,  37.026572, -76.404920
2580,ABERDEEN & E. LEWIS,  37.030049, -76.405452
2581,ABERDEEN & WEAVER,  37.032846, -76.405824
2582,ABERDEEN & MERCURY,  37.035735, -76.408230
2583,ABERDEEN & TODDS,  37.038953, -76.409755
2584,PORT CENTRE & EDWARDS,  36.823041, -76.297585
2600,IVY & 6TH,  36.970788, -76.409324
2602,IVY & 12TH,  36.973615, -76.412436
2604,IVY & 16TH,  36.975751, -76.414745
2605,IVY & 19TH,  36.977244, -76.416428
2606,JEFFERSON & 20TH,  36.977733, -76.418726
2608,WASHINGTON & 42ND,  36.988569, -76.436943
2610,WASHINGTON & 46TH,  36.991097, -76.438520
2611,WASHINGTON & 49TH,  36.992728, -76.439553
2612,49TH & HUNTINGTON,  36.993982, -76.437559
2613,WARWICK & 51ST,  36.995724, -76.436585
2615,WARWICK & 55TH,  36.998744, -76.438429
2617,WARWICK & 60TH,  37.001586, -76.440171
2618,WARWICK & 63RD,  37.003455, -76.441347
2619,WARWICK & 66TH,  37.006060, -76.442971
2621,WARWICK & 71ST,  37.011137, -76.446139
2622,WARWICK & 73RD,  37.012989, -76.447291
2623,WARWICK & UNION,  37.019907, -76.451543
2624,WARWICK & LAFAYETTE,  37.022006, -76.452858
2625,WARWICK & NORTH,  37.024686, -76.454496
2628,WARWICK & RIVERMONT,  37.028483, -76.456836
2629,WARWICK & HOPKINS,  37.031033, -76.458375
2630,WARWICK & MAIN,  37.032709, -76.460746
2632,WARWICK & WESTOVER,  37.035402, -76.464715
2634,WARWICK & JAMES RIVER,  37.037572, -76.467122
2635,WARWICK & RIDGEWAY,  37.040058, -76.469238
2636,WARWICK & ELM,  37.042108, -76.471859
2637,HANBURY & BALLENTINE,  36.873315, -76.252570
2639,WARWICK & LOGAN,  37.046654, -76.473412
2640,WARWICK & HARPERSVILLE,  37.048916, -76.474558
2641,WARWICK & COPELAND,  37.052131, -76.478169
2643,WARWICK & MATTHEW,  37.055616, -76.481316
2645,PORT CENTRE & PORTSMOUTH,  36.821915, -76.296904
2647,WARWICK & SWEETBRIAR,  37.063959, -76.489985
2648,WARWICK & UNIVERSITY,  37.066349, -76.491976
2650,WARWICK & HIDEN,  37.069094, -76.492803
2652,WARWICK & MINTON,  37.072770, -76.493320
2654,WARWICK & WELLESLEY,  37.077229, -76.494998
2655,WARWICK & DEEP CREEK,  37.079968, -76.496744
2657,WARWICK & TURLINGTON,  37.083017, -76.497764
2658,NETTLES & WINTERHAVEN,  37.085443, -76.497703
2660,NETTLES & SANDPEBBLE,  37.089690, -76.495911
2663,NETTLES & GEORGIA,  37.101302, -76.502729
2665,NETTLES & OYSTER POINT,  37.105105, -76.506569
2670,JEFFERSON & HQ,  37.107151, -76.495614
2673,OYSTER POINT & WARWICK,  37.104732, -76.510653
2674,WARWICK & MENNON WOOD,  37.107819, -76.514564
2675,WARWICK & YOUNGS MILL,  37.110594, -76.516617
2676,WARWICK & COLONY,  37.112346, -76.517804
2677,WARWICK & ADAMS WOOD,  37.114288, -76.519180
2679,WARWICK & CAMPBELL,  37.117950, -76.522218
2680,WARWICK & BLAND,  37.119803, -76.524683
2681,WARWICK & SHERWOOD,  37.122955, -76.528846
2682,WARWICK & CAMPBELL,  37.124495, -76.530843
2683,WARWICK & DENBIGH,  37.128487, -76.536103
2684,DENBIGH & DELOICE,  37.130729, -76.533551
2686,DENBIGH & MILLWOOD,  37.137704, -76.521250
2687,DENBIGH & JEFFERSON,  37.139379, -76.518937
2688,CHURCHLAND & TYRE NECK,  36.862544, -76.394079
2690,DENBIGH & RIDGEWOOD,  37.146073, -76.512966
2691,DENBIGH & OLD DENBIGH,  37.148470, -76.510906
2692,WOODSIDE & OLD DENBIGH,  37.148784, -76.505202
2693,DENBIGH & RIDGEWOOD,  37.146466, -76.512994
2695,DENBIGH & CEDARWOOD,  37.142708, -76.516401
2696,DENBIGH & STONEY CREEK,  37.140753, -76.518113
2697,DENBIGH & JEFFERSON,  37.137458, -76.522307
2699,DENBIGH & POCAHANTAS,  37.132373, -76.531632
2700,DENBIGH & DELOICE,  37.130780, -76.533770
2701,WARWICK & ORIANA,  37.130709, -76.539000
2703,WARWICK & OLD COURTHOUSE,  37.133490, -76.543300
2704,WARWICK & BEECHMONT,  37.137285, -76.545558
2705,WARWICK & MERCER,  37.140972, -76.546882
2706,WARWICK & CURTIS TIGNOR,  37.142860, -76.547921
2707,WARWICK & CHECED WAY,  37.146441, -76.550617
2709,WARWICK & THORNCLIFF,  37.151546, -76.553673
2710,WARWICK & WOODHAVEN,  37.154577, -76.555112
2712,WARWICK & ASHTON GREEN,  37.158223, -76.556593
2713,WARWICK & WARWICK LANDING,  37.160396, -76.556959
2714,WARWICK & WILLIAMSON,  37.163043, -76.556837
2715,WARWICK & LEES MILL,  37.169102, -76.562707
2716,FORT EUSTIS,  37.160767, -76.579798
2719,WARWICK & LEES MILL,  37.169539, -76.563836
2720,WARWICK & WILLIAMSON,  37.163487, -76.557208
2721,WARWICK & WARWICK LANDING,  37.159983, -76.557285
2723,WARWICK & HICKORY POINT,  37.156501, -76.556220
2724,WARWICK & WOODHAVEN,  37.154290, -76.555349
2725,WARWICK & THORNCLIFF,  37.151129, -76.553783
2727,WARWICK & CHECED WAY,  37.146274, -76.550871
2728,WARWICK & CURTIS TIGNOR,  37.142946, -76.548303
2729,WARWICK & BEXLEY PARK,  37.140751, -76.547157
2731,WARWICK & OLD COURTHOUSE,  37.132950, -76.543068
2732,WARWICK & ORIANA,  37.130585, -76.539291
2733,WARWICK & DENBIGH,  37.128183, -76.536176
2734,WARWICK & TABBS,  37.125226, -76.532241
2735,WARWICK & SHERWOOD,  37.123149, -76.529539
2736,WARWICK & SHAWN,  37.119225, -76.524431
2737,WARWICK & CAMPBELL,  37.117946, -76.522719
2739,WARWICK & COLONY,  37.113294, -76.518910
2740,WARWICK & MENCHVILLE,  37.110923, -76.517260
2741,WARWICK & OYSTER POINT,  37.107923, -76.515015
2742,OYSTER POINT & WARWICK,  37.104584, -76.510300
2743,NETTLES & OYSTER POINT,  37.105181, -76.506984
2745,NETTLES & WENDWOOD,  37.101495, -76.503146
2746,NETTLES & CLAIBORNE,  37.100206, -76.500713
2747,NETTLES & SANDPEBBLE,  37.089739, -76.496044
2750,NETTLES & WARWICK,  37.085598, -76.497753
2751,WARWICK & TURLINGTON,  37.083319, -76.498148
2752,WARWICK & CULPEPPER,  37.080883, -76.497533
2753,VIRGINIA BEACH & MILITARY,  36.855619, -76.207357
2754,WARWICK & WELLESLEY,  37.077462, -76.495482
2756,JEFFERSON & WOODCREEK,  37.171431, -76.546000
2757,WARWICK & GLENDALE,  37.070905, -76.493276
2759,JEFFERSON & MASON,  37.166132, -76.541808
2760,WARWICK & PRINCE DREW,  37.067751, -76.492826
2761,WARWICK & SWEETBRIAR,  37.063724, -76.490065
2762,JEFFERSON & GREEN GROVE,  37.154899, -76.533171
2763,WARWICK & MATTHEW,  37.055599, -76.481604
2765,WARWICK & COPELAND,  37.051981, -76.478293
2767,WARWICK & LOGAN,  37.046860, -76.473702
2768,WARWICK & NELSON,  37.044394, -76.473678
2770,WARWICK & JAMES RIVER,  37.041544, -76.471478
2771,WARWICK & RIDGEWAY,  37.040116, -76.469610
2772,WARWICK & JAMES RIVER,  37.037738, -76.467511
2774,WARWICK & BRANDON,  37.034861, -76.464209
2776,WARWICK & MAIN,  37.032449, -76.460786
2777,WARWICK & RALEIGH,  37.029756, -76.457874
2780,WARWICK & WOODFIN,  37.026297, -76.455823
2782,WARWICK & SOUTH,  37.023176, -76.453883
2784,WARWICK & HORNET,  37.018535, -76.451077
2785,WARWICK & 72ND,  37.011848, -76.446920
2787,HUNTINGTON & 68TH,  37.006559, -76.445668
2789,HUNTINGTON & 64TH,  37.003697, -76.443517
2791,HUNTINGTON & 59TH,  37.000247, -76.441993
2792,HUNTINGTON & 56TH,  36.998018, -76.440751
2794,50TH & HUNTINGTON,  36.994244, -76.439155
2795,WASHINGTON & 49TH,  36.993138, -76.439984
2797,WASHINGTON & 46TH,  36.991283, -76.438804
2799,WASHINGTON & 41ST,  36.988091, -76.436846
2800,JEFFERSON & 20TH,  36.977645, -76.418870
2802,JEFFERSON & 16TH,  36.975111, -76.417335
2804,JEFFERSON & 12TH,  36.972515, -76.415737
2806,JEFFERSON & 6TH,  36.969774, -76.413938
2808,6TH & AQUA VISTA,  36.969466, -76.410455
2809,WARWICK & BEECHMONT,  37.137670, -76.546110
2834,SETTLERS LANDING & STEWART,  37.024542, -76.353903
2835,SETTLERS LANDING & BACK RIVER,  37.024672, -76.357018
2836,SETTLERS LANDING & LASALLE,  37.024895, -76.361906
2837,JEFFERSON & MCMORROW,  37.150293, -76.529455
2838,LASALLE & MICHIGAN,  37.028816, -76.362867
2839,COLISEUM & PINE CHAPEL,  37.038538, -76.386402
2840,COLISEUM & CONVENTION,  37.039991, -76.387391
2842,COLISEUM & MARCELLA,  37.048882, -76.391243
2843,JEFFERSON & HANOVER,  37.145032, -76.525323
2844,JEFFERSON & BUCHANAN,  37.142575, -76.523394
2845,COLISEUM & CAREPLEX,  37.055216, -76.392260
2846,HARDY CASH & PEABODY,  37.056325, -76.395510
2847,HARDY CASH & EXECUTIVE,  37.056035, -76.399246
2848,HARDY CASH & HAMPTON CLUB,  37.056379, -76.401693
2852,BUTLER FARM & NEIL ARMSTRONG,  37.063403, -76.402684
2853,BUTLER FARM & LUCAS 1,  37.062555, -76.407154
2854,BUTLER FARM & LUCAS 2,  37.061732, -76.411293
2855,BUTLER FARM & OLD MALLORY,  37.061529, -76.413741
2856,THOMAS NELSON COMMUNITY COLLEGE,  37.061841, -76.419240
2857,BUTLER FARM & OLD MALLORY,  37.061354, -76.414297
2858,BUTLER FARM & LUCAS 1,  37.061485, -76.411565
2860,BUTLER FARM & LUCAS 3,  37.062343, -76.406891
2861,BUTLER FARM & NEIL ARMSTRONG 1,  37.063036, -76.404151
2862,BUTLER FARM & NEIL ARMSTRONG 2,  37.063225, -76.402022
2864,ARMISTEAD & BUTLER FARM,  37.064069, -76.386114
2865,ARMISTEAD & SACRAMENTO,  37.068385, -76.384749
2866,ARMISTEAD & POTTER,  37.072571, -76.382212
2868,NEIL ARMSTRONG & FLOYD THOMPSON,  37.086252, -76.394957
2869,SEMPLE FARMS & COMMANDER SHEPPARD,  37.093356, -76.394593
2870,COMMANDER SHEPPARD & SPINNAKER,  37.092722, -76.390623
2872,ARMISTEAD & SONNY HUTCHINS,  37.085638, -76.382146
2874,ARMISTEAD & NETTLES,  37.071112, -76.383281
2875,ARMISTEAD & SACRAMENTO,  37.068317, -76.385035
2876,ARMISTEAD & BUTLER FARM,  37.065553, -76.386060
2878,HARDY CASH & HAMPTON CLUB,  37.056233, -76.401787
2879,HARDY CASH & EXECUTIVE,  37.056021, -76.397984
2880,HARDY CASH & PEABODY,  37.056156, -76.396369
2881,COLISEUM & HARDY CASH,  37.055454, -76.392620
2882,COLISEUM & SIGNATURE,  37.052898, -76.392358
2883,COLISEUM & CONVENTION,  37.040456, -76.387890
2884,COLISEUM & PINE CHAPEL,  37.038922, -76.386883
2885,PINE CHAPEL & COLISEUM,  37.037956, -76.383273
2886,MICHIGAN & LASALLE,  37.030064, -76.363361
2887,SETTLERS LANDING & LASALLE,  37.024708, -76.362549
2888,SETTLERS LANDING & BACK RIVER,  37.024447, -76.357048
2889,SETTLERS LANDING & STEWART,  37.024266, -76.353684
2896,KING & ROLAND,  37.048326, -76.347526
2897,KING & MACALVA,  37.052098, -76.347210
2898,LITTLE BACK RIVER & RIVERCHASE,  37.054223, -76.346018
2900,LITTLE BACK RIVER & BEVERLY,  37.058859, -76.344542
2901,LITTLE BACK RIVER & ROSEWOOD,  37.060752, -76.343036
2902,LITTLE BACK RIVER & CLEMWOOD,  37.062411, -76.340815
2904,CLEMWOOD & APOLLO,  37.058578, -76.336728
2906,CLEMWOOD & GUILDFORD,  37.055428, -76.332937
2908,FOX HILL & COLONIES LANDING,  37.054538, -76.330573
2910,FOX HILL & WILLOW OAKS,  37.056598, -76.327323
2911,FOX HILL & BONAIRE,  37.058135, -76.322465
2912,FOX HILL & WOODLAND,  37.059080, -76.318280
2913,FOX HILL & NICKERSON,  37.056906, -76.313282
2914,FOX HILL & EAGLES,  37.056893, -76.309216
2915,FOX HILL & ROSSER,  37.058572, -76.304547
2916,FOX HILL & OLD BUCKROE,  37.059382, -76.300723
2917,OLD BUCKROE & RANALET,  37.056341, -76.300900
2919,OLD BUCKROE & ANDREWS,  37.051614, -76.300356
2920,ANDREWS & FRANKTOWN,  37.051266, -76.303234
2921,ANDREWS & NEWTON,  37.049507, -76.306011
2922,ANDREWS & NICKERSON,  37.048189, -76.307932
2923,AMHERST & BANCROFT,  37.045625, -76.310564
2925,GENERAL BOOTH & BOSHER,  36.804682, -75.996253
2926,AMHERST & SKYLAND,  37.042463, -76.307150
2927,SKYLAND & PEMBROKE,  37.040637, -76.307954
2928,PEMBROKE & OLD BUCKROE,  37.040399, -76.303791
2929,PEMBROKE & REYNOLDS,  37.040745, -76.302412
2930,PEMBROKE & ATLANTIC,  37.041795, -76.298330
2931,PEMBROKE & FOURTH,  37.041465, -76.294785
2936,BUCKROE & FIFTH,  37.043819, -76.295391
2938,BUCKROE & RALPH,  37.044984, -76.298926
2939,OLD BUCKROE & WOOD,  37.043764, -76.302385
2940,OLD BUCKROE & RICHARD,  37.041777, -76.303728
2942,SKYLAND & AMHERST,  37.042004, -76.306833
2944,AMHERST & ANDREWS,  37.045840, -76.310550
2945,ANDREWS & NICKERSON,  37.048061, -76.307775
2947,ANDREWS & FRANKTOWN,  37.051105, -76.302889
2948,ANDREWS & OLD BUCKROE,  37.051269, -76.300628
2949,OLD BUCKROE & RANALET,  37.056234, -76.300846
2950,OLD BUCKROE & SALT PONDS,  37.058636, -76.300268
2951,FOX HILL & SAINT ASHLEY,  37.059149, -76.302261
2952,FOX HILL & BAXTER,  37.057487, -76.307472
2953,FOX HILL & NICKERSON,  37.056874, -76.312772
2954,FOX HILL & WOODLAND,  37.059003, -76.317369
2955,FOX HILL & BONAIRE,  37.058207, -76.322629
2957,FOX HILL & DUNHAM MASSIE,  37.056598, -76.327775
2959,FOX HILL & COLONIES LANDING,  37.054698, -76.330593
2961,CLEMWOOD & GUILDFORD,  37.055330, -76.332555
2962,CLEMWOOD & APOLLO,  37.058335, -76.336137
2964,LITTLE BACK RIVER & GLENWOOD,  37.060356, -76.343723
2966,LITTLE BACK RIVER & LEXINGTON,  37.057504, -76.345145
2967,LITTLE BACK RIVER & WALNUT,  37.055599, -76.345658
2968,BALLENTINE & LAKEBRIDGE,  36.848299, -76.250278
2969,KING & ROLAND,  37.047789, -76.347846
2970,KING & THORNROSE,  37.045432, -76.348102
2971,SKYLAND & PEMBROKE,  37.040577, -76.307802
2973,PEMBROKE & WOODLAND,  37.033817, -76.321038
2975,PEMBROKE & OAKCREST,  37.036191, -76.317068
2976,GRIMES & PEMBROKE,  37.038154, -76.314296
2977,GRIMES & KENSINGTON,  37.040614, -76.314274
2980,ANDREWS & REDFORD,  37.044862, -76.312383
2981,OLD BUCKROE & RICHARD,  37.041413, -76.303869
2983,OLD BUCKROE & WOOD,  37.044173, -76.301964
2984,BUCKROE & SEABOARD,  37.045122, -76.300298
2985,BUCKROE & FOURTH,  37.043298, -76.294352
2987,MALLORY & SEABOARD,  37.039471, -76.295644
2989,BALLENTINE & DANA,  36.864119, -76.250640
2990,MALLORY & AL,  37.037265, -76.299036
2991,MALLORY & DARBY,  37.034610, -76.303071
2993,MALLORY & SARGEANT,  37.032679, -76.305975
2995,MALLORY & BERKLEY,  37.030588, -76.309149
2997,MALLORY & WILSON,  37.027855, -76.312429
2998,BALLENTINE & MCLEMORE,  36.865971, -76.251270
2999,MALLORY & SHERWOOD,  37.025653, -76.313936
3001,MALLORY & TAYLOR,  37.022377, -76.316713
3002,SETTLERS LANDING & HAMPTON HARBOR,  37.025541, -76.333054
3004,LINCOLN & FRANKLIN,  37.027597, -76.346930
3007,AMHERST & LANSING,  37.043461, -76.307972
3009,LITTLE BACK RIVER & RIVERCHASE,  37.054350, -76.346081
3010,KING & GILBERT,  37.050209, -76.347607
3011,LINCOLN & FRANKLIN,  37.027732, -76.347519
3018,PICKETTS LINE & WARWICK,  37.175568, -76.572758
3019,PICKETTS LINE & ENTERPRISE,  37.174459, -76.580218
3020,ENTERPRISE & SAUDER,  37.176454, -76.577948
3021,ENTERPRISE & WARWICK,  37.180170, -76.572288
3023,CORPREW & NORCHESTER,  36.850511, -76.254837
3024,TIDEWATER & MAY,  36.848367, -76.276832
3025,KIMBALL & WILEY,  36.842691, -76.245828
3026,KIMBALL & COURT,  36.843227, -76.248912
3027,KIMBALL & KIMBALL,  36.843047, -76.247337
3030,KIMBALL & WILEY,  36.842798, -76.245848
3031,MILITARY & SHELL,  36.773475, -76.307997
3032,MILITARY & SHELL,  36.773228, -76.307924
3033,BRIARFIELD & WARD,  37.024720, -76.390768
3035,BRIARFIELD & GARRETT,  37.022780, -76.393056
3036,BRIARFIELD & PICKETT,  37.021258, -76.394921
3037,BRIARFIELD & PARKINSON,  37.018956, -76.401334
3038,BIG BETHEL & BRIARFIELD,  37.017567, -76.412699
3039,BIG BETHEL & JOYNES,  37.021296, -76.414883
3040,LASSITER & JUANITA,  37.022748, -76.417986
3041,ORCUTT & 81ST,  37.022692, -76.434538
3042,ORCUTT & ANDOVER,  37.030247, -76.438674
3043,ORCUTT & GOLDSBORO,  37.032813, -76.439949
3044,ORCUTT & FRIENDLY,  37.034738, -76.440627
3045,ORCUTT & SHARPLEY,  37.037848, -76.440719
3046,ORCUTT & BARRINGTON,  37.040580, -76.440978
3047,ORCUTT & TODDS,  37.042322, -76.441170
3048,TODDS & WELLINGTON,  37.042949, -76.439124
3050,TODDS & WARNER,  37.042989, -76.436030
3051,TODDS & WHEALTON,  37.042848, -76.433254
3052,TODDS & OLD BIG BETHEL,  37.042534, -76.430157
3053,BIG BETHEL & TODDS,  37.043137, -76.427924
3054,BIG BETHEL & OLD BIG BETHEL,  37.045270, -76.428704
3056,BIG BETHEL & BURTON,  37.052258, -76.428628
3057,BIG BETHEL & VILLAGE,  37.058440, -76.427400
3058,BIG BETHEL & TOWN CENTER,  37.062591, -76.426901
3059,BIG BETHEL & PARK,  37.070857, -76.426833
3063,THOMAS NELSON & BATTLE,  37.067558, -76.425340
3064,THOMAS NELSON & BIG BETHEL,  37.069060, -76.426798
3065,BIG BETHEL & TOWN CENTER,  37.062992, -76.427250
3066,BIG BETHEL & MICHAELS WOODS,  37.058833, -76.427589
3068,BIG BETHEL & BURTON,  37.053392, -76.428655
3069,BIG BETHEL & LIBERTY,  37.049348, -76.429403
3070,BIG BETHEL & OLD BIG BETHEL,  37.045622, -76.429523
3071,BIG BETHEL & TODDS,  37.042891, -76.428119
3072,TODDS & OLD BIG BETHEL,  37.042732, -76.430733
3073,TODDS & TOPPING,  37.043002, -76.433905
3075,TODDS & RIDGECREST,  37.043125, -76.439007
3076,ORCUTT & TODDS,  37.042360, -76.441435
3077,ORCUTT & FRIENDLY,  37.035153, -76.440941
3078,ORCUTT & GOLDSBORO,  37.033454, -76.440448
3079,ORCUTT & ANDOVER,  37.030447, -76.438993
3082,INDIAN RIVER & ELKIN,  36.830851, -76.263264
3083,JEFFERSON & CIRCLE,  37.016464, -76.442947
3085,LASSITER & JUANITA,  37.022637, -76.418064
3087,BIG BETHEL & JOYNES,  37.021073, -76.414947
3088,BIG BETHEL & BRIARFIELD,  37.017556, -76.412936
3089,INDIAN RIVER & ELKIN,  36.830698, -76.263436
3090,BRIARFIELD & NORTHWOOD,  37.019348, -76.398328
3091,BRIARFIELD & ROBERT E LEE,  37.020744, -76.395332
3092,BRIARFIELD & GARRETT,  37.022431, -76.393316
3094,BRIARFIELD & WARD,  37.024538, -76.390622
3095,JEFFERSON & LOFTIS,  37.085980, -76.482062
3096,CANON & COMPASS WAY,  37.102681, -76.480309
3097,COMMUTER & INDEPENDENCE,  36.820811, -76.125325
3098,HOLLAND & BUCKNER,  36.792603, -76.081076
3099,HOLLAND & LYNNHAVEN,  36.798858, -76.084790
3101,TIDEWATER & STANLEY,  36.912841, -76.255170
3103,OMNI & ROCK LANDING,  37.088246, -76.465548
3108,HOLLAND & LORD BYRON,  36.817746, -76.117244
3109,AFTON & PROSPECT,  36.801487, -76.317098
3110,AVONDALE & GLENWOOD,  36.792569, -76.348615
3111,ROOSEVELT & WELK,  36.792901, -76.357168
3112,HORNE & STAUFFER,  36.797097, -76.366941
3113,HORNE & STAUFFER,  36.797039, -76.367605
3114,AVONDALE & RIDDICK,  36.791750, -76.352770
3115,AVONDALE & RIDDICK,  36.791849, -76.352281
3116,AVONDALE & GLENWOOD,  36.792397, -76.348782
3117,VICTORY & BEECHDALE,  36.795859, -76.339452
3118,DARREN & GREENWOOD,  36.799478, -76.370122
3119,GREENWOOD & LANGLEY,  36.799687, -76.361268
3121,GREENWOOD & STRATFORD,  36.799863, -76.356259
3122,GREENWOOD & VIKING,  36.799925, -76.361557
3123,GREENWOOD & CLAY,  36.800070, -76.364601
3125,TURNPIKE & RODMAN,  36.820265, -76.346675
3126,GEORGE WASHINGTON & GILMERTON,  36.781316, -76.335726
3127,VICTORY & KENT,  36.796038, -76.341168
3128,NORTH CENTER & KEMPSVILLE,  36.848034, -76.189555
3129,NORTH CENTER & CENTER,  36.848122, -76.187307
3132,BIG BETHEL & TUPELO,  37.079274, -76.425415
3133,SAUNDERS & BIG BETHEL,  37.087919, -76.425192
3134,SAUNDERS & QUARTER PATH,  37.088575, -76.431096
3135,SAUNDERS & BETZ,  37.089933, -76.434797
3136,SAUNDERS & KINGWOOD,  37.091272, -76.439949
3137,DAPHIA & SAUNDERS 1,  37.093274, -76.445646
3138,DAPHIA & SAUNDERS 2,  37.092203, -76.445651
3140,SAINT EGNATIOS & RAVOLIS,  37.090138, -76.447254
3142,SAINT EGNATIOS & ROUVALIS 2,  37.088907, -76.446846
3143,DAPHIA & SAINT EGNATIOS,  37.092239, -76.447395
3145,DAPHIA & SAUNDERS,  37.094164, -76.447648
3146,SAUNDERS & HARPERSVILLE,  37.095233, -76.449873
3147,HARPERSVILLE & BAYBERRY,  37.096870, -76.453182
3148,HARPERSVILLE & J CLYDE MORRIS,  37.098090, -76.457344
3149,J CLYDE MORRIS & HARPERSVILLE,  37.097172, -76.459148
3150,J CLYDE MORRIS & TRAVERSE,  37.094479, -76.459314
3152,DILIGENCE & ROCK LANDING,  37.084206, -76.463534
3154,THIMBLE SHOALS & GREAT OAK,  37.080826, -76.465508
3156,J CLYDE MORRIS & THIMBLE SHOALS,  37.077832, -76.465320
3157,J CLYDE MORRIS & FORREST,  37.076254, -76.469303
3160,J CLYDE MORRIS & KINGSTOWNE,  37.072604, -76.477646
3161,JEFFERSON & FORREST,  37.076003, -76.475920
3162,JEFFERSON & PAVILION,  37.078956, -76.477689
3164,JEFFERSON & THIMBLE SHOALS,  37.082706, -76.480036
3166,JEFFERSON & SAINT THOMAS,  37.091141, -76.485249
3167,JEFFERSON & LAWRENCE,  37.093951, -76.487041
3168,JEFFERSON & BELL KING,  37.097197, -76.488999
3169,JEFFERSON & HOGAN,  37.101243, -76.491444
3170,JEFFERSON & OYSTER POINT,  37.103063, -76.492554
3171,JEFFERSON & HABERSHAM,  37.123646, -76.508161
3177,JEFFERSON & DENBIGH,  37.137525, -76.519442
3178,JEFFERSON & HABERSHAM,  37.124739, -76.509383
3179,JEFFERSON & OYSTER POINT,  37.103591, -76.493273
3180,JEFFERSON & HOGAN,  37.100592, -76.491393
3181,JEFFERSON & BELL KING,  37.097462, -76.489509
3182,JEFFERSON & MULLER,  37.093545, -76.487054
3183,JEFFERSON & SAINT THOMAS,  37.091397, -76.485686
3184,CITY CENTER & JEFFERSON,  37.088692, -76.482382
3185,BART & FREDERICK,  36.830633, -76.341278
3187,WARWICK & MINTON,  37.073071, -76.493751
3188,JEFFERSON & KINGSWAY,  37.082123, -76.480019
3189,JEFFERSON & PILOT HOUSE,  37.079533, -76.478461
3190,PRINCESS ANNE & CONCERT,  36.779734, -76.097354
3192,J CLYDE MORRIS & IMPALA,  37.074843, -76.471970
3193,J CLYDE MORRIS & FORREST,  37.075817, -76.469469
3194,J CLYDE MORRIS & PORT LANDING,  37.076991, -76.466530
3196,THIMBLE SHOALS & GREAT OAK,  37.080898, -76.465427
3199,DILIGENCE & ROCK LANDING,  37.083981, -76.463578
3200,J CLYDE MORRIS & TRAVERSE,  37.094482, -76.458874
3201,J CLYDE MORRIS & HARPERSVILLE,  37.096937, -76.458812
3203,HARPERSVILLE & BAYBERRY,  37.096970, -76.453856
3204,HARPERSVILLE & SAUNDERS,  37.095465, -76.450782
3206,DAPHIA & SAUNDERS 2,  37.093066, -76.447695
3208,DAPHIA & SAINT EGNATIOS,  37.091702, -76.446073
3210,DAPHIA & SAUNDERS 2,  37.093127, -76.445443
3211,SAUNDERS & KINGWOOD,  37.090542, -76.438316
3212,SAUNDERS & SANLUN LAKES,  37.089715, -76.435158
3213,SAUNDERS & PHILMONT,  37.088426, -76.431794
3214,SAUNDERS & BIG BETHEL,  37.087672, -76.425046
3215,BIG BETHEL & TUPELO,  37.078732, -76.425849
3217,BIG BETHEL & PARK,  37.070857, -76.427162
3219,NORTH CENTER & CENTER,  36.847385, -76.185879
3220,JEFFERSON & 36TH,  36.988343, -76.425243
3221,PRINCESS ANNE & CONCERT,  36.778411, -76.095974
3225,JEFFERSON & 49TH,  36.996757, -76.430356
3226,JEFFERSON & PENINSULA,  37.000039, -76.432381
3228,JEFFERSON & TEMPLE,  37.003794, -76.434698
3229,JEFFERSON & BOONE,  37.008035, -76.437350
3231,JEFFERSON & ADENA,  37.010832, -76.439063
3234,JEFFERSON & 79TH,  37.016843, -76.442799
3235,JEFFERSON & BROOKE,  37.023605, -76.447027
3237,JEFFERSON & WILCOX,  37.025737, -76.448339
3240,JEFFERSON & NORTH,  37.028617, -76.450118
3242,JEFFERSON & WARWICKSHIRE,  37.034827, -76.453992
3244,JEFFERSON & VILLAGE,  37.038048, -76.455990
3246,JEFFERSON & FRANCISCO,  37.040801, -76.457700
3247,JEFFERSON & MCLAWHORNE,  37.044167, -76.459415
3248,JEFFERSON & HEMLOCK,  37.047100, -76.459768
3250,JEFFERSON & LYLISTON,  37.050006, -76.460196
3252,JEFFERSON & GAMBOL,  37.053102, -76.461789
3253,JEFFERSON & DRESDEN,  37.055089, -76.463047
3255,JEFFERSON & NEWPORT,  37.061625, -76.467053
3257,JEFFERSON & WINSTON,  37.066016, -76.469752
3258,JEFFERSON & GROOME,  37.069418, -76.471831
3259,JEFFERSON & ROBINSON,  37.071339, -76.473021
3260,CANON & BLUECRAB,  37.091398, -76.472667
3262,CITY CENTER & TUG BOAT,  37.091230, -76.477381
3264,UNIVERSITY & SHOE,  37.060962, -76.491560
3266,JEFFERSON & ROBINSON,  37.070953, -76.473133
3268,JEFFERSON & GROOME,  37.069612, -76.472285
3269,JEFFERSON & WINSTON,  37.067251, -76.470877
3270,JEFFERSON & LANGLEY,  37.064038, -76.468895
3271,JEFFERSON & NEWPORT,  37.061756, -76.467482
3272,JEFFERSON & HARPERSVILLE,  37.057776, -76.465056
3274,JEFFERSON & DRESDEN,  37.054487, -76.463007
3276,JEFFERSON & IVY,  37.051320, -76.461039
3279,JEFFERSON & HEMLOCK,  37.047003, -76.460069
3280,JEFFERSON & MCLAWHORNE,  37.044546, -76.459739
3281,JEFFERSON & FRANCISCO,  37.040544, -76.457885
3282,JEFFERSON & HUDSON,  37.035598, -76.454773
3284,JEFFERSON & BELLWOOD,  37.033603, -76.453573
3285,JEFFERSON & RANDOLPH,  37.030373, -76.451568
3286,JEFFERSON & RANDOLPH,  37.031358, -76.451822
3287,JEFFERSON & CENTER,  37.027902, -76.450029
3288,JEFFERSON & WILCOX,  37.026071, -76.448888
3290,JEFFERSON & MORRIS,  37.023290, -76.447191
3291,JEFFERSON & ODUM,  37.015030, -76.442021
3292,JEFFERSON & DEBORAH,  37.012499, -76.440445
3294,JEFFERSON & HILTON,  37.008635, -76.438072
3295,JEFFERSON & BRIARFIELD,  37.005796, -76.436299
3296,JEFFERSON & TEMPLE,  37.003816, -76.435106
3298,JEFFERSON & PENINSULA,  37.000517, -76.433071
3299,JEFFERSON & 49TH,  36.996825, -76.430801
3302,JEFFERSON & 44TH,  36.993694, -76.428881
3304,JEFFERSON & 41ST,  36.991800, -76.427666
3305,JEFFERSON & DENBIGH,  37.139452, -76.520972
3306,CORPORATE & MILITARY,  36.836942, -76.211632
3307,CORPORATE & ORION,  36.840280, -76.214037
3313,PARKSIDE & BETHEL,  36.812641, -76.255687
3314,BORDER & WINDY,  36.815863, -76.250227
3315,BORDER & WINDY,  36.815995, -76.251073
3317,HABERSHAM & WALMART,  37.120308, -76.508120
3318,CHATHAM & HABERSHAM,  37.123284, -76.512673
3319,JEFFERSON & WELLNESS,  37.135606, -76.517500
3320,JEFFERSON & DENBIGH,  37.139145, -76.520242
3321,JEFFERSON & BUCHANAN,  37.143786, -76.523956
3322,JEFFERSON & RICHNECK,  37.149645, -76.528573
3323,JEFFERSON & MEADOW CREEK,  37.153184, -76.531326
3324,JEFFERSON & GREEN GROVE,  37.156405, -76.533858
3326,JEFFERSON & SHIELDS,  37.166418, -76.541711
3327,JEFFERSON & WOODCREEK,  37.171421, -76.545682
3328,WARWICK & DOZIER,  37.175786, -76.569624
3329,WARWICK & ENTERPRISE,  37.181503, -76.570255
3330,ELMHURST & WARWICK,  37.192722, -76.574582
3331,LYNNHAVEN & VIKING,  36.828309, -76.067073
3333,INDIAN RIVER & CENTERVILLE,  36.802770, -76.185984
3334,WARWICK & HILLTOP,  37.185301, -76.571943
3336,LITTLE CREEK & MERRITT,  36.915081, -76.246327
3337,PEMBROKE & MERCURY,  37.033315, -76.323694
3338,CUNNINGHAM & HARTFORD,  37.046401, -76.394933
3339,BLAND & CAMPBELL,  37.121804, -76.523807
3340,CHATHAM & BOYKIN,  37.124962, -76.514122
3341,CHATHAM & HABERSHAM,  37.122852, -76.511541
3342,GEORGE WASHINGTON & BAINBRIDGE,  36.804306, -76.321554
3343,ARMISTEAD & QUEEN,  37.025950, -76.349824
3344,BAINBRIDGE & HOLLY,  36.810373, -76.277621
3346,NORTH CENTER & KEMPSVILLE,  36.848078, -76.189627
3347,PRINCESS ANNE & LYNNHAVEN,  36.792448, -76.117448
3348,HIGH & DUKE,  36.844230, -76.366171
3349,PORTSMOUTH & STAUNTON,  36.817979, -76.320784
3351,VIRGINIA BEACH & LYNNHAVEN,  36.844261, -76.072787
3352,NEWTOWN & ELAM,  36.851587, -76.178684
3354,VIRGINIA BEACH & LINCOLN,  36.856627, -76.280003
3356,CANON & ACHIEVEMENT,  37.098831, -76.475985
3357,CUNNINGHAM & HARTFORD,  37.046179, -76.394931
3360,FISHING POINT & CITY CENTER,  37.087327, -76.480187
3361,ROCK LANDING & OMNI,  37.089988, -76.464761
3363,ROCK LANDING & BLUE CRAB,  37.094312, -76.467007
3364,CITY CENTER & CANON,  37.093849, -76.471217
3365,HIGH & WILLETT,  36.837434, -76.350434
3367,CANON & ACHIEVEMENT,  37.099084, -76.475947
3368,HUNTINGTON PARK PNR,  37.016380, -76.453151
3370,SMITHS NECK & CARROLLTON,  36.952874, -76.535246
3371,SMITHFIELD PARK N RIDE,  36.977703, -76.641472
3372,SMITHFIELD MEAT PACKING PLANT,  36.993631, -76.629344
3379,WARWICK & CURTIS,  37.185900, -76.571703
3380,WARWICK & RIPLEY,  37.190361, -76.571546
3381,WARWICK & ENTERPRISE,  37.181226, -76.570289
3382,WARWICK & DOZIER,  37.175922, -76.569864
3384,HIGH & PRIMROSE,  36.835180, -76.312021
3388,ROCK LANDING & CITY CENTER,  37.094480, -76.467188
3390,ROCK LANDING & OMNI,  37.090246, -76.465059
3391,OMNI & ROCK LANDING,  37.088576, -76.465217
3392,CANON & TOWN CENTER,  37.088246, -76.470469
3393,CANON & BLUECRAB,  37.090909, -76.472116
3394,CITY CENTER & TUGBOAT,  37.092044, -76.475693
3396,TIDEWATER & SAINT JULIAN,  36.861103, -76.271689
3397,CHATHAM & BOYKIN,  37.125352, -76.514235
3401,CITY CENTER & CANON,  37.093905, -76.470626
3407,BALLENTINE & WOODLAND,  36.854008, -76.248475
3408,HORNE & DARREN,  36.797170, -76.370574
3412,19TH & DOUBLE TREE,  36.844537, -75.990716
3773,KEMPSVILLE & NORTH CENTER,  36.849300, -76.191547
3774,GATE 4 NAVAL STATION,  36.945231, -76.272542
3776,HOLLAND & WARWICK,  36.798204, -76.084635
3777,VIRGINIA BEACH & BIRDNECK,  36.841753, -75.997794
3778,GEORGE WASHINGTON & WOODLAND,  36.783222, -76.334274
3779,VICTORY & GREENWOOD,  36.799333, -76.351273
3780,GEORGE WASHINGTON & WOODLAND,  36.782928, -76.334670
3781,GEORGE WASHINGTON & GILMERTON,  36.781373, -76.335850
3783,PRINCESS ANNE & INDEPENDENCE,  36.790383, -76.114106
3784,38TH & HAMPTON,  36.879698, -76.303212
3785,HAMPTON & SHELL STATION,  36.888639, -76.302658
3788,VIRGINIA BEACH & WEST,  36.842480, -76.017870
3790,VIRGINIA BEACH & FIRST COLONIAL,  36.842713, -76.022374
3792,TOWNE POINT & PEPPERWOOD,  36.873084, -76.402299
3793,HIGH & VIRGINIA,  36.834767, -76.329874
3794,HIGH & CUTHERELL,  36.834688, -76.332271
3796,GENERAL BOOTH & HEADQUARTERS,  36.822982, -75.979056
3797,PRINCESS ANNE & CROSSROAD,  36.758899, -76.022191
3798,PRINCESS ANNE & NIMMO,  36.755279, -76.059351
3799,PRINCESS ANNE & JAMES MADISON,  36.754911, -76.059213
3801,FIRST VIEW & GOVERNMENT,  36.951989, -76.257806
3803,FIRST VIEW & MAPLE,  36.949773, -76.259998
3804,26TH & WAVERLY,  36.872202, -76.274751
3806,HIGH & HARBOR,  36.834620, -76.328205
3808,JEFFERSON & 41ST,  36.991635, -76.427254
3809,JEFFERSON & 74TH,  37.013191, -76.440547
3810,HIGH & POTAMAC,  36.834326, -76.340776
3811,COUNTY & BOOKER,  37.019636, -76.321788
3812,PEMBROKE & WASHINGTON,  37.030792, -76.342955
3813,PEMBROKE & THEODORE,  37.033114, -76.326571
3814,MALLORY & HERBERT,  37.039264, -76.295687
3815,COUNTY & FRISSELL,  37.022085, -76.325445
3817,BRIARFIELD & NORTHWOOD,  37.019380, -76.398822
3818,BRIARFIELD & PARKINSON,  37.019078, -76.401039
3819,GENERAL BOOTH & GUNN HALL,  36.777260, -76.003917
3820,CEDAR & LAS GAVIOTAS,  36.718784, -76.286623
3821,CEDAR & CEDAR COMMONS,  36.713961, -76.280561
3822,CEDAR & PINES OF WARRICK,  36.709858, -76.265081
3823,CEDAR & BARTELL,  36.712898, -76.255076
3825,CAMPOSTELLA & HUNTERDALE,  36.805736, -76.255841
3826,PARKSIDE & CAMPOSTELLA,  36.812253, -76.256778
3829,LIBERTY & 20TH,  36.820831, -76.273010
3830,LIBERTY & SEABOARD,  36.819457, -76.271235
3831,INDIAN RIVER & FORD,  36.830611, -76.254086
3832,BRAMBLETON & LANDING,  36.851873, -76.277990
3833,TIDEWATER & BAGNALL,  36.853572, -76.275112
3836,CAMPOSTELLA & ELKIN,  36.832779, -76.262184
3838,MELON & VINE,  36.825614, -76.264385
3839,BERKLEY & CRYSTAL,  36.824969, -76.266780
3842,BATTLEFIELD & BYRON,  36.761802, -76.250917
3845,CEDAR & MILL LANDING,  36.709979, -76.266069
3846,CEDAR & ROUNTREE,  36.716725, -76.283543
3847,KIMBALL & COURT,  36.843335, -76.249120
3848,TIDEWATER & GILPIN,  36.944155, -76.257850
3849,TIDEWATER & EASY,  36.910210, -76.255900
3850,OCEAN VIEW & 12TH VIEW,  36.967244, -76.284186
3851,OCEAN VIEW & 5TH VIEW,  36.961469, -76.263884
3852,TIDEWATER & LORENGO,  36.944057, -76.258099
3853,TIDEWATER & LEICESTER,  36.941753, -76.256172
3854,INDIAN RIVER & LEVEL GREEN,  36.811658, -76.204329
3855,INDIAN RIVER & REON,  36.809649, -76.200383
3857,CEDAR & COUNTRY CLUB,  36.711671, -76.276367
3874,LITTLE CREEK & SHIRLAND,  36.915875, -76.304897
3878,MILITARY & GEORGETOWN,  36.790637, -76.244916
3879,AZALEA GARDEN & FARIS,  36.888405, -76.220838
3880,CHESAPEAKE & JOHNSTONS,  36.908676, -76.240328
3881,LITTLE CREEK & ARMFIELD,  36.916309, -76.290113
3882,WESTMINSTER & BALLENTINE,  36.844798, -76.249984
3883,CEDAR & COUNTRY CLUB,  36.711756, -76.275673
3884,WESTMINSTER & CHICK,  36.844338, -76.248001
3885,KIMBALL & KIMBALL,  36.843206, -76.247332
3891,VIRGINIA & GILBERT,  36.947393, -76.322919
3892,GILBERT & GALLEY,  36.947500, -76.314491
3893,GILBERT & BAINBRIDGE,  36.947813, -76.307697
3894,FIRST VIEW & RIDGEWELL,  36.946387, -76.267443
3901,GENERAL BOOTH & REDMILL,  36.771181, -76.011269
3902,GENERAL BOOTH & LONDON BRIDGE,  36.766593, -76.014008
3903,GENERAL BOOTH & PROSPERITY,  36.792777, -75.995518
3907,CAMPOSTELLA & GIDEON,  36.809816, -76.256353
3908,CAMPOSTELLA & SUNRISE,  36.809708, -76.256149
3913,BAINBRIDGE & YACHT,  36.763679, -76.288850
4001,ATLANTIC & 24TH,  36.852475, -75.976058
4003,HIGH & CLOVER HILL,  36.855496, -76.384046
4004,HIGH & FERGUSON,  36.855234, -76.383898
4005,KRISTINA & CROSSWAYS,  36.775036, -76.239912
4006,KRISTINA & CROSSWAYS,  36.775547, -76.240290
4007,CROSSWAYS & JARMAN,  36.779591, -76.233463
4008,CROSSWAYS & STEPHANIE,  36.780813, -76.238074
4009,EXECUTIVE & EDEN WAY,  36.770895, -76.238717
4012,EXECUTIVE & EDEN WAY,  36.771138, -76.238594
4013,CROSSWAYS & STEPHANIE,  36.780403, -76.238290
4014,CROSSWAYS & JARMAN,  36.780198, -76.233992
5003,HOLLAND & STONESHORE,  36.807296, -76.091296
5005,HOLLAND & SHIPPS CORNER,  36.793073, -76.080930
5006,CONSTITUTION & COLUMBUS,  36.841386, -76.131029
5009,BUCKNER & CANADIAN,  36.788096, -76.101896
5010,PRINCESS ANNE & SEABOARD,  36.754077, -76.032863
5011,PRINCESS ANNE & SEABOARD,  36.754146, -76.034605
5014,COLUMBUS & INDEPENDENCE,  36.840838, -76.135778
5016,LYNNHAVEN & SABRE,  36.821845, -76.067144
5019,LYNNHAVEN & INTERNATIONAL,  36.817331, -76.066674
5020,LYNNHAVEN & AVENGER,  36.820077, -76.066812
5029,GREAT NECK & ADAM KEELING,  36.899576, -76.065590
5030,GREAT NECK & ADAM KEELING,  36.899828, -76.065401
5038,FIRST COLONIAL & WOLFSNARE,  36.855835, -76.025094
5042,LYNNHAVEN & INTERNATIONAL,  36.817307, -76.066999
5058,VIRGINIA BEACH & FIRST COLONIAL,  36.842570, -76.020545
5073,BALLENTINE & LRT STATION,  36.846696, -76.252515
5076,ATLANTIC & 6TH,  36.834833, -75.971313
5079,HAMPTON & TAUSSIG,  36.941592, -76.318664
5082,B & VIRGINIA,  36.937312, -76.321285
5085,DECATUR & GILBERT,  36.946529, -76.328606
5127,EDEN & GREENBRIER,  36.775594, -76.227376
5129,GREENBRIER MALL,  36.779669, -76.224746
5130,GREENBRIER MALL,  36.779702, -76.224621
5145,HAMPTON & B,  36.938809, -76.318371
5149,NIMMO & GENERAL BOOTH,  36.763614, -76.013488
5152,FIRST COLONIAL & WOLFSNARE,  36.854679, -76.024397
5156,CHURCHLAND & POPLAR HILL,  36.865228, -76.399052
5161,COLLEGE & LAKE VIEW,  36.882161, -76.425708
5162,COLLEGE & LAKE VIEW,  36.881128, -76.425426
5167,VILLAGE & ACADEMY,  36.863773, -76.396615
5176,HIGH & RODMAN,  36.835574, -76.347518
5179,HIGH & YORKTOWN,  36.834766, -76.322812
5182,HIGH & TWINE,  36.834899, -76.316568
5185,GILBERT & BACON,  36.947358, -76.317263
5198,POPLAR HALL & FRIZZELL,  36.849095, -76.204345
5202,EFFINGHAM & QUEEN,  36.835895, -76.306870
5209,PORTSMOUTH & GREEN,  36.818899, -76.304860
5217,PORTSMOUTH & IVEY,  36.815470, -76.342872
5271,JEFFERSON & HQ,  37.106937, -76.495014
5343,POINDEXTER & WADE,  36.824813, -76.269160
5344,LIBERTY & 20TH,  36.821405, -76.273426
5345,POINDEXTER & WADE,  36.824755, -76.269019
5400,WARWICK & WENDWOOD,  37.101590, -76.510721
5401,WARWICK & WENDWOOD,  37.101201, -76.509996
5402,RIVER ROAD,  37.003540, -76.443912
5403,PRINCESS ANNE & WITCHDUCK,  36.825878, -76.162332
5404,PRINCESS ANNE & CAPOT,  36.830285, -76.173410
5405,PEMBROKE & PEMBROKE LAKE,  36.862089, -76.134203
5406,PEMBROKE & N WITCHDUCK,  36.861626, -76.137110
5407,WITCHDUCK & ARAGONA,  36.857083, -76.145341
5408,WITCHDUCK & BAKER,  36.855082, -76.152333
5409,WITCHDUCK & VIRGINIA BEACH,  36.847172, -76.155881
5410,WITCHDUCK & CLEVELAND,  36.843232, -76.157874
5411,WITCHDUCK & RURITAN,  36.828442, -76.160045
5412,KEMPSVILLE & LOBAUGH,  36.815620, -76.164403
5413,KEMPSVILLE & STRATFORD CHASE,  36.811218, -76.166711
5414,KEMPSVILLE & KEMPS RIVER,  36.801647, -76.173832
5415,KEMPSVILLE & CENTERVILLE,  36.782584, -76.189879
5416,KEMPSVILLE & CITY VIEW PARK,  36.778046, -76.196982
5417,KEMPSVILLE & TARELTON OAKS,  36.774750, -76.200104
5418,KEMPSVILLE & TITCHFIELD,  36.765155, -76.204033
5419,VOLVO & EDEN WAY N,  36.768732, -76.218541
5420,VOLVO & BROOKSIDE,  36.769531, -76.223764
5421,WOODLAKE & DEBAUN,  36.779557, -76.256027
5422,VOLVO & BISHOPSTOKE,  36.765183, -76.209207
5423,KEMPSVILLE & CAPTAINS,  36.793898, -76.177058
5424,KEMPSVILLE & FAIRFIELD,  36.823029, -76.161712
5425,WOODLAKE & SENTINEL,  36.779819, -76.252207
5426,VOLVO & EDEN WAY S,  36.769259, -76.225372
5427,VOLVO & EDEN WAY N,  36.768426, -76.218412
5428,VOLVO & RELLEN,  36.765540, -76.210737
5429,KEMPSVILLE & TITCHFIELD,  36.765548, -76.203709
5430,KEMPSVILLE & TARELTON OAKS,  36.775256, -76.199304
5431,KEMPSVILLE & MONUMENT,  36.777653, -76.196930
5432,KEMPSVILLE & KEMPSVILLE CROSSING,  36.782150, -76.189897
5433,KEMPSVILLE & CAPTAINS,  36.793829, -76.176711
5434,KEMPSVILLE & OLD KEMPSVILLE,  36.802242, -76.173542
5435,KEMPSVILLE & MINDEN,  36.810938, -76.166474
5436,KEMPSVILLE & LOBAUGH,  36.815707, -76.164070
5437,KEMPSVILLE & CHIEF,  36.823298, -76.161239
5438,WITCHDUCK & RURITAN,  36.827671, -76.159887
5439,WITCHDUCK & RICHARD,  36.847871, -76.155469
5440,WITCHDUCK & LAVENDER,  36.854362, -76.152816
5441,WITCHDUCK & ARAGONA,  36.856651, -76.147223
5442,PEMBROKE & MORAINE,  36.861392, -76.137808
5443,PEMBROKE & PEMBROKE LAKE,  36.861942, -76.134512
5444,WITCHDUCK & CLEVELAND,  36.842732, -76.157818
5445,KEMPSVILLE & MIKE PHILLIPS,  36.787360, -76.183866
5446,KEMPSVILLE & MIKE PHILLIPS,  36.786982, -76.183846
5447,GREENBRIER & VOLVO,  36.770770, -76.228025
5448,KEMPSVILLE & TITANS,  36.870479, -76.204316
5449,HAMPTON & HELMICK,  36.925879, -76.317220
5450,CAPITOL LANDING & MERRIMAC,  37.286199, -76.686553
5451,CAPITOL LANDING & MERRIMAC,  37.285870, -76.687028
5452,ATLANTIC & CAMPOSTELLA,  36.792427, -76.260816
5453,ATLANTIC & CAMPOSTELLA,  36.793237, -76.260713
5454,CAMPOSTELLA & BROAD,  36.798686, -76.257604
5455,WITCHDUCK & WHITAKER,  36.851791, -76.154509
5456,KEMPSVILLE & CHATHAM HALL,  36.807382, -76.169027
5457,KEMPSVILLE & WHITHURST LANDING,  36.804548, -76.173403
5458,KEMPSVILLE & LANGSTON,  36.808009, -76.167952
5459,WITCHDUCK & WITCHDUCK CT,  36.852357, -76.154071
5460,WITCHDUCK & MERRIMAC,  36.858576, -76.141547
5461,VOLVO & IVYSTONE,  36.769104, -76.220583
5462,WITCHDUCK & HOLLADAY,  36.858687, -76.141600
5463,MARTIN LUTHER KING JR & SHELTER,  37.017101, -76.329335
5464,MALLORY & HOWARD,  37.017744, -76.323572
5512,CAMPOSTELLA & DIAMOND HILL,  36.789258, -76.263101
5514,CAMPOSTELLA & DEXTER,  36.796418, -76.258621
5515,LYNNHAVEN & GUARDIAN,  36.825218, -76.067012
5516,LYNNHAVEN & GUARDIAN,  36.825137, -76.067266
5518,PEMBROKE & PARKDALE,  37.027578, -76.362221
5520,QUEEN & ALLISON SUTTON,  37.024670, -76.378139
5527,MARCELLA & WILLIAMSBURG,  37.050656, -76.389879
5528,MEDICAL & MARCELLA,  37.055576, -76.387026
5529,MEDICAL & VERNON STUART,  37.056829, -76.387313
5530,MEDICAL & COLISEUM,  37.056624, -76.391437
5532,LIBERTY & CULPEPPER,  36.828236, -76.279728
5533,PARKS & 21ST,  36.847459, -75.986083
5534,GENERAL BOOTH & LONDON BRIDGE,  36.768111, -76.012967
5535,PACIFIC & 30TH,  36.858546, -75.979022
5536,PACIFIC & 11TH,  36.839476, -75.974046
5537,BART & COURT,  36.831868, -76.299974
5542,EFFINGHAM & FIREHOUSE,  36.837745, -76.306899
5544,CRAWFORD & EFFINGHAM,  36.841229, -76.306318
5545,CRAWFORD & HATTON,  36.841447, -76.309826
5546,CRAWFORD & EFFINGHAM,  36.841248, -76.306906
5547,EFFINGHAM & NORTH,  36.839090, -76.306893
5548,COUNTY & DINWIDDIE,  36.833772, -76.302534
5549,COUNTY & DINWIDDIE,  36.833713, -76.302597
5550,COUNTY & ELM,  36.833435, -76.312000
5551,COUNTY & CRABAPPLE,  36.833510, -76.308906
5552,COUNTY & CRABAPPLE,  36.833647, -76.309046
5553,COUNTY & WASHINGTON,  36.833681, -76.304082
5554,COUNTY & GREEN,  36.833738, -76.305165
5563,PEMBROKE & PARKDALE,  37.027834, -76.362116
5600,PEMBROKE & BACK RIVER,  37.029290, -76.356171
5601,PEMBROKE & BACK RIVER,  37.029123, -76.356453
5605,VIRGINIA BEACH & GRANBY,  36.857576, -76.289696
5607,VIRGINIA BEACH & BOUSH,  36.857746, -76.288728
5611,PRINCESS ANNE & HILL PRINCE,  36.835518, -76.178600
5612,PEMBROKE & WAVERLY,  37.029341, -76.352855
5613,PEMBROKE & WAVERLY,  37.029543, -76.351799
5614,OCEAN VIEW & 4TH VIEW,  36.959491, -76.260383
5615,HAMPTON ROADS & MATTHEW,  36.877060, -76.420154
5616,COLUMBUS & LEXINGTON,  36.819852, -76.324418
5617,TIDEWATER & EVANS,  36.934593, -76.254114
5618,PORTSMOUTH & MOHAWK,  36.816070, -76.362142
5619,HAMPTON ROADS & RESPASS BEACH,  36.876766, -76.419991
5621,COLLEGE PARK & BENNINGTON,  36.808879, -76.213862
5622,COLLEGE PARK & BRYNMAWR,  36.808806, -76.213575
5624,ATLANTIC & 31ST,  36.859110, -75.978211
5627,NORTH GATE GRUMMAN SHELTER,  37.001926, -76.443102
5633,OLD COURTHOUSE & WARWICK,  37.132332, -76.543658
5636,BOUSH & BROOKE,  36.848608, -76.292510
5637,PORTSMOUTH & DAHLIA,  36.816127, -76.331584
5638,PORTSMOUTH & DEEP CREEK,  36.816612, -76.328030
5639,COLISEUM & VON SCHILLING,  37.045077, -76.389969
5640,COLISEUM & VON SCHILLING,  37.042894, -76.389419
5641,OCEAN VIEW & CHESAPEAKE ST,  36.947473, -76.240629
5644,BAINBRIDGE & SWAIN,  36.799107, -76.276644
5646,BAINBRIDGE & CARVER,  36.760559, -76.288378
5647,BAINBRIDGE & REDSTART,  36.797240, -76.277230
5649,ELM & ANN,  36.840656, -76.313139
5650,ELM & ENTERPRISE,  36.838076, -76.312980
5653,ELM & ENTERPRISE,  36.837767, -76.312823
5654,ELM & ANN,  36.840364, -76.312952
5655,CRAWFORD & WEBSTER,  36.841238, -76.312349
5656,CRAWFORD & HATTON,  36.841302, -76.310215
5659,COUNTY & PHOEBUS,  36.833620, -76.311076
5666,MARSH PAVILION,  36.815019, -75.988565
5668,ELKHORN & 39TH,  36.880048, -76.307885
5669,ELKHORN & 41ST,  36.881919, -76.307999
5670,ELKHORN & 39TH,  36.880243, -76.307769
5671,ELKHORN & 42ND,  36.882407, -76.307881
5672,PRINCESS ANNE & BAXTER,  36.823438, -76.152276
5674,MILITARY & PROVIDENCE,  36.812836, -76.216874
5675,HARWOOD & ENTERPRISE,  37.176242, -76.589911
5676,MILITARY & OLD GREENBRIER,  36.798674, -76.233133
5677,BATTLEFIELD & KNELLS RIDGE,  36.750692, -76.246201
5678,GEORGE WASHINGTON & BATTERY PARK,  36.786988, -76.332738
5679,CAMELOT & DEEP CREEK,  36.781403, -76.343428
5691,8TH & JEFFERSON,  36.822177, -76.303187
5692,ORCUTT & SHARPLEY,  37.038213, -76.441021
5694,PARKS & 19TH,  36.846448, -75.985820
5695,KEMPSVILLE & WHITEHURST LANDING,  36.804300, -76.173197
5696,TOWNE POINT & MAGNOLIA,  36.873827, -76.409233
5697,VICTORY CROSSING,  36.809444, -76.352698
5698,MILITARY & PARKVIEW,  36.794103, -76.239401
5699,MILITARY & PARKVIEW,  36.794452, -76.238358
5700,OLD GREENBRIER & WOODLAKE,  36.791168, -76.233775
5701,OLNEY & MOWBRAY,  36.857566, -76.293457
5705,BATTLEFIELD & WIMBLEDON,  36.743192, -76.243836
5706,MILITARY & LAKE HERBERT,  36.868030, -76.211260
5707,INDEPENDENCE & EWELL,  36.884067, -76.134306
5708,GENERAL BOOTH & SULLIVAN HOUSE,  36.771180, -76.011751
5713,BOULEVARD PARK TRANSFER AREA,  37.062264, -76.485249
5714,FISHING POINT & GUM ROCK,  37.087283, -76.479936
5715,COMMUNITY COLLEGE & PRINCESS ANNE,  36.786143, -76.106132
5716,GENERAL BOOTH & CROATAN,  36.823252, -75.978212
5718,PACIFIC & 30TH,  36.857584, -75.978953
5719,GENERAL BOOTH & DAM NECK,  36.784911, -76.000128
5720,TIDEWATER & LEONARD,  36.920771, -76.253004
5721,TIDEWATER & MARVIN,  36.925112, -76.252367
5722,TIDEWATER & NORMAN,  36.929237, -76.253021
5723,TIDEWATER & WOODFORD,  36.932189, -76.253750
5724,TIDEWATER &  NORMAN,  36.927625, -76.253057
5725,TIDEWATER & MARVIN,  36.924702, -76.252626
5726,TIDEWATER & LEONARD,  36.920297, -76.253362
5729,PORTSMOUTH & DELAWARE,  36.815734, -76.358205
5730,PORTSMOUTH & DELAWARE,  36.815442, -76.357498
5731,GREENWOOD & NORMANDY,  36.800996, -76.351202
5732,MCLEAN & COLLEGE,  36.807388, -76.348192
5733,VIRGINIA BEACH & JETT,  36.856488, -76.224347
5734,CHURCH & GOFF,  36.859647, -76.278190
5735,AIRLINE & PIERCE,  36.794814, -76.400366
5736,CEDAR & ALBEMARLE,  36.713214, -76.254849
5737,MILITARY btwn POPLAR HALL & MALL ENTRANCE,  36.850402, -76.209830
5738,FIRST COLONIAL & WILDWOOD,  36.861527, -76.027303
5740,BALLENTINE & LRT STATION,  36.847264, -76.252574
5741,NEWTOWN RD STATION,  36.841462, -76.189499
5742,TIDEWATER & GORDON,  36.860917, -76.271374
5743,TIDEWATER & WAUKESHA,  36.894867, -76.257025
5744,FORT NORFOLK STATION,  36.859156, -76.304389
5745,BERKLEY & QUAIL,  36.823982, -76.264486
5749,ATLANTIC & 3RD,  36.832137, -75.971258
5750,CHESAPEAKE & BALVIEW,  36.946450, -76.244100
5751,CHESAPEAKE & OCEAN VIEW,  36.947605, -76.243868
5752,PRINCESS ANNE & INGLESIDE,  36.862159, -76.246335
5753,LONDON & PENINSULA,  36.837028, -76.317181
5754,LONDON & PENINSULA,  36.837180, -76.319031
5756,BUCKNER & CROFTS PRIDE,  36.789898, -76.093962
5757,BUCKNER & CROFTS PRIDE,  36.789790, -76.094041
5758,BUCKNER & PUREBRED,  36.790183, -76.090483
5759,WILSON & MANSON,  36.826356, -76.267624
5765,CHESAPEAKE COMMUNITY SERVICE BOARD,  36.736063, -76.246716
5766,GRASSFIELD & CAHOON,  36.722009, -76.306037
5767,COLLEY & FAIRFAX,  36.859567, -76.300744
5774,CHESAPEAKE COMMUNITY SERVICE BOARD,  36.736406, -76.246923
5775,GREAT BRIDGE & TELFYAN,  36.740827, -76.254655
5776,GREAT BRIDGE & BETTES WAY,  36.745406, -76.260183
5777,GREAT BRIDGE & TIGER,  36.741495, -76.255764
5778,CEDAR & BELLS MILL,  36.723708, -76.292628
5779,REDGATE & CHILDRENS WAY,  36.864090, -76.301378
5780,NEWTOWN & VIRGINIA BEACH,  36.857007, -76.176883
5781,NEWTOWN & VIRGINIA BEACH,  36.856322, -76.177287
5782,FIRST COLONIAL & LAUREL,  36.853714, -76.022958
5785,SHORE & MARLIN BAY,  36.907236, -76.108666
5786,SHORE & VISTA,  36.907733, -76.085210
5787,ATLANTIC & 4TH,  36.833066, -75.970780
5789,ATLANTIC & 14TH,  36.842433, -75.973352
5791,ATLANTIC & 16TH,  36.844682, -75.974046
5792,ATLANTIC & 18TH,  36.846784, -75.974531
5793,ATLANTIC & 22nd,  36.850472, -75.975552
5794,PACIFIC & 40TH,  36.867722, -75.981576
5795,ATLANTIC & 39TH,  36.867140, -75.980393
5797,ATLANTIC & 35TH,  36.863229, -75.979371
5798,ATLANTIC & 27TH,  36.855482, -75.977276
5799,ATLANTIC & 23RD,  36.850788, -75.975851
5800,ATLANTIC & 20TH,  36.848634, -75.975260
5801,ATLANTIC & 17TH,  36.845042, -75.974298
5802,ATLANTIC & 14TH,  36.842749, -75.973682
5805,ATLANTIC & 7TH,  36.836427, -75.971939
5807,7TH & JEFFERSON,  36.822804, -76.302164
5818,PATRICK HENRY MALL,  37.110439, -76.493913
5819,HAMPTON ROADS & SHELL,  37.013925, -76.371027
5820,KING & OLD FOX HILL,  37.044935, -76.347890
5821,JEFFERSON & MEADOW CREEK,  37.151911, -76.530751
5822,JEFFERSON & TURNBERRY,  37.134171, -76.516812
5823,JEFFERSON & JEFFERSON COMMONS,  37.131573, -76.514771
5824,JEFFERSON & JEFFERSON COMMONS,  37.131635, -76.514406
5825,CANON & OLD OYSTER POINT,  37.102377, -76.479902
5826,BLAND & CAMPBELL,  37.122018, -76.523988
5827,HABERSHAM & CHATHAM,  37.120230, -76.508430
5828,HAMPTON & 49TH,  36.888890, -76.303059
5829,JEFFERSON & 44TH,  36.993563, -76.428391
5830,QUEEN & POWER PLANT,  37.025948, -76.386809
5832,DENBIGH & POCAHONTAS,  37.132819, -76.530718
5834,PEMBROKE & WOODLAND,  37.034033, -76.321010
5835,43RD & BOWDENS FERRY,  36.883328, -76.305002
5837,COMMANDER SHEPPARD & RESEARCH,  37.091216, -76.386973
5838,PINE CHAPEL & COLISEUM,  37.038006, -76.383564
5840,GRIMES & BANCROFT,  37.043081, -76.314841
5841,ANDREWS & REDFORD,  37.044817, -76.312810
5842,GRIMES & SOMERVILLE,  37.042165, -76.314771
5843,GRIMES & PEMBROKE,  37.038198, -76.314399
5846,LITTLE CREEK & VANPATTEN,  36.916826, -76.255972
5847,MILITARY & LOWERY,  36.863759, -76.210264
5849,MILITARY & AUBURN,  36.810376, -76.218772
5851,MARSHALL & TIMBER,  37.000296, -76.426111
5853,VIRGINIA BEACH & CENTRAL PARK,  36.843642, -76.134276
5854,NEWTOWN & CONNIE,  36.861473, -76.173253
5855,HAYGOOD & FERRY PLANTATION,  36.873271, -76.139424
5856,HAYGOOD & FERRY PLANTATION,  36.873811, -76.138649
5857,PORTSMOUTH & DOCK LANDING,  36.824829, -76.404268
5858,PORTSMOUTH & DOCK LANDING,  36.825013, -76.403926
5864,HAYGOOD & TWAIN,  36.874366, -76.137351
5865,HAYGOOD & HUNTING HILL,  36.871951, -76.143278
5866,HAYGOOD & CROSSBROUGH,  36.870446, -76.146963
5867,HAYGOOD & HAYGOOD,  36.868969, -76.150536
5868,NEWTOWN & LEARNING,  36.865580, -76.158090
5869,BROAD MEADOWS & HENDERSON,  36.867039, -76.161557
5870,WESLEYAN & DIAMOND SPRINGS,  36.870864, -76.169672
5871,DIAMOND SPRINGS & HAMPSHIRE,  36.868376, -76.171009
5872,DIAMOND SPRINGS & NEWTOWN,  36.865610, -76.170361
5873,NEWTOWN & DANIEL SMITH,  36.861942, -76.173095
5874,DIAMOND SPRINGS & NEWTOWN,  36.865627, -76.170113
5875,DIAMOND SPRINGS & SHURNEY,  36.868192, -76.170592
5876,WESLEYAN & DIAMOND SPRINGS,  36.870719, -76.170118
5877,BROAD MEADOWS & JUSTIN,  36.869075, -76.163368
5878,BROAD MEADOWS & HENDERSON,  36.866991, -76.161693
5879,NEWTOWN & LEARNING,  36.865490, -76.159088
5880,HAYGOOD & ARAGONA,  36.869832, -76.147928
5881,HAYGOOD & HUNTING HILL,  36.871912, -76.142877
5882,HAYGOOD & TWAIN,  36.874466, -76.136736
5885,CEDAR & CEDAR LANE,  36.711001, -76.260336
5887,PORT CENTRE & LINCOLN,  36.827092, -76.299773
5888,BRAMBLETON & YARMOUTH,  36.853881, -76.293681
5892,BROAD MEADOWS & WESLEYAN,  36.869205, -76.163287
5893,SAVILLE & WALMART,  37.039287, -76.382447
5894,LONDON & JAMESTOWN,  36.837314, -76.324315
5895,LITTLE CREEK & HALPRIN,  36.915330, -76.221182
5896,STARMOUNT & JOLLIFF,  36.819103, -76.441083
5901,INDIAN RIVER & WINGFIELD,  36.827621, -76.246716
5902,LYNNHAVEN & INDEPENDENCE,  36.795312, -76.109909
5903,CEDAR & HOLT,  36.714499, -76.252027
5909,TURNPIKE & COMMONWEALTH,  36.822562, -76.342826
5911,GREAT NECK & FIRST COLONIAL,  36.875465, -76.039630
5912,FIRST COLONIAL & PARAMORE,  36.871376, -76.035822
5914,GREAT NECK & POPLAR POINT,  36.878164, -76.041852
5915,FIRST COLONIAL & MILL DAM,  36.868748, -76.031323
5916,FIRST COLONIAL & MILL DAM,  36.869430, -76.032550
5917,GREAT NECK & MILL DAM,  36.878169, -76.041368
5918,MALLORY & BUCKROE,  37.042744, -76.293557
5919,MALLORY & BUCKROE,  37.042828, -76.293279
5920,1ST VIEW & RIDGEWELL,  36.946452, -76.267542
5923,NGGRUM WALK IN GATE,  37.003563, -76.444492
5936,VIRGINIA BEACH & KINGS GRANT,  36.843489, -76.078003
5937,GENERAL BOOTH & HUBBELL,  36.781411, -76.001971
5938,OCEAN VIEW & 8TH VIEW,  36.965198, -76.271831
5940,INDIAN RIVER & MCDONALD,  36.819510, -76.222403
5943,LYNNHAVEN & MAGIC HOLLOW,  36.806804, -76.078130
5945,PORTSMOUTH & HODGES FERRY,  36.821298, -76.390318
5947,WILSON & CASS,  36.829771, -76.265196
5948,INDIAN RIVER & ORMER,  36.825884, -76.243194
5949,INDIAN RIVER & LILAC,  36.822654, -76.235009
5950,LYNNHAVEN & BOXLEY,  36.788043, -76.139857
5951,LYNNHAVEN & HANDCROSS,  36.788596, -76.132882
5952,LYNNHAVEN & SALEM,  36.789337, -76.123893
5953,LYNNHAVEN & SALEM,  36.789448, -76.125930
5954,LYNNHAVEN & CLIFFWOOD,  36.788025, -76.142967
5955,INDIAN RIVER & MACDONALD,  36.819844, -76.222551
5957,CHESAPEAKE & DUDLEY,  36.943244, -76.245889
5958,CAMPOSTELLA & DEXTER,  36.796582, -76.258351
5959,AIRLINE & BEDFORD,  36.803883, -76.385472
5960,AIRLINE & BEDFORD,  36.803737, -76.385965
5961,CAMPOSTELLA & GREENLEAF,  36.825310, -76.260591
5962,CEDAR & WATERS,  36.710445, -76.270586
5963,BATTLEFIELD & COASTAL,  36.766660, -76.251709
5964,BATTLEFIELD & KNELLS RIDGE,  36.748639, -76.245818
5965,CEDAR & WATERS,  36.710596, -76.270224
5971,WESTMINSTER & CHICK,  36.844508, -76.248252
5972,GREENWOOD & INDEPENDENCE,  36.806338, -76.335845
5973,ELM & RANDOLPH,  36.826063, -76.312542
5974,BALLENTINE & HOLLISTER,  36.855491, -76.248898
5975,LONDON & CHESAPEAKE,  36.837616, -76.321815
5980,PRINCESS ANNE & CURRY COMB,  36.759774, -76.066356
5981,PRINCESS ANNE & CURRY COMB,  36.758608, -76.065450
5982,PRINCESS ANNE & PARLIAMENT,  36.839314, -76.181305
5983,PRINCESS ANNE & BRANTINGHAM,  36.800667, -76.130664
5984,VIRGINIA BEACH & NORTHRIDGE,  36.847542, -76.160467
5985,PRINCESS ANNE & LYNNHAVEN,  36.792117, -76.117628
5986,BAKER & HERBERT MOORE,  36.869376, -76.180971
5987,NORTHAMPTON & DIAMOND SPRINGS,  36.887379, -76.178504
5988,BAINBRIDGE & SMITH DOUGLAS,  36.774096, -76.286684
5989,FIRST COLONIAL & VIRGINIA BEACH,  36.843483, -76.020828
5990,FIRST COLONIAL & TOTTENHAM,  36.859456, -76.026345
5991,GREAT NECK & HARBOR,  36.881199, -76.044182
5992,GREAT NECK & DEY COVE,  36.886681, -76.049037
5993,GREAT NECK & FALCON,  36.889541, -76.051458
5994,GREAT NECK & UPPER CHELSEA REACH,  36.892112, -76.055327
5995,GREAT NECK & LYNNHAVEN,  36.908519, -76.067329
5996,SHORE & PAGE,  36.907826, -76.085824
5997,SHORE & KLEEN,  36.909593, -76.081388
5998,GREAT NECK & LYNNHAVEN,  36.907529, -76.067649
5999,GREAT NECK & GREAT NECK CIR,  36.883961, -76.047213
6051,HAMPTON & TAUSSIG,  36.942136, -76.319060
6052,CITY HALL & BANK,  36.847532, -76.289507
6055,38TH & KILLAM,  36.879832, -76.297869
6056,38th & KELLAM,  36.879932, -76.298464
6057,LASALLE & AUGUSTA,  37.020010, -76.363590
6058,LASALLE & AUGUSTA,  37.020286, -76.363418
6066,ARCTIC & 19TH,  36.847338, -75.978184
6067,MARSHALL & 79TH,  37.018782, -76.437369
6068,GENERAL BOOTH & AQUARIUM,  36.821017, -75.981890
6071,LYNNHAVEN MALL,  36.814471, -76.069012
6078,INDIAN RIVER & KEMPS RIVER,  36.800058, -76.179710
6079,INDIAN RIVER & KEMPS RIVER,  36.799392, -76.179042
6080,DENBIGH & CEDARWOOD,  37.142686, -76.516008
6083,WARWICK & OLD HARPERSVILLE,  37.048643, -76.474615
6085,LYNNHAVEN & SALEM CROSSING,  36.791080, -76.120956
6086,WESLEYAN & ACADEMY,  36.875257, -76.190166
6087,WARWICK & ADAMS WOOD,  37.115323, -76.520331
6093,DENBIGH & PATRICK HENRY,  37.140628, -76.517831
6094,BANK & PLUME,  36.846505, -76.289381
6095,FIRST LANDING,  36.918786, -76.052443
6097,ATLANTIC & 81st,  36.906262, -75.993242
6099,SHORE & BEECH,  36.912666, -76.066513
6100,SHORE & CROIX,  36.912736, -76.067534
6101,SHORE & SANDALWOOD,  36.913723, -76.063256
6102,SHORE & WAKE FOREST,  36.913874, -76.061804
6103,MEDICAL & GLENN MITCHELL,  36.777056, -76.096288
6104,PRINCESS ANNE & INDEPENDENCE,  36.788060, -76.110517
6106,ARMISTEAD & HAMPTON CENTER ROADS CTR PKWY,  37.061034, -76.386061
6107,ARMISTEAD & ARMISTEAD POINTE,  37.060285, -76.385608
6108,MICHIGAN & LASALLE,  37.030177, -76.363653
6109,SHORE & STRAFFORD,  36.907895, -76.103514
6110,MERCURY & SALEM,  37.043797, -76.352360
6111,MERCURY & SELDENDALE,  37.043893, -76.359595
6112,MERCURY & TODDS,  37.038305, -76.405247
6113,MERCURY & ABERDEEN,  37.037752, -76.407706
6114,MERCURY & BEECHWOOD,  37.036245, -76.411157
6115,MERCURY & ASPENWOOD,  37.033396, -76.416767
6116,MERCURY & YALE,  37.030382, -76.422784
6117,MERCURY & CHESTNUT,  37.027187, -76.429197
6118,MERCURY & CHESTNUT,  37.025732, -76.431276
6119,MERCURY & SHRECK,  37.029391, -76.423949
6120,MERCURY & PENNWOOD,  37.032359, -76.418046
6121,MERCURY & TALLWOOD,  37.035448, -76.411906
6122,MERCURY & ABERDEEN,  37.037428, -76.407533
6123,MERCURY & EASTERLY,  37.043531, -76.357210
6124,MERCURY & KING,  37.043434, -76.352017
6125,SEWELLS POINT & MARIETTA,  36.899544, -76.242429
6126,SEWELLS POINT & WIDGEON,  36.901825, -76.242652
6127,SEWELLS POINT & WIDGEON,  36.902052, -76.242548
6128,MERCURY & BROOKFIELD,  37.043773, -76.372319
6129,MERCURY & BROOKFIELD,  37.044153, -76.371347
6130,IKEA & RING ROAD,  36.874612, -76.200851
6131,MILITARY & DRIFT TIDE,  36.820373, -76.212318
6132,CAMELOT & SIR GAWAINE,  36.781841, -76.347667
6133,SIR GALAHAD & TOURNAMENT,  36.780527, -76.353232
7866,BIG BETHEL & RADFORD,  37.048988, -76.429337
8001,EVMC FORT NORFOLK STATION,  36.858697, -76.303490
8002,YORK STREET FREEMASON STATION,  36.853569, -76.293885
8003,MONTICELLO,  36.851187, -76.288796
8004,MACARTHUR SQUARE STATION,  36.847201, -76.290229
8005,CIVIC PLAZA STATION,  36.845937, -76.286011
8006,HARBOR PARK STATION,  36.844006, -76.278042
8007,NSU STATION,  36.845864, -76.269374
8008,BALLENTINE BROAD CREEK STATION,  36.846190, -76.253188
8009,INGLESIDE ROAD STATION,  36.842736, -76.235020
8010,MILITARY HIGHWAY STATION,  36.841460, -76.213126
8011,NEWTOWN ROAD STATION,  36.841048, -76.190226
8851,GILBERT & FARRAGUT,  36.947692, -76.310371
8870,SECOND & A,  36.938322, -76.325156
8871,SECOND & ESCORT,  36.939719, -76.325278
9002,GILMERTON & LAKE VILLAGE,  36.778498, -76.329641
9084,BATTLEFIELD & MEDICAL,  36.746593, -76.245065
9121,GENERAL BOOTH & DAM NECK,  36.787691, -75.998612
9127,UPTON & NIMMO,  36.759135, -76.005981
9143,38TH & BLUESTONE,  36.879496, -76.304912
9145,49TH & QUARANTINE,  36.887489, -76.307644
9158,POWHATAN & 46TH,  36.885821, -76.312565
9173,INDIAN RIVER & KEMPSVILLE,  36.796409, -76.173178
9185,NEWPORT & RHODE ISLAND,  36.887650, -76.288284
9196,BORDER & BETHEL,  36.815563, -76.259185
9217,FIRESIDE & PARKSIDE,  36.812126, -76.251788
9219,FIRESIDE & STALHAM,  36.812006, -76.251748
9235,BALLENTINE & VIRGINIA BEACH,  36.852134, -76.248068
9349,PACIFIC & 25TH1/2,  36.853670, -75.977693
9375,DEEP CREEK & ELLIOT,  36.814082, -76.329216
9381,FIRST COLONIAL & SIR WILLIAM OSLER,  36.864866, -76.028909
9387,SETTLERS LANDING & HAMPTON HARBOR,  37.025107, -76.332772
9399,LINCOLN & 7TH,  36.824760, -76.304344
9404,PORTSMOUTH & TAYLOR,  36.823895, -76.410763
9409,BEECHDALE & GUST,  36.793092, -76.344869
9416,GREENWOOD & BONNE VILLA,  36.800495, -76.368187
9417,PORT CENTRE & MADISON,  36.822579, -76.297489
9418,SEVENTH & MADISON,  36.820853, -76.301132
9421,AFTON & FARRAGUT,  36.800478, -76.316580
9423,ROOSEVELT & VAUGHN,  36.793042, -76.364554
9424,GREENWOOD & NORMANDY,  36.801143, -76.351442
9427,DARREN & HORNE,  36.797676, -76.370696
9429,ROOSEVELT & VAUGHN,  36.792886, -76.364014
9431,BEECHDALE & GUST,  36.793029, -76.344799
9432,LOREN & ROOSEVELT,  36.793476, -76.366573
9433,TURNPIKE & FAQUIER,  36.823039, -76.342472
9468,QUEEN & FLORIDA,  36.835269, -76.337034
9498,74TH & MARSHALL,  37.015483, -76.435201
9499,44TH & ROANOKE,  36.998153, -76.416986
9510,CRISTON & HANCOCK,  37.107011, -76.490746
9511,CRISTON & HANCOCK,  37.107176, -76.490593
9558,MILITARY HWY STATION,  36.841557, -76.213570
9560,ATLANTIC & 10TH,  36.838444, -75.972303
9561,ATLANTIC & 11TH,  36.839668, -75.972796
9620,WELLNESS LOOP,  36.775679, -76.097589
9649,KEMPSVILLE & ALBRIGHT,  36.788385, -76.182795
9650,KEMPSVILLE & BRANDON,  36.784344, -76.187529
9651,KEMPSVILLE & SCHOOLHOUSE,  36.779204, -76.195135
9652,KEMPSVILLE & DUNN LORING,  36.771623, -76.202372
9656,VOLVO & PROFESSIONAL PL,  36.769370, -76.220807
9665,KEMPSVILLE & DUNN LORING,  36.772057, -76.201712
9666,KEMPSVILLE & CENTERVILLE,  36.779023, -76.194934
9667,KEMPSVILLE & BEAUFAIN,  36.784858, -76.186319
9668,KEMPSVILLE & ALBRIGHT,  36.789049, -76.181771
9700,MERCURY & NEWMARKET,  37.021523, -76.439676
9710,ATLANTIC & BROAD,  36.799557, -76.262197
9711,ATLANTIC & BROAD,  36.799402, -76.262434
9951,19TH & JEFFERSON,  36.845055, -75.988061
9952,19TH & PAVILION,  36.844057, -75.993297
F001,FERRY STOP - WATERSIDE,  36.843292, -76.290922
F002,FERRY STOP - HIGH ST,  36.835202, -76.296357
F003,FERRY STOP - NORTH LANDING,  36.838848, -76.296165
